{"businesses": [{"coordinates": {"longitude": -122.34458, "latitude": 47.72617}, "categories": [{"alias": "thai", "title": "Thai"}, {"alias": "noodles", "title": "Noodles"}], "location": {"display_address": ["13242 Aurora Ave N", "Ste 104", "Seattle, WA 98133"], "address3": "", "city": "Seattle", "state": "WA", "address2": "Ste 104", "address1": "13242 Aurora Ave N", "zip_code": "98133", "country": "US"}, "review_count": 296, "distance": 11207.94909276, "display_phone": "(206) 695-2858", "price": "$", "rating": 4.5, "phone": "+12066952858", "id": "pop-pop-thai-street-food-seattle-8", "name": "Pop Pop Thai Street Food", "transactions": ["pickup"], "url": "https://www.yelp.com/biz/pop-pop-thai-street-food-seattle-8?adjust_creative=8_C4NSGbL05eUQksKleGYw&utm_campaign=yelp_api_v3&utm_medium=api_v3_business_search&utm_source=8_C4NSGbL05eUQksKleGYw", "is_closed": false, "image_url": "https://s3-media3.fl.yelpcdn.com/bphoto/8bN_HCkFW_E8_lMVd-EH3Q/o.jpg"}, {"coordinates": {"longitude": -122.32338, "latitude": 47.69067}, "categories": [{"alias": "hawaiian", "title": "Hawaiian"}, {"alias": "breakfast_brunch", "title": "Breakfast & Brunch"}, {"alias": "asianfusion", "title": "Asian Fusion"}], "location": {"display_address": ["8501 5th Ave NE", "Seattle, WA 98115"], "address3": "", "city": "Seattle", "state": "WA", "address2": "", "address1": "8501 5th Ave NE", "zip_code": "98115", "country": "US"}, "review_count": 677, "distance": 7306.988273221999, "display_phone": "(206) 517-5662", "price": "$$", "rating": 4.0, "phone": "+12065175662", "id": "kona-kitchen-seattle", "name": "Kona Kitchen", "transactions": [], "url": "https://www.yelp.com/biz/kona-kitchen-seattle?adjust_creative=8_C4NSGbL05eUQksKleGYw&utm_campaign=yelp_api_v3&utm_medium=api_v3_business_search&utm_source=8_C4NSGbL05eUQksKleGYw", "is_closed": false, "image_url": "https://s3-media2.fl.yelpcdn.com/bphoto/QhLx7xLTfO4HNU4kdnhzzA/o.jpg"}, {"coordinates": {"longitude": -122.289220162563, "latitude": 47.6122937491713}, "categories": [{"alias": "newamerican", "title": "American (New)"}, {"alias": "italian", "title": "Italian"}], "location": {"display_address": ["1126 34th Ave", "Seattle, WA 98122"], "address3": "", "city": "Seattle", "state": "WA", "address2": "", "address1": "1126 34th Ave", "zip_code": "98122", "country": "US"}, "review_count": 87, "distance": 3763.867099496, "display_phone": "(206) 466-2533", "price": "$$$", "rating": 4.5, "phone": "+12064662533", "id": "vendemmia-seattle", "name": "Vendemmia", "transactions": [], "url": "https://www.yelp.com/biz/vendemmia-seattle?adjust_creative=8_C4NSGbL05eUQksKleGYw&utm_campaign=yelp_api_v3&utm_medium=api_v3_business_search&utm_source=8_C4NSGbL05eUQksKleGYw", "is_closed": false, "image_url": "https://s3-media4.fl.yelpcdn.com/bphoto/4st7e_zSUbxxwBLcnOjv1Q/o.jpg"}, {"coordinates": {"longitude": -122.31553, "latitude": 47.52365}, "categories": [{"alias": "vietnamese", "title": "Vietnamese"}, {"alias": "asianfusion", "title": "Asian Fusion"}, {"alias": "tex-mex", "title": "Tex-Mex"}], "location": {"display_address": ["8909 14th Ave S", "Seattle, WA 98108"], "address3": "", "city": "Seattle", "state": "WA", "address2": "", "address1": "8909 14th Ave S", "zip_code": "98108", "country": "US"}, "review_count": 94, "distance": 11426.37354558, "display_phone": "(206) 519-0810", "price": "$", "rating": 4.5, "phone": "+12065190810", "id": "phorale-seattle", "name": "Phorale", "transactions": [], "url": "https://www.yelp.com/biz/phorale-seattle?adjust_creative=8_C4NSGbL05eUQksKleGYw&utm_campaign=yelp_api_v3&utm_medium=api_v3_business_search&utm_source=8_C4NSGbL05eUQksKleGYw", "is_closed": false, "image_url": "https://s3-media1.fl.yelpcdn.com/bphoto/94IfbB75etztUi6P0y4MSA/o.jpg"}, {"coordinates": {"longitude": -122.31341, "latitude": 47.66144}, "categories": [{"alias": "chinese", "title": "Chinese"}, {"alias": "noodles", "title": "Noodles"}], "location": {"display_address": ["4507 University Way NE", "Seattle, WA 98105"], "address3": "", "city": "Seattle", "state": "WA", "address2": "", "address1": "4507 University Way NE", "zip_code": "98105", "country": "US"}, "review_count": 74, "distance": 4340.999758925999, "display_phone": "(206) 547-1966", "price": "$", "rating": 4.0, "phone": "+12065471966", "id": "silkroad-noodle-bar-seattle", "name": "SilkRoad Noodle Bar", "transactions": ["pickup"], "url": "https://www.yelp.com/biz/silkroad-noodle-bar-seattle?adjust_creative=8_C4NSGbL05eUQksKleGYw&utm_campaign=yelp_api_v3&utm_medium=api_v3_business_search&utm_source=8_C4NSGbL05eUQksKleGYw", "is_closed": false, "image_url": "https://s3-media3.fl.yelpcdn.com/bphoto/toZZP0oer5RhdA4TMQqbig/o.jpg"}, {"coordinates": {"longitude": -122.33508, "latitude": 47.60795}, "categories": [{"alias": "newamerican", "title": "American (New)"}, {"alias": "wine_bars", "title": "Wine Bars"}, {"alias": "desserts", "title": "Desserts"}], "location": {"display_address": ["1225 4th Ave", "Seattle, WA 98101"], "address3": "", "city": "Seattle", "state": "WA", "address2": null, "address1": "1225 4th Ave", "zip_code": "98101", "country": "US"}, "review_count": 1813, "distance": 1943.499012382, "display_phone": "(206) 829-2280", "price": "$$$", "rating": 4.0, "phone": "+12068292280", "id": "purple-caf\u00e9-and-wine-bar-seattle-3", "name": "Purple Caf\u00e9 and Wine Bar", "transactions": [], "url": "https://www.yelp.com/biz/purple-caf%C3%A9-and-wine-bar-seattle-3?adjust_creative=8_C4NSGbL05eUQksKleGYw&utm_campaign=yelp_api_v3&utm_medium=api_v3_business_search&utm_source=8_C4NSGbL05eUQksKleGYw", "is_closed": false, "image_url": "https://s3-media3.fl.yelpcdn.com/bphoto/yK8b6N3ymhCGSR5EFN6tHQ/o.jpg"}, {"coordinates": {"longitude": -122.381042480469, "latitude": 47.6555519104004}, "categories": [{"alias": "seafood", "title": "Seafood"}, {"alias": "breakfast_brunch", "title": "Breakfast & Brunch"}, {"alias": "bars", "title": "Bars"}], "location": {"display_address": ["1900 W Nickerson St", "Fishermen's Ter", "Seattle, WA 98119"], "address3": "Fishermen's Ter", "city": "Seattle", "state": "WA", "address2": "", "address1": "1900 W Nickerson St", "zip_code": "98119", "country": "US"}, "review_count": 520, "distance": 4781.556262057999, "display_phone": "(206) 283-4665", "price": "$$", "rating": 4.0, "phone": "+12062834665", "id": "chinooks-seattle", "name": "Chinook's", "transactions": [], "url": "https://www.yelp.com/biz/chinooks-seattle?adjust_creative=8_C4NSGbL05eUQksKleGYw&utm_campaign=yelp_api_v3&utm_medium=api_v3_business_search&utm_source=8_C4NSGbL05eUQksKleGYw", "is_closed": false, "image_url": "https://s3-media1.fl.yelpcdn.com/bphoto/H30tAyBUwfu4RcN5sJUx1w/o.jpg"}, {"coordinates": {"longitude": -122.336288452148, "latitude": 47.6122932434082}, "categories": [{"alias": "newamerican", "title": "American (New)"}, {"alias": "tapasmallplates", "title": "Tapas/Small Plates"}, {"alias": "tapas", "title": "Tapas Bars"}], "location": {"display_address": ["Nordstrom", "500 Pine St", "Seattle, WA 98101"], "address3": null, "city": "Seattle", "state": "WA", "address2": "500 Pine St", "address1": "Nordstrom", "zip_code": "98101", "country": "US"}, "review_count": 29, "distance": 1459.901837488, "display_phone": "(206) 628-1635", "price": "$$", "rating": 4.5, "phone": "+12066281635", "id": "habitant-seattle-3", "name": "Habitant", "transactions": [], "url": "https://www.yelp.com/biz/habitant-seattle-3?adjust_creative=8_C4NSGbL05eUQksKleGYw&utm_campaign=yelp_api_v3&utm_medium=api_v3_business_search&utm_source=8_C4NSGbL05eUQksKleGYw", "is_closed": false, "image_url": "https://s3-media1.fl.yelpcdn.com/bphoto/X4mTOYvfxo9AZFZKDPDgGA/o.jpg"}, {"coordinates": {"longitude": -122.35717, "latitude": 47.63777}, "categories": [{"alias": "mexican", "title": "Mexican"}], "location": {"display_address": ["2123 Queen Anne Ave N", "Seattle, WA 98109"], "address3": "", "city": "Seattle", "state": "WA", "address2": "", "address1": "2123 Queen Anne Ave N", "zip_code": "98109", "country": "US"}, "review_count": 309, "distance": 2139.550259588, "display_phone": "(206) 216-4446", "price": "$$", "rating": 4.0, "phone": "+12062164446", "id": "mezcaleria-oaxaca-seattle", "name": "Mezcaleria Oaxaca", "transactions": [], "url": "https://www.yelp.com/biz/mezcaleria-oaxaca-seattle?adjust_creative=8_C4NSGbL05eUQksKleGYw&utm_campaign=yelp_api_v3&utm_medium=api_v3_business_search&utm_source=8_C4NSGbL05eUQksKleGYw", "is_closed": false, "image_url": "https://s3-media2.fl.yelpcdn.com/bphoto/eXsVtwHUNorOSxRu3YTChQ/o.jpg"}, {"coordinates": {"longitude": -122.35498, "latitude": 47.69155}, "categories": [{"alias": "mexican", "title": "Mexican"}, {"alias": "latin", "title": "Latin American"}], "location": {"display_address": ["8552 Greenwood Ave N", "Seattle, WA 98103"], "address3": null, "city": "Seattle", "state": "WA", "address2": "", "address1": "8552 Greenwood Ave N", "zip_code": "98103", "country": "US"}, "review_count": 56, "distance": 7486.83636344, "display_phone": "(206) 706-5392", "price": "$$", "rating": 4.5, "phone": "+12067065392", "id": "luna-azul-seattle", "name": "Luna Azul", "transactions": ["pickup"], "url": "https://www.yelp.com/biz/luna-azul-seattle?adjust_creative=8_C4NSGbL05eUQksKleGYw&utm_campaign=yelp_api_v3&utm_medium=api_v3_business_search&utm_source=8_C4NSGbL05eUQksKleGYw", "is_closed": false, "image_url": "https://s3-media3.fl.yelpcdn.com/bphoto/IQVGewmT4y_HOgn9XVIBNQ/o.jpg"}, {"coordinates": {"longitude": -122.327613, "latitude": 47.614223}, "categories": [{"alias": "vietnamese", "title": "Vietnamese"}, {"alias": "asianfusion", "title": "Asian Fusion"}, {"alias": "panasian", "title": "Pan Asian"}], "location": {"display_address": ["300 E Pike St", "Ste 1200", "Seattle, WA 98122"], "address3": "", "city": "Seattle", "state": "WA", "address2": "Ste 1200", "address1": "300 E Pike St", "zip_code": "98122", "country": "US"}, "review_count": 451, "distance": 1400.247787972, "display_phone": "(206) 557-7273", "price": "$$", "rating": 4.0, "phone": "+12065577273", "id": "stateside-seattle-3", "name": "Stateside", "transactions": [], "url": "https://www.yelp.com/biz/stateside-seattle-3?adjust_creative=8_C4NSGbL05eUQksKleGYw&utm_campaign=yelp_api_v3&utm_medium=api_v3_business_search&utm_source=8_C4NSGbL05eUQksKleGYw", "is_closed": false, "image_url": "https://s3-media4.fl.yelpcdn.com/bphoto/PiEh0I6zGiCmk7bE3xbjqg/o.jpg"}, {"coordinates": {"longitude": -122.323858731759, "latitude": 47.6149776553302}, "categories": [{"alias": "izakaya", "title": "Izakaya"}, {"alias": "ramen", "title": "Ramen"}, {"alias": "salad", "title": "Salad"}], "location": {"display_address": ["611 E Pine St", "Seattle, WA 98122"], "address3": "", "city": "Seattle", "state": "WA", "address2": "", "address1": "611 E Pine St", "zip_code": "98122", "country": "US"}, "review_count": 383, "distance": 1452.6779447498, "display_phone": "(206) 747-9595", "price": "$$", "rating": 4.0, "phone": "+12067479595", "id": "suika-seattle-seattle", "name": "Suika Seattle", "transactions": [], "url": "https://www.yelp.com/biz/suika-seattle-seattle?adjust_creative=8_C4NSGbL05eUQksKleGYw&utm_campaign=yelp_api_v3&utm_medium=api_v3_business_search&utm_source=8_C4NSGbL05eUQksKleGYw", "is_closed": false, "image_url": "https://s3-media3.fl.yelpcdn.com/bphoto/Tv5uLYlUrbdU9tMbQWmkYw/o.jpg"}, {"coordinates": {"longitude": -122.338306505391, "latitude": 47.6067340675997}, "categories": [{"alias": "newamerican", "title": "American (New)"}, {"alias": "gastropubs", "title": "Gastropubs"}], "location": {"display_address": ["1225 1st Ave", "Seattle, WA 98101"], "address3": "", "city": "Seattle", "state": "WA", "address2": "", "address1": "1225 1st Ave", "zip_code": "98101", "country": "US"}, "review_count": 712, "distance": 2088.180448656, "display_phone": "(206) 621-8667", "price": "$$", "rating": 4.0, "phone": "+12066218667", "id": "vons-gustobistro-seattle-4", "name": "Von's Gustobistro", "transactions": ["pickup"], "url": "https://www.yelp.com/biz/vons-gustobistro-seattle-4?adjust_creative=8_C4NSGbL05eUQksKleGYw&utm_campaign=yelp_api_v3&utm_medium=api_v3_business_search&utm_source=8_C4NSGbL05eUQksKleGYw", "is_closed": false, "image_url": "https://s3-media3.fl.yelpcdn.com/bphoto/x2I-pyrjlrE3vDhAbVAI1g/o.jpg"}, {"coordinates": {"longitude": -122.29875, "latitude": 47.6756232}, "categories": [{"alias": "italian", "title": "Italian"}, {"alias": "french", "title": "French"}], "location": {"display_address": ["2615 NE 65th St", "Seattle, WA 98115"], "address3": "", "city": "Seattle", "state": "WA", "address2": "", "address1": "2615 NE 65th St", "zip_code": "98115", "country": "US"}, "review_count": 129, "distance": 6224.663510108, "display_phone": "(206) 525-7747", "price": "$$", "rating": 4.5, "phone": "+12065257747", "id": "the-zouave-restaurant-seattle", "name": "The Zouave Restaurant", "transactions": [], "url": "https://www.yelp.com/biz/the-zouave-restaurant-seattle?adjust_creative=8_C4NSGbL05eUQksKleGYw&utm_campaign=yelp_api_v3&utm_medium=api_v3_business_search&utm_source=8_C4NSGbL05eUQksKleGYw", "is_closed": false, "image_url": "https://s3-media1.fl.yelpcdn.com/bphoto/8EiboGiyAyDPcFF6hg8aHw/o.jpg"}, {"coordinates": {"longitude": -122.38246, "latitude": 47.66601}, "categories": [{"alias": "newamerican", "title": "American (New)"}, {"alias": "gastropubs", "title": "Gastropubs"}, {"alias": "cocktailbars", "title": "Cocktail Bars"}], "location": {"display_address": ["5210 Ballard Ave NW", "Seattle, WA 98107"], "address3": "", "city": "Seattle", "state": "WA", "address2": "", "address1": "5210 Ballard Ave NW", "zip_code": "98107", "country": "US"}, "review_count": 272, "distance": 5725.153503162, "display_phone": "(206) 432-9280", "price": "$$", "rating": 4.0, "phone": "+12064329280", "id": "the-gerald-seattle", "name": "The Gerald", "transactions": [], "url": "https://www.yelp.com/biz/the-gerald-seattle?adjust_creative=8_C4NSGbL05eUQksKleGYw&utm_campaign=yelp_api_v3&utm_medium=api_v3_business_search&utm_source=8_C4NSGbL05eUQksKleGYw", "is_closed": false, "image_url": "https://s3-media3.fl.yelpcdn.com/bphoto/d4hYLT9a7fFIJzfJgrhf8w/o.jpg"}, {"coordinates": {"longitude": -122.30122, "latitude": 47.67595}, "categories": [{"alias": "tradamerican", "title": "American (Traditional)"}, {"alias": "caribbean", "title": "Caribbean"}, {"alias": "african", "title": "African"}], "location": {"display_address": ["2404 NE 65th St", "Seattle, WA 98115"], "address3": "", "city": "Seattle", "state": "WA", "address2": "", "address1": "2404 NE 65th St", "zip_code": "98115", "country": "US"}, "review_count": 179, "distance": 6186.971479835999, "display_phone": "(206) 556-2192", "price": "$$$", "rating": 4.0, "phone": "+12065562192", "id": "salare-seattle", "name": "Salare", "transactions": [], "url": "https://www.yelp.com/biz/salare-seattle?adjust_creative=8_C4NSGbL05eUQksKleGYw&utm_campaign=yelp_api_v3&utm_medium=api_v3_business_search&utm_source=8_C4NSGbL05eUQksKleGYw", "is_closed": false, "image_url": "https://s3-media4.fl.yelpcdn.com/bphoto/O0k2FL_9fAXC6r-M1jxmOQ/o.jpg"}, {"coordinates": {"longitude": -122.32658, "latitude": 47.6179}, "categories": [{"alias": "malaysian", "title": "Malaysian"}, {"alias": "noodles", "title": "Noodles"}], "location": {"display_address": ["1802 Bellevue Ave", "Seattle, WA 98122"], "address3": "", "city": "Seattle", "state": "WA", "address2": "", "address1": "1802 Bellevue Ave", "zip_code": "98122", "country": "US"}, "review_count": 225, "distance": 1073.035652634, "display_phone": "", "price": "$$", "rating": 4.0, "phone": "", "id": "kedai-makan-seattle-4", "name": "Kedai Makan", "transactions": [], "url": "https://www.yelp.com/biz/kedai-makan-seattle-4?adjust_creative=8_C4NSGbL05eUQksKleGYw&utm_campaign=yelp_api_v3&utm_medium=api_v3_business_search&utm_source=8_C4NSGbL05eUQksKleGYw", "is_closed": false, "image_url": "https://s3-media3.fl.yelpcdn.com/bphoto/Ap-piFqNq12lcr7f1Gk2DA/o.jpg"}, {"coordinates": {"longitude": -122.31372, "latitude": 47.65822}, "categories": [{"alias": "vietnamese", "title": "Vietnamese"}, {"alias": "salad", "title": "Salad"}, {"alias": "sandwiches", "title": "Sandwiches"}], "location": {"display_address": ["1313 NE 42nd St", "Seattle, WA 98105"], "address3": "", "city": "Seattle", "state": "WA", "address2": null, "address1": "1313 NE 42nd St", "zip_code": "98105", "country": "US"}, "review_count": 62, "distance": 3996.9114406119998, "display_phone": "(206) 547-2723", "price": "$", "rating": 4.0, "phone": "+12065472723", "id": "sizzle-and-crunch-seattle", "name": "Sizzle&Crunch", "transactions": [], "url": "https://www.yelp.com/biz/sizzle-and-crunch-seattle?adjust_creative=8_C4NSGbL05eUQksKleGYw&utm_campaign=yelp_api_v3&utm_medium=api_v3_business_search&utm_source=8_C4NSGbL05eUQksKleGYw", "is_closed": false, "image_url": "https://s3-media1.fl.yelpcdn.com/bphoto/URUvYjT3u3sF22LaGomz1A/o.jpg"}, {"coordinates": {"longitude": -122.294944967567, "latitude": 47.6686789872273}, "categories": [{"alias": "newamerican", "title": "American (New)"}, {"alias": "french", "title": "French"}, {"alias": "wine_bars", "title": "Wine Bars"}], "location": {"display_address": ["5501 30th Ave NE", "Seattle, WA 98105"], "address3": "", "city": "Seattle", "state": "WA", "address2": "", "address1": "5501 30th Ave NE", "zip_code": "98105", "country": "US"}, "review_count": 183, "distance": 5689.627805464, "display_phone": "(206) 526-7655", "price": "$$", "rating": 4.0, "phone": "+12065267655", "id": "pair-seattle", "name": "Pair", "transactions": [], "url": "https://www.yelp.com/biz/pair-seattle?adjust_creative=8_C4NSGbL05eUQksKleGYw&utm_campaign=yelp_api_v3&utm_medium=api_v3_business_search&utm_source=8_C4NSGbL05eUQksKleGYw", "is_closed": false, "image_url": "https://s3-media2.fl.yelpcdn.com/bphoto/iuIz5PXHNTDDMeJkrCS7Ww/o.jpg"}, {"coordinates": {"longitude": -122.3254135, "latitude": 47.6393564}, "categories": [{"alias": "newamerican", "title": "American (New)"}, {"alias": "cocktailbars", "title": "Cocktail Bars"}], "location": {"display_address": ["2236 Eastlake Ave E", "Seattle, WA 98102"], "address3": "", "city": "Seattle", "state": "WA", "address2": "", "address1": "2236 Eastlake Ave E", "zip_code": "98102", "country": "US"}, "review_count": 60, "distance": 1724.2500946799998, "display_phone": "(206) 329-2744", "price": "$$", "rating": 4.5, "phone": "+12063292744", "id": "babirusa-seattle", "name": "Babirusa", "transactions": [], "url": "https://www.yelp.com/biz/babirusa-seattle?adjust_creative=8_C4NSGbL05eUQksKleGYw&utm_campaign=yelp_api_v3&utm_medium=api_v3_business_search&utm_source=8_C4NSGbL05eUQksKleGYw", "is_closed": false, "image_url": "https://s3-media1.fl.yelpcdn.com/bphoto/ec2WvmHcDNzkZzciLymNxw/o.jpg"}, {"coordinates": {"longitude": -122.349206, "latitude": 47.625564}, "categories": [{"alias": "mediterranean", "title": "Mediterranean"}, {"alias": "lebanese", "title": "Lebanese"}, {"alias": "vegetarian", "title": "Vegetarian"}], "location": {"display_address": ["366 Roy St", "Seattle, WA 98109"], "address3": "", "city": "Seattle", "state": "WA", "address2": "", "address1": "366 Roy St", "zip_code": "98109", "country": "US"}, "review_count": 233, "distance": 1026.444696365, "display_phone": "(206) 282-0078", "price": "$$", "rating": 4.0, "phone": "+12062820078", "id": "mashawi-mediterranean-cuisine-seattle", "name": "Mashawi Mediterranean Cuisine", "transactions": ["pickup"], "url": "https://www.yelp.com/biz/mashawi-mediterranean-cuisine-seattle?adjust_creative=8_C4NSGbL05eUQksKleGYw&utm_campaign=yelp_api_v3&utm_medium=api_v3_business_search&utm_source=8_C4NSGbL05eUQksKleGYw", "is_closed": false, "image_url": "https://s3-media1.fl.yelpcdn.com/bphoto/j7FEJGOuKbQe5fGDNF8ApQ/o.jpg"}, {"coordinates": {"longitude": -122.35715, "latitude": 47.63876}, "categories": [{"alias": "newamerican", "title": "American (New)"}], "location": {"display_address": ["2209 Queen Anne Ave N", "Seattle, WA 98109"], "address3": "", "city": "Seattle", "state": "WA", "address2": "", "address1": "2209 Queen Anne Ave N", "zip_code": "98109", "country": "US"}, "review_count": 83, "distance": 2184.005863078, "display_phone": "(206) 708-6836", "price": "$$$$", "rating": 4.5, "phone": "+12067086836", "id": "eden-hill-seattle", "name": "Eden Hill", "transactions": [], "url": "https://www.yelp.com/biz/eden-hill-seattle?adjust_creative=8_C4NSGbL05eUQksKleGYw&utm_campaign=yelp_api_v3&utm_medium=api_v3_business_search&utm_source=8_C4NSGbL05eUQksKleGYw", "is_closed": false, "image_url": "https://s3-media4.fl.yelpcdn.com/bphoto/GcQDsZFOlNPBRx3df0Zuug/o.jpg"}, {"coordinates": {"longitude": -122.340888977051, "latitude": 47.6594200134277}, "categories": [{"alias": "taiwanese", "title": "Taiwanese"}, {"alias": "hotpot", "title": "Hot Pot"}], "location": {"display_address": ["4301 Interlake Ave N", "Seattle, WA 98103"], "address3": "", "city": "Seattle", "state": "WA", "address2": "", "address1": "4301 Interlake Ave N", "zip_code": "98103", "country": "US"}, "review_count": 260, "distance": 3791.05464572, "display_phone": "(206) 545-4878", "price": "$", "rating": 4.0, "phone": "+12065454878", "id": "rocking-wok-taiwanese-cuisine-seattle-2", "name": "Rocking Wok Taiwanese Cuisine", "transactions": [], "url": "https://www.yelp.com/biz/rocking-wok-taiwanese-cuisine-seattle-2?adjust_creative=8_C4NSGbL05eUQksKleGYw&utm_campaign=yelp_api_v3&utm_medium=api_v3_business_search&utm_source=8_C4NSGbL05eUQksKleGYw", "is_closed": false, "image_url": "https://s3-media3.fl.yelpcdn.com/bphoto/jk3x_83SkNETygqo5TejdA/o.jpg"}, {"coordinates": {"longitude": -122.3317249, "latitude": 47.5981496}, "categories": [{"alias": "korean", "title": "Korean"}, {"alias": "steak", "title": "Steakhouses"}], "location": {"display_address": ["501 Stadium Pl S", "Seattle, WA 98104"], "address3": "", "city": "Seattle", "state": "WA", "address2": "", "address1": "501 Stadium Pl S", "zip_code": "98104", "country": "US"}, "review_count": 174, "distance": 3058.867870914, "display_phone": "(206) 257-4259", "price": "$$$", "rating": 4.0, "phone": "+12062574259", "id": "girin-seattle-3", "name": "Girin", "transactions": [], "url": "https://www.yelp.com/biz/girin-seattle-3?adjust_creative=8_C4NSGbL05eUQksKleGYw&utm_campaign=yelp_api_v3&utm_medium=api_v3_business_search&utm_source=8_C4NSGbL05eUQksKleGYw", "is_closed": false, "image_url": "https://s3-media1.fl.yelpcdn.com/bphoto/9YznD0_7J4N0xJgu55pjdw/o.jpg"}, {"coordinates": {"longitude": -122.32115, "latitude": 47.62488}, "categories": [{"alias": "italian", "title": "Italian"}], "location": {"display_address": ["617 Broadway E", "Seattle, WA 98102"], "address3": "", "city": "Seattle", "state": "WA", "address2": "", "address1": "617 Broadway E", "zip_code": "98102", "country": "US"}, "review_count": 382, "distance": 1069.62127689, "display_phone": "(206) 402-6749", "price": "$$$$", "rating": 4.5, "phone": "+12064026749", "id": "altura-seattle", "name": "Altura", "transactions": [], "url": "https://www.yelp.com/biz/altura-seattle?adjust_creative=8_C4NSGbL05eUQksKleGYw&utm_campaign=yelp_api_v3&utm_medium=api_v3_business_search&utm_source=8_C4NSGbL05eUQksKleGYw", "is_closed": false, "image_url": "https://s3-media1.fl.yelpcdn.com/bphoto/f-RK_kUvPB5VBQg_lO4Ncw/o.jpg"}, {"coordinates": {"longitude": -122.3803277, "latitude": 47.6554366}, "categories": [{"alias": "pubs", "title": "Pubs"}, {"alias": "seafood", "title": "Seafood"}, {"alias": "burgers", "title": "Burgers"}], "location": {"display_address": ["3909 18th Ave W", "Seattle, WA 98119"], "address3": "", "city": "Seattle", "state": "WA", "address2": null, "address1": "3909 18th Ave W", "zip_code": "98119", "country": "US"}, "review_count": 125, "distance": 4734.395358028, "display_phone": "(206) 216-1254", "price": "$$", "rating": 4.0, "phone": "+12062161254", "id": "highliner-public-house-seattle", "name": "Highliner Public House", "transactions": [], "url": "https://www.yelp.com/biz/highliner-public-house-seattle?adjust_creative=8_C4NSGbL05eUQksKleGYw&utm_campaign=yelp_api_v3&utm_medium=api_v3_business_search&utm_source=8_C4NSGbL05eUQksKleGYw", "is_closed": false, "image_url": "https://s3-media1.fl.yelpcdn.com/bphoto/HyJ1nRt9iGEZjIMsQSrHnQ/o.jpg"}, {"coordinates": {"longitude": -122.340491730164, "latitude": 47.6090277348593}, "categories": [{"alias": "bakeries", "title": "Bakeries"}, {"alias": "coffee", "title": "Coffee & Tea"}, {"alias": "breakfast_brunch", "title": "Breakfast & Brunch"}], "location": {"display_address": ["1503 1st Ave", "Seattle, WA 98101"], "address3": "", "city": "Seattle", "state": "WA", "address2": "", "address1": "1503 1st Ave", "zip_code": "98101", "country": "US"}, "review_count": 1655, "distance": 1860.5370525800001, "display_phone": "(206) 682-1598", "price": "$", "rating": 4.5, "phone": "+12066821598", "id": "the-crumpet-shop-seattle", "name": "The Crumpet Shop", "transactions": [], "url": "https://www.yelp.com/biz/the-crumpet-shop-seattle?adjust_creative=8_C4NSGbL05eUQksKleGYw&utm_campaign=yelp_api_v3&utm_medium=api_v3_business_search&utm_source=8_C4NSGbL05eUQksKleGYw", "is_closed": false, "image_url": "https://s3-media3.fl.yelpcdn.com/bphoto/omMQvG3tyiEWvCoB4cRGPA/o.jpg"}, {"coordinates": {"longitude": -122.32471, "latitude": 47.59847}, "categories": [{"alias": "bbq", "title": "Barbeque"}, {"alias": "seafood", "title": "Seafood"}, {"alias": "cantonese", "title": "Cantonese"}], "location": {"display_address": ["656 S King St", "Seattle, WA 98104"], "address3": "", "city": "Seattle", "state": "WA", "address2": null, "address1": "656 S King St", "zip_code": "98104", "country": "US"}, "review_count": 709, "distance": 3094.5017162599997, "display_phone": "(206) 682-4006", "price": "$", "rating": 4.0, "phone": "+12066824006", "id": "kau-kau-barbeque-seattle", "name": "Kau Kau Barbeque", "transactions": [], "url": "https://www.yelp.com/biz/kau-kau-barbeque-seattle?adjust_creative=8_C4NSGbL05eUQksKleGYw&utm_campaign=yelp_api_v3&utm_medium=api_v3_business_search&utm_source=8_C4NSGbL05eUQksKleGYw", "is_closed": false, "image_url": "https://s3-media2.fl.yelpcdn.com/bphoto/b8XDA9R94wzD19vlWJzjEw/o.jpg"}, {"coordinates": {"longitude": -122.32585, "latitude": 47.54553}, "categories": [{"alias": "hawaiian", "title": "Hawaiian"}], "location": {"display_address": ["6324 6th Ave S", "Seattle, WA 98108"], "address3": "", "city": "Seattle", "state": "WA", "address2": "", "address1": "6324 6th Ave S", "zip_code": "98108", "country": "US"}, "review_count": 354, "distance": 8914.242568582, "display_phone": "(206) 762-3469", "price": "$", "rating": 4.0, "phone": "+12067623469", "id": "kauai-family-restaurant-seattle", "name": "Kauai Family Restaurant", "transactions": ["pickup"], "url": "https://www.yelp.com/biz/kauai-family-restaurant-seattle?adjust_creative=8_C4NSGbL05eUQksKleGYw&utm_campaign=yelp_api_v3&utm_medium=api_v3_business_search&utm_source=8_C4NSGbL05eUQksKleGYw", "is_closed": false, "image_url": "https://s3-media1.fl.yelpcdn.com/bphoto/2_47h1A7BnqnB3QBa6wcnA/o.jpg"}, {"coordinates": {"longitude": -122.39998626709, "latitude": 47.6402549743652}, "categories": [{"alias": "italian", "title": "Italian"}, {"alias": "seafood", "title": "Seafood"}, {"alias": "mediterranean", "title": "Mediterranean"}], "location": {"display_address": ["2425 33rd Ave W", "Ste 3", "Seattle, WA 98199"], "address3": "", "city": "Seattle", "state": "WA", "address2": "Ste 3", "address1": "2425 33rd Ave W", "zip_code": "98199", "country": "US"}, "review_count": 212, "distance": 5107.066037543999, "display_phone": "(206) 352-8700", "price": "$$", "rating": 4.0, "phone": "+12063528700", "id": "mondello-ristorante-italiano-seattle-2", "name": "Mondello Ristorante Italiano", "transactions": [], "url": "https://www.yelp.com/biz/mondello-ristorante-italiano-seattle-2?adjust_creative=8_C4NSGbL05eUQksKleGYw&utm_campaign=yelp_api_v3&utm_medium=api_v3_business_search&utm_source=8_C4NSGbL05eUQksKleGYw", "is_closed": false, "image_url": "https://s3-media4.fl.yelpcdn.com/bphoto/6VfTdvWHW5Ipa7G2UDAxUQ/o.jpg"}, {"coordinates": {"longitude": -122.35619, "latitude": 47.62506}, "categories": [{"alias": "newamerican", "title": "American (New)"}, {"alias": "gluten_free", "title": "Gluten-Free"}, {"alias": "wine_bars", "title": "Wine Bars"}], "location": {"display_address": ["10 Mercer St", "Seattle, WA 98109"], "address3": "", "city": "Seattle", "state": "WA", "address2": "", "address1": "10 Mercer St", "zip_code": "98109", "country": "US"}, "review_count": 230, "distance": 1561.5377739799999, "display_phone": "(206) 691-3723", "price": "$$", "rating": 4.0, "phone": "+12066913723", "id": "ten-mercer-seattle", "name": "Ten Mercer", "transactions": [], "url": "https://www.yelp.com/biz/ten-mercer-seattle?adjust_creative=8_C4NSGbL05eUQksKleGYw&utm_campaign=yelp_api_v3&utm_medium=api_v3_business_search&utm_source=8_C4NSGbL05eUQksKleGYw", "is_closed": false, "image_url": "https://s3-media3.fl.yelpcdn.com/bphoto/yC9c1oAtAjR8CwlkO-zwXw/o.jpg"}, {"coordinates": {"longitude": -122.40925, "latitude": 47.5674}, "categories": [{"alias": "italian", "title": "Italian"}], "location": {"display_address": ["4100 Beach Dr SW", "Ste A", "Seattle, WA 98116"], "address3": "", "city": "Seattle", "state": "WA", "address2": "Ste A", "address1": "4100 Beach Dr SW", "zip_code": "98116", "country": "US"}, "review_count": 293, "distance": 8501.303627322, "display_phone": "(206) 932-3020", "price": "$$$", "rating": 4.0, "phone": "+12069323020", "id": "la-rustica-seattle", "name": "La Rustica", "transactions": [], "url": "https://www.yelp.com/biz/la-rustica-seattle?adjust_creative=8_C4NSGbL05eUQksKleGYw&utm_campaign=yelp_api_v3&utm_medium=api_v3_business_search&utm_source=8_C4NSGbL05eUQksKleGYw", "is_closed": false, "image_url": "https://s3-media3.fl.yelpcdn.com/bphoto/HpHr1bhwMpIcPEjqqWERvg/o.jpg"}, {"coordinates": {"longitude": -122.32527, "latitude": 47.59766}, "categories": [{"alias": "teppanyaki", "title": "Teppanyaki"}], "location": {"display_address": ["628 S Weller St", "Seattle, WA 98104"], "address3": "", "city": "Seattle", "state": "WA", "address2": "", "address1": "628 S Weller St", "zip_code": "98104", "country": "US"}, "review_count": 97, "distance": 3174.3932162759997, "display_phone": "(206) 623-2541", "price": "$$", "rating": 4.0, "phone": "+12066232541", "id": "ironsteak-seattle", "name": "Ironsteak", "transactions": ["pickup"], "url": "https://www.yelp.com/biz/ironsteak-seattle?adjust_creative=8_C4NSGbL05eUQksKleGYw&utm_campaign=yelp_api_v3&utm_medium=api_v3_business_search&utm_source=8_C4NSGbL05eUQksKleGYw", "is_closed": false, "image_url": "https://s3-media4.fl.yelpcdn.com/bphoto/lZpxMP1R0l_W-Ktx1_BnWw/o.jpg"}, {"coordinates": {"longitude": -122.334412382889, "latitude": 47.661275215696}, "categories": [{"alias": "ramen", "title": "Ramen"}, {"alias": "cocktailbars", "title": "Cocktail Bars"}, {"alias": "izakaya", "title": "Izakaya"}], "location": {"display_address": ["1913 N 45th St", "Seattle, WA 98103"], "address3": "", "city": "Seattle", "state": "WA", "address2": "", "address1": "1913 N 45th St", "zip_code": "98103", "country": "US"}, "review_count": 308, "distance": 3987.6657823119995, "display_phone": "(206) 547-4649", "price": "$$", "rating": 4.0, "phone": "+12065474649", "id": "yoroshiku-seattle-4", "name": "Yoroshiku", "transactions": ["pickup"], "url": "https://www.yelp.com/biz/yoroshiku-seattle-4?adjust_creative=8_C4NSGbL05eUQksKleGYw&utm_campaign=yelp_api_v3&utm_medium=api_v3_business_search&utm_source=8_C4NSGbL05eUQksKleGYw", "is_closed": false, "image_url": "https://s3-media3.fl.yelpcdn.com/bphoto/OkXWqIIS-NcKMUQx46Pqtg/o.jpg"}, {"coordinates": {"longitude": -122.334723599332, "latitude": 47.6018366775535}, "categories": [{"alias": "korean", "title": "Korean"}, {"alias": "filipino", "title": "Filipino"}, {"alias": "chinese", "title": "Chinese"}], "location": {"display_address": ["88 Yesler Way", "Seattle, WA 98104"], "address3": "", "city": "Seattle", "state": "WA", "address2": "", "address1": "88 Yesler Way", "zip_code": "98104", "country": "US"}, "review_count": 241, "distance": 2622.9084474919996, "display_phone": "(206) 748-9999", "price": "$$", "rating": 4.0, "phone": "+12067489999", "id": "kraken-congee-seattle", "name": "Kraken Congee", "transactions": [], "url": "https://www.yelp.com/biz/kraken-congee-seattle?adjust_creative=8_C4NSGbL05eUQksKleGYw&utm_campaign=yelp_api_v3&utm_medium=api_v3_business_search&utm_source=8_C4NSGbL05eUQksKleGYw", "is_closed": false, "image_url": "https://s3-media2.fl.yelpcdn.com/bphoto/1r4_P_XBkDZNJzLbpktNqA/o.jpg"}, {"coordinates": {"longitude": -122.391484938562, "latitude": 47.6302682978454}, "categories": [{"alias": "seafood", "title": "Seafood"}, {"alias": "steak", "title": "Steakhouses"}, {"alias": "asianfusion", "title": "Asian Fusion"}], "location": {"display_address": ["2601 W Marina Pl", "Elliott Bay Marina", "Seattle, WA 98199"], "address3": "Elliott Bay Marina", "city": "Seattle", "state": "WA", "address2": "", "address1": "2601 W Marina Pl", "zip_code": "98199", "country": "US"}, "review_count": 1015, "distance": 4229.3535667, "display_phone": "(206) 285-1000", "price": "$$$", "rating": 4.0, "phone": "+12062851000", "id": "palisade-seattle", "name": "Palisade", "transactions": [], "url": "https://www.yelp.com/biz/palisade-seattle?adjust_creative=8_C4NSGbL05eUQksKleGYw&utm_campaign=yelp_api_v3&utm_medium=api_v3_business_search&utm_source=8_C4NSGbL05eUQksKleGYw", "is_closed": false, "image_url": "https://s3-media4.fl.yelpcdn.com/bphoto/Ps8n_cRcoA7YPEh0i2TyPA/o.jpg"}, {"coordinates": {"longitude": -122.3240814, "latitude": 47.6153793}, "categories": [{"alias": "mexican", "title": "Mexican"}], "location": {"display_address": ["600 E Pine St", "Seattle, WA 98122"], "address3": "", "city": "Seattle", "state": "WA", "address2": "", "address1": "600 E Pine St", "zip_code": "98122", "country": "US"}, "review_count": 756, "distance": 1399.6391355839999, "display_phone": "(206) 320-7777", "price": "$$", "rating": 4.5, "phone": "+12063207777", "id": "fog\u00f3n-cocina-mexicana-seattle-2", "name": "Fog\u00f3n Cocina Mexicana", "transactions": [], "url": "https://www.yelp.com/biz/fog%C3%B3n-cocina-mexicana-seattle-2?adjust_creative=8_C4NSGbL05eUQksKleGYw&utm_campaign=yelp_api_v3&utm_medium=api_v3_business_search&utm_source=8_C4NSGbL05eUQksKleGYw", "is_closed": false, "image_url": "https://s3-media3.fl.yelpcdn.com/bphoto/SgK1C7GqeyoYQU2Xs_CGFA/o.jpg"}, {"coordinates": {"longitude": -122.346925400198, "latitude": 47.6767449533551}, "categories": [{"alias": "cuban", "title": "Cuban"}, {"alias": "caribbean", "title": "Caribbean"}], "location": {"display_address": ["6501 Aurora Ave N", "Seattle, WA 98103"], "address3": "", "city": "Seattle", "state": "WA", "address2": "", "address1": "6501 Aurora Ave N", "zip_code": "98103", "country": "US"}, "review_count": 451, "distance": 5770.947433795999, "display_phone": "(206) 420-8548", "price": "$", "rating": 4.5, "phone": "+12064208548", "id": "bongos-seattle", "name": "Bongos", "transactions": [], "url": "https://www.yelp.com/biz/bongos-seattle?adjust_creative=8_C4NSGbL05eUQksKleGYw&utm_campaign=yelp_api_v3&utm_medium=api_v3_business_search&utm_source=8_C4NSGbL05eUQksKleGYw", "is_closed": false, "image_url": "https://s3-media2.fl.yelpcdn.com/bphoto/qDl3CzXRKpvkn0eqTr5etw/o.jpg"}, {"coordinates": {"longitude": -122.383972, "latitude": 47.667842}, "categories": [{"alias": "breakfast_brunch", "title": "Breakfast & Brunch"}, {"alias": "newamerican", "title": "American (New)"}, {"alias": "tapasmallplates", "title": "Tapas/Small Plates"}], "location": {"display_address": ["5451 Leary Ave NW", "Seattle, WA 98107"], "address3": "", "city": "Seattle", "state": "WA", "address2": "", "address1": "5451 Leary Ave NW", "zip_code": "98107", "country": "US"}, "review_count": 293, "distance": 5950.198941676, "display_phone": "(206) 257-5761", "price": "$$", "rating": 4.0, "phone": "+12062575761", "id": "porkchop-and-co-seattle", "name": "Porkchop & Co", "transactions": [], "url": "https://www.yelp.com/biz/porkchop-and-co-seattle?adjust_creative=8_C4NSGbL05eUQksKleGYw&utm_campaign=yelp_api_v3&utm_medium=api_v3_business_search&utm_source=8_C4NSGbL05eUQksKleGYw", "is_closed": false, "image_url": "https://s3-media4.fl.yelpcdn.com/bphoto/nyc9Z-8NKb-pQFqIzWMeWQ/o.jpg"}, {"coordinates": {"longitude": -122.321262359619, "latitude": 47.620570445175}, "categories": [{"alias": "mexican", "title": "Mexican"}, {"alias": "sandwiches", "title": "Sandwiches"}], "location": {"display_address": ["219 Broadway E", "Seattle, WA 98102"], "address3": "", "city": "Seattle", "state": "WA", "address2": "", "address1": "219 Broadway E", "zip_code": "98102", "country": "US"}, "review_count": 913, "distance": 1196.4578684419998, "display_phone": "(206) 328-4447", "price": "$", "rating": 4.5, "phone": "+12063284447", "id": "tacos-chukis-seattle", "name": "Tacos Chukis", "transactions": [], "url": "https://www.yelp.com/biz/tacos-chukis-seattle?adjust_creative=8_C4NSGbL05eUQksKleGYw&utm_campaign=yelp_api_v3&utm_medium=api_v3_business_search&utm_source=8_C4NSGbL05eUQksKleGYw", "is_closed": false, "image_url": "https://s3-media2.fl.yelpcdn.com/bphoto/X4tDiDhO-Q4JhvFRUaN2-g/o.jpg"}, {"coordinates": {"longitude": -122.3245163, "latitude": 47.6193161}, "categories": [{"alias": "korean", "title": "Korean"}], "location": {"display_address": ["1631 E Olive Way", "Seattle, WA 98102"], "address3": "", "city": "Seattle", "state": "WA", "address2": "", "address1": "1631 E Olive Way", "zip_code": "98102", "country": "US"}, "review_count": 181, "distance": 1070.286256178, "display_phone": "(206) 726-0141", "price": "$$", "rating": 4.5, "phone": "+12067260141", "id": "bluestone-seattle", "name": "BlueStone", "transactions": [], "url": "https://www.yelp.com/biz/bluestone-seattle?adjust_creative=8_C4NSGbL05eUQksKleGYw&utm_campaign=yelp_api_v3&utm_medium=api_v3_business_search&utm_source=8_C4NSGbL05eUQksKleGYw", "is_closed": false, "image_url": "https://s3-media1.fl.yelpcdn.com/bphoto/x2JvZdguE0HC3mmUmoZJJA/o.jpg"}, {"coordinates": {"longitude": -122.294687367976, "latitude": 47.7195138893104}, "categories": [{"alias": "italian", "title": "Italian"}], "location": {"display_address": ["12518 Lake City Way NE", "Seattle, WA 98125"], "address3": "", "city": "Seattle", "state": "WA", "address2": "", "address1": "12518 Lake City Way NE", "zip_code": "98125", "country": "US"}, "review_count": 137, "distance": 10900.0759134, "display_phone": "(206) 362-1396", "price": "$", "rating": 4.5, "phone": "+12063621396", "id": "mo-and-lu-pasta-seattle", "name": "Mo & Lu Pasta", "transactions": ["pickup"], "url": "https://www.yelp.com/biz/mo-and-lu-pasta-seattle?adjust_creative=8_C4NSGbL05eUQksKleGYw&utm_campaign=yelp_api_v3&utm_medium=api_v3_business_search&utm_source=8_C4NSGbL05eUQksKleGYw", "is_closed": false, "image_url": "https://s3-media3.fl.yelpcdn.com/bphoto/OVtXGhOsvfglnXmCAfdABA/o.jpg"}, {"coordinates": {"longitude": -122.3288116, "latitude": 47.5521088}, "categories": [{"alias": "bars", "title": "Bars"}, {"alias": "newamerican", "title": "American (New)"}], "location": {"display_address": ["412 S Orcas St", "Seattle, WA 98108"], "address3": "", "city": "Seattle", "state": "WA", "address2": "", "address1": "412 S Orcas St", "zip_code": "98108", "country": "US"}, "review_count": 58, "distance": 8172.578551449999, "display_phone": "(206) 397-4302", "price": "$$", "rating": 4.0, "phone": "+12063974302", "id": "the-blu-grouse-seattle", "name": "The Blu Grouse", "transactions": [], "url": "https://www.yelp.com/biz/the-blu-grouse-seattle?adjust_creative=8_C4NSGbL05eUQksKleGYw&utm_campaign=yelp_api_v3&utm_medium=api_v3_business_search&utm_source=8_C4NSGbL05eUQksKleGYw", "is_closed": false, "image_url": "https://s3-media1.fl.yelpcdn.com/bphoto/IeEzTgct4xJSIqakvt2UNQ/o.jpg"}, {"coordinates": {"longitude": -122.312315, "latitude": 47.6214889}, "categories": [{"alias": "bars", "title": "Bars"}, {"alias": "newamerican", "title": "American (New)"}, {"alias": "breakfast_brunch", "title": "Breakfast & Brunch"}], "location": {"display_address": ["332 15th Ave E", "Seattle, WA 98112"], "address3": "", "city": "Seattle", "state": "WA", "address2": "", "address1": "332 15th Ave E", "zip_code": "98112", "country": "US"}, "review_count": 680, "distance": 1792.299105372, "display_phone": "(206) 709-1900", "price": "$$", "rating": 4.0, "phone": "+12067091900", "id": "smith-seattle", "name": "Smith", "transactions": [], "url": "https://www.yelp.com/biz/smith-seattle?adjust_creative=8_C4NSGbL05eUQksKleGYw&utm_campaign=yelp_api_v3&utm_medium=api_v3_business_search&utm_source=8_C4NSGbL05eUQksKleGYw", "is_closed": false, "image_url": "https://s3-media3.fl.yelpcdn.com/bphoto/rUEwUef88SQeLylRKAFsuQ/o.jpg"}, {"coordinates": {"longitude": -122.317832050262, "latitude": 47.5998406645559}, "categories": [{"alias": "vietnamese", "title": "Vietnamese"}, {"alias": "noodles", "title": "Noodles"}], "location": {"display_address": ["1036 S Jackson St", "Ste A", "Seattle, WA 98104"], "address3": "", "city": "Seattle", "state": "WA", "address2": "Ste A", "address1": "1036 S Jackson St", "zip_code": "98104", "country": "US"}, "review_count": 1052, "distance": 3137.634925072, "display_phone": "(206) 860-1404", "price": "$$", "rating": 4.0, "phone": "+12068601404", "id": "tamarind-tree-seattle", "name": "Tamarind Tree", "transactions": [], "url": "https://www.yelp.com/biz/tamarind-tree-seattle?adjust_creative=8_C4NSGbL05eUQksKleGYw&utm_campaign=yelp_api_v3&utm_medium=api_v3_business_search&utm_source=8_C4NSGbL05eUQksKleGYw", "is_closed": false, "image_url": "https://s3-media3.fl.yelpcdn.com/bphoto/umrJ4G8hh2qLzOSAaLH_yg/o.jpg"}, {"coordinates": {"longitude": -122.37666, "latitude": 47.58659}, "categories": [{"alias": "seafood", "title": "Seafood"}, {"alias": "breakfast_brunch", "title": "Breakfast & Brunch"}, {"alias": "newamerican", "title": "American (New)"}], "location": {"display_address": ["1936 Harbor Ave SW", "Seattle, WA 98126"], "address3": "", "city": "Seattle", "state": "WA", "address2": "", "address1": "1936 Harbor Ave SW", "zip_code": "98126", "country": "US"}, "review_count": 1321, "distance": 5299.884603492, "display_phone": "(206) 937-1600", "price": "$$$", "rating": 3.5, "phone": "+12069371600", "id": "saltys-alki-beach-seattle", "name": "Salty's - Alki Beach", "transactions": [], "url": "https://www.yelp.com/biz/saltys-alki-beach-seattle?adjust_creative=8_C4NSGbL05eUQksKleGYw&utm_campaign=yelp_api_v3&utm_medium=api_v3_business_search&utm_source=8_C4NSGbL05eUQksKleGYw", "is_closed": false, "image_url": "https://s3-media2.fl.yelpcdn.com/bphoto/yiD-pjuVbCZlGt_X-4G69A/o.jpg"}, {"coordinates": {"longitude": -122.347327076057, "latitude": 47.6147782162181}, "categories": [{"alias": "sushi", "title": "Sushi Bars"}, {"alias": "japanese", "title": "Japanese"}], "location": {"display_address": ["2401 2nd Ave", "Seattle, WA 98121"], "address3": "", "city": "Seattle", "state": "WA", "address2": "", "address1": "2401 2nd Ave", "zip_code": "98121", "country": "US"}, "review_count": 1500, "distance": 1478.2114596019999, "display_phone": "(206) 443-9844", "price": "$$$", "rating": 4.5, "phone": "+12064439844", "id": "shiros-seattle", "name": "Shiro's", "transactions": [], "url": "https://www.yelp.com/biz/shiros-seattle?adjust_creative=8_C4NSGbL05eUQksKleGYw&utm_campaign=yelp_api_v3&utm_medium=api_v3_business_search&utm_source=8_C4NSGbL05eUQksKleGYw", "is_closed": false, "image_url": "https://s3-media3.fl.yelpcdn.com/bphoto/f10Z1r4_R95ylcZwUS3LRA/o.jpg"}, {"coordinates": {"longitude": -122.41219329834, "latitude": 47.5784187316895}, "categories": [{"alias": "seafood", "title": "Seafood"}, {"alias": "fishnchips", "title": "Fish & Chips"}], "location": {"display_address": ["2800 Alki Ave SW", "Seattle, WA 98116"], "address3": "", "city": "Seattle", "state": "WA", "address2": "", "address1": "2800 Alki Ave SW", "zip_code": "98116", "country": "US"}, "review_count": 179, "distance": 7770.05606334, "display_phone": "(206) 938-4112", "price": "$$", "rating": 4.0, "phone": "+12069384112", "id": "sunfish-seattle", "name": "Sunfish", "transactions": [], "url": "https://www.yelp.com/biz/sunfish-seattle?adjust_creative=8_C4NSGbL05eUQksKleGYw&utm_campaign=yelp_api_v3&utm_medium=api_v3_business_search&utm_source=8_C4NSGbL05eUQksKleGYw", "is_closed": false, "image_url": "https://s3-media1.fl.yelpcdn.com/bphoto/gqw3Q6xQD0yt7KSEQlprng/o.jpg"}, {"coordinates": {"longitude": -122.29042375312, "latitude": 47.6685914501512}, "categories": [{"alias": "italian", "title": "Italian"}, {"alias": "pizza", "title": "Pizza"}, {"alias": "bars", "title": "Bars"}], "location": {"display_address": ["3426 NE 55th St", "Seattle, WA 98105"], "address3": "", "city": "Seattle", "state": "WA", "address2": "", "address1": "3426 NE 55th St", "zip_code": "98105", "country": "US"}, "review_count": 115, "distance": 5869.65083094, "display_phone": "(206) 582-1899", "price": "$$", "rating": 4.0, "phone": "+12065821899", "id": "mioposto-bryant-seattle", "name": "Mioposto - Bryant", "transactions": [], "url": "https://www.yelp.com/biz/mioposto-bryant-seattle?adjust_creative=8_C4NSGbL05eUQksKleGYw&utm_campaign=yelp_api_v3&utm_medium=api_v3_business_search&utm_source=8_C4NSGbL05eUQksKleGYw", "is_closed": false, "image_url": "https://s3-media1.fl.yelpcdn.com/bphoto/e9gtD_J1i9D5NQAwhc8mrQ/o.jpg"}, {"coordinates": {"longitude": -122.3161227, "latitude": 47.5485036}, "categories": [{"alias": "gastropubs", "title": "Gastropubs"}, {"alias": "bars", "title": "Bars"}], "location": {"display_address": ["6031 Airport Way S", "Seattle, WA 98108"], "address3": "", "city": "Seattle", "state": "WA", "address2": null, "address1": "6031 Airport Way S", "zip_code": "98108", "country": "US"}, "review_count": 308, "distance": 8675.3323441, "display_phone": "(206) 397-3821", "price": "$$", "rating": 3.5, "phone": "+12063973821", "id": "brass-tacks-seattle", "name": "Brass Tacks", "transactions": [], "url": "https://www.yelp.com/biz/brass-tacks-seattle?adjust_creative=8_C4NSGbL05eUQksKleGYw&utm_campaign=yelp_api_v3&utm_medium=api_v3_business_search&utm_source=8_C4NSGbL05eUQksKleGYw", "is_closed": false, "image_url": "https://s3-media2.fl.yelpcdn.com/bphoto/Yb1FsGzgQw_7Tfy92yjjjA/o.jpg"}], "region": {"center": {"longitude": -122.33551025390625, "latitude": 47.62541904760501}}, "total": 7629}