{"businesses": [{"coordinates": {"longitude": -122.344183, "latitude": 47.654129}, "categories": [{"alias": "newamerican", "title": "American (New)"}], "location": {"display_address": ["3801 Stone Way N", "Seattle, WA 98103"], "address3": "", "city": "Seattle", "state": "WA", "address2": "", "address1": "3801 Stone Way N", "zip_code": "98103", "country": "US"}, "review_count": 482, "distance": 3257.8231721499997, "display_phone": "(206) 282-0942", "price": "$$$$", "rating": 4.5, "phone": "+12062820942", "id": "art-of-the-table-seattle", "name": "Art of The Table", "transactions": [], "url": "https://www.yelp.com/biz/art-of-the-table-seattle?adjust_creative=8_C4NSGbL05eUQksKleGYw&utm_campaign=yelp_api_v3&utm_medium=api_v3_business_search&utm_source=8_C4NSGbL05eUQksKleGYw", "is_closed": false, "image_url": "https://s3-media1.fl.yelpcdn.com/bphoto/rG3wooV8cP9DV88KM-yTyw/o.jpg"}, {"coordinates": {"longitude": -122.32528, "latitude": 47.5982}, "categories": [{"alias": "poke", "title": "Poke"}, {"alias": "hawaiian", "title": "Hawaiian"}, {"alias": "desserts", "title": "Desserts"}], "location": {"display_address": ["625 S King St", "Seattle, WA 98104"], "address3": null, "city": "Seattle", "state": "WA", "address2": "", "address1": "625 S King St", "zip_code": "98104", "country": "US"}, "review_count": 190, "distance": 3117.096367058, "display_phone": "(206) 799-9560", "price": "$$", "rating": 4.5, "phone": "+12067999560", "id": "gopok\u00e9-seattle-5", "name": "goPok\u00e9", "transactions": [], "url": "https://www.yelp.com/biz/gopok%C3%A9-seattle-5?adjust_creative=8_C4NSGbL05eUQksKleGYw&utm_campaign=yelp_api_v3&utm_medium=api_v3_business_search&utm_source=8_C4NSGbL05eUQksKleGYw", "is_closed": false, "image_url": "https://s3-media2.fl.yelpcdn.com/bphoto/pnXl4bvA2UPogt-iBOuSjw/o.jpg"}, {"coordinates": {"longitude": -122.35676, "latitude": 47.63857}, "categories": [{"alias": "mediterranean", "title": "Mediterranean"}, {"alias": "lounges", "title": "Lounges"}, {"alias": "wine_bars", "title": "Wine Bars"}], "location": {"display_address": ["2 Boston St", "Seattle, WA 98109"], "address3": "", "city": "Seattle", "state": "WA", "address2": null, "address1": "2 Boston St", "zip_code": "98109", "country": "US"}, "review_count": 94, "distance": 2156.202422436, "display_phone": "(206) 466-1027", "price": "$$", "rating": 4.0, "phone": "+12064661027", "id": "grappa-seattle", "name": "Grappa", "transactions": [], "url": "https://www.yelp.com/biz/grappa-seattle?adjust_creative=8_C4NSGbL05eUQksKleGYw&utm_campaign=yelp_api_v3&utm_medium=api_v3_business_search&utm_source=8_C4NSGbL05eUQksKleGYw", "is_closed": false, "image_url": "https://s3-media1.fl.yelpcdn.com/bphoto/YN1Z82BDbNYBp7rIKE-xEA/o.jpg"}, {"coordinates": {"longitude": -122.3523, "latitude": 47.65149}, "categories": [{"alias": "ramen", "title": "Ramen"}, {"alias": "poke", "title": "Poke"}, {"alias": "noodles", "title": "Noodles"}], "location": {"display_address": ["501 N 36th St", "Seattle, WA 98103"], "address3": "", "city": "Seattle", "state": "WA", "address2": "", "address1": "501 N 36th St", "zip_code": "98103", "country": "US"}, "review_count": 124, "distance": 3158.71035891, "display_phone": "(206) 258-3612", "price": "$$", "rating": 4.0, "phone": "+12062583612", "id": "nuna-ramen-seattle", "name": "Nuna Ramen", "transactions": [], "url": "https://www.yelp.com/biz/nuna-ramen-seattle?adjust_creative=8_C4NSGbL05eUQksKleGYw&utm_campaign=yelp_api_v3&utm_medium=api_v3_business_search&utm_source=8_C4NSGbL05eUQksKleGYw", "is_closed": false, "image_url": "https://s3-media2.fl.yelpcdn.com/bphoto/DpD9viO2FEFNgC-drYvb2Q/o.jpg"}, {"coordinates": {"longitude": -122.36281, "latitude": 47.6761399}, "categories": [{"alias": "vietnamese", "title": "Vietnamese"}, {"alias": "comfortfood", "title": "Comfort Food"}, {"alias": "soup", "title": "Soup"}], "location": {"display_address": ["500 NW 65th St", "Seattle, WA 98117"], "address3": "", "city": "Seattle", "state": "WA", "address2": "", "address1": "500 NW 65th St", "zip_code": "98117", "country": "US"}, "review_count": 114, "distance": 5995.953121611999, "display_phone": "(206) 402-3281", "price": "$$", "rating": 4.5, "phone": "+12064023281", "id": "stock-seattle", "name": "Stock", "transactions": [], "url": "https://www.yelp.com/biz/stock-seattle?adjust_creative=8_C4NSGbL05eUQksKleGYw&utm_campaign=yelp_api_v3&utm_medium=api_v3_business_search&utm_source=8_C4NSGbL05eUQksKleGYw", "is_closed": false, "image_url": "https://s3-media1.fl.yelpcdn.com/bphoto/z7ptYWFz06hMiTeqkjmg1w/o.jpg"}, {"coordinates": {"longitude": -122.380218, "latitude": 47.663513}, "categories": [{"alias": "seafood", "title": "Seafood"}, {"alias": "raw_food", "title": "Live/Raw Food"}, {"alias": "tapasmallplates", "title": "Tapas/Small Plates"}], "location": {"display_address": ["4743 Ballard Ave NW", "Seattle, WA 98107"], "address3": "", "city": "Seattle", "state": "WA", "address2": "", "address1": "4743 Ballard Ave NW", "zip_code": "98107", "country": "US"}, "review_count": 1239, "distance": 5401.0021715699995, "display_phone": "(206) 395-9227", "price": "$$$", "rating": 4.0, "phone": "+12063959227", "id": "the-walrus-and-the-carpenter-seattle", "name": "The Walrus and the Carpenter", "transactions": [], "url": "https://www.yelp.com/biz/the-walrus-and-the-carpenter-seattle?adjust_creative=8_C4NSGbL05eUQksKleGYw&utm_campaign=yelp_api_v3&utm_medium=api_v3_business_search&utm_source=8_C4NSGbL05eUQksKleGYw", "is_closed": false, "image_url": "https://s3-media1.fl.yelpcdn.com/bphoto/9CHgIvtAS-iryudEHt83Iw/o.jpg"}, {"coordinates": {"longitude": -122.31659, "latitude": 47.61341}, "categories": [{"alias": "japanese", "title": "Japanese"}, {"alias": "burgers", "title": "Burgers"}], "location": {"display_address": ["1410 12th Ave", "Seattle, WA 98122"], "address3": null, "city": "Seattle", "state": "WA", "address2": "", "address1": "1410 12th Ave", "zip_code": "98122", "country": "US"}, "review_count": 57, "distance": 1949.0940438259997, "display_phone": "(206) 941-5317", "price": "$$", "rating": 4.5, "phone": "+12069415317", "id": "katsu-burger-capitol-hill-seattle", "name": "Katsu Burger - Capitol Hill", "transactions": [], "url": "https://www.yelp.com/biz/katsu-burger-capitol-hill-seattle?adjust_creative=8_C4NSGbL05eUQksKleGYw&utm_campaign=yelp_api_v3&utm_medium=api_v3_business_search&utm_source=8_C4NSGbL05eUQksKleGYw", "is_closed": false, "image_url": "https://s3-media4.fl.yelpcdn.com/bphoto/4YAf_muXCFV1_83i-WyqOw/o.jpg"}, {"coordinates": {"longitude": -122.314304038882, "latitude": 47.614434286952}, "categories": [{"alias": "tapasmallplates", "title": "Tapas/Small Plates"}, {"alias": "asianfusion", "title": "Asian Fusion"}, {"alias": "cocktailbars", "title": "Cocktail Bars"}], "location": {"display_address": ["1519 14th Ave", "Seattle, WA 98122"], "address3": "", "city": "Seattle", "state": "WA", "address2": "", "address1": "1519 14th Ave", "zip_code": "98122", "country": "US"}, "review_count": 325, "distance": 1993.970811594, "display_phone": "(206) 257-0312", "price": "$$", "rating": 4.0, "phone": "+12062570312", "id": "nue-seattle", "name": "Nue", "transactions": ["pickup"], "url": "https://www.yelp.com/biz/nue-seattle?adjust_creative=8_C4NSGbL05eUQksKleGYw&utm_campaign=yelp_api_v3&utm_medium=api_v3_business_search&utm_source=8_C4NSGbL05eUQksKleGYw", "is_closed": false, "image_url": "https://s3-media3.fl.yelpcdn.com/bphoto/z33cHqzqJa8sUFcWsxK_Lg/o.jpg"}, {"coordinates": {"longitude": -122.3424, "latitude": 47.64962}, "categories": [{"alias": "asianfusion", "title": "Asian Fusion"}, {"alias": "korean", "title": "Korean"}, {"alias": "breakfast_brunch", "title": "Breakfast & Brunch"}], "location": {"display_address": ["3506 Stone Way N", "Seattle, WA 98103"], "address3": "", "city": "Seattle", "state": "WA", "address2": "", "address1": "3506 Stone Way N", "zip_code": "98103", "country": "US"}, "review_count": 602, "distance": 2734.974677458, "display_phone": "(206) 632-5685", "price": "$$", "rating": 4.0, "phone": "+12066325685", "id": "joule-seattle", "name": "Joule", "transactions": [], "url": "https://www.yelp.com/biz/joule-seattle?adjust_creative=8_C4NSGbL05eUQksKleGYw&utm_campaign=yelp_api_v3&utm_medium=api_v3_business_search&utm_source=8_C4NSGbL05eUQksKleGYw", "is_closed": false, "image_url": "https://s3-media1.fl.yelpcdn.com/bphoto/LInCytyLXQ90F2lho3uy2A/o.jpg"}, {"coordinates": {"longitude": -122.380718663883, "latitude": 47.5895547295386}, "categories": [{"alias": "korean", "title": "Korean"}, {"alias": "hawaiian", "title": "Hawaiian"}, {"alias": "asianfusion", "title": "Asian Fusion"}], "location": {"display_address": ["1660 Harbor Ave SW", "Seattle, WA 98126"], "address3": "", "city": "Seattle", "state": "WA", "address2": "", "address1": "1660 Harbor Ave SW", "zip_code": "98126", "country": "US"}, "review_count": 625, "distance": 5233.850808348, "display_phone": "(206) 328-8226", "price": "$", "rating": 4.0, "phone": "+12063288226", "id": "marination-ma-kai-seattle", "name": "Marination Ma Kai", "transactions": [], "url": "https://www.yelp.com/biz/marination-ma-kai-seattle?adjust_creative=8_C4NSGbL05eUQksKleGYw&utm_campaign=yelp_api_v3&utm_medium=api_v3_business_search&utm_source=8_C4NSGbL05eUQksKleGYw", "is_closed": false, "image_url": "https://s3-media1.fl.yelpcdn.com/bphoto/5cwWSd0Q_AfBZpbCbDUvsA/o.jpg"}, {"coordinates": {"longitude": -122.29921, "latitude": 47.66164}, "categories": [{"alias": "taiwanese", "title": "Taiwanese"}, {"alias": "shanghainese", "title": "Shanghainese"}, {"alias": "dimsum", "title": "Dim Sum"}], "location": {"display_address": ["2621 NE 46th St", "Seattle, WA 98105"], "address3": "", "city": "Seattle", "state": "WA", "address2": "", "address1": "2621 NE 46th St", "zip_code": "98105", "country": "US"}, "review_count": 1433, "distance": 4842.408626138, "display_phone": "(206) 525-0958", "price": "$$", "rating": 4.0, "phone": "+12065250958", "id": "din-tai-fung-seattle", "name": "Din Tai Fung", "transactions": [], "url": "https://www.yelp.com/biz/din-tai-fung-seattle?adjust_creative=8_C4NSGbL05eUQksKleGYw&utm_campaign=yelp_api_v3&utm_medium=api_v3_business_search&utm_source=8_C4NSGbL05eUQksKleGYw", "is_closed": false, "image_url": "https://s3-media1.fl.yelpcdn.com/bphoto/uAei2yNcliDbhRDVCjpbqw/o.jpg"}, {"coordinates": {"longitude": -122.333892183964, "latitude": 47.6280260632239}, "categories": [{"alias": "seafood", "title": "Seafood"}, {"alias": "salad", "title": "Salad"}, {"alias": "burgers", "title": "Burgers"}], "location": {"display_address": ["901 Fairview Ave N", "Seattle, WA 98109"], "address3": "", "city": "Seattle", "state": "WA", "address2": "", "address1": "901 Fairview Ave N", "zip_code": "98109", "country": "US"}, "review_count": 419, "distance": 314.04580293, "display_phone": "(206) 382-9963", "price": "$$", "rating": 4.0, "phone": "+12063829963", "id": "dukes-chowder-house-seattle-11", "name": "Duke's Chowder House", "transactions": [], "url": "https://www.yelp.com/biz/dukes-chowder-house-seattle-11?adjust_creative=8_C4NSGbL05eUQksKleGYw&utm_campaign=yelp_api_v3&utm_medium=api_v3_business_search&utm_source=8_C4NSGbL05eUQksKleGYw", "is_closed": false, "image_url": "https://s3-media2.fl.yelpcdn.com/bphoto/Me0zfgUdP9uGx419LDTv8w/o.jpg"}, {"coordinates": {"longitude": -122.3425, "latitude": 47.61028}, "categories": [{"alias": "italian", "title": "Italian"}, {"alias": "wine_bars", "title": "Wine Bars"}, {"alias": "gluten_free", "title": "Gluten-Free"}], "location": {"display_address": ["1919 Post Aly", "Seattle, WA 98101"], "address3": "", "city": "Seattle", "state": "WA", "address2": "", "address1": "1919 Post Aly", "zip_code": "98101", "country": "US"}, "review_count": 2561, "distance": 1767.3377591699998, "display_phone": "(206) 443-3241", "price": "$$", "rating": 4.0, "phone": "+12064433241", "id": "the-pink-door-seattle-4", "name": "The Pink Door", "transactions": [], "url": "https://www.yelp.com/biz/the-pink-door-seattle-4?adjust_creative=8_C4NSGbL05eUQksKleGYw&utm_campaign=yelp_api_v3&utm_medium=api_v3_business_search&utm_source=8_C4NSGbL05eUQksKleGYw", "is_closed": false, "image_url": "https://s3-media3.fl.yelpcdn.com/bphoto/4MmMuSGEQCXpqEoCOhL7tw/o.jpg"}, {"coordinates": {"longitude": -122.3552942276, "latitude": 47.614784817189}, "categories": [{"alias": "seafood", "title": "Seafood"}], "location": {"display_address": ["2801 Alaskan Way", "Pier 70", "Seattle, WA 98121"], "address3": "Pier 70", "city": "Seattle", "state": "WA", "address2": "", "address1": "2801 Alaskan Way", "zip_code": "98121", "country": "US"}, "review_count": 676, "distance": 1896.590613798, "display_phone": "(206) 956-9171", "price": "$$$$", "rating": 4.0, "phone": "+12069569171", "id": "aqua-by-el-gaucho-seattle", "name": "AQUA by El Gaucho", "transactions": [], "url": "https://www.yelp.com/biz/aqua-by-el-gaucho-seattle?adjust_creative=8_C4NSGbL05eUQksKleGYw&utm_campaign=yelp_api_v3&utm_medium=api_v3_business_search&utm_source=8_C4NSGbL05eUQksKleGYw", "is_closed": false, "image_url": "https://s3-media3.fl.yelpcdn.com/bphoto/dUAsqNzok0UHf8eTMoj9eA/o.jpg"}, {"coordinates": {"longitude": -122.312693352331, "latitude": 47.6647592219734}, "categories": [{"alias": "venezuelan", "title": "Venezuelan"}], "location": {"display_address": ["1405 NE 50th St", "Seattle, WA 98105"], "address3": "", "city": "Seattle", "state": "WA", "address2": "", "address1": "1405 NE 50th St", "zip_code": "98105", "country": "US"}, "review_count": 126, "distance": 4696.676451778, "display_phone": "(206) 556-4879", "price": "$", "rating": 4.5, "phone": "+12065564879", "id": "arepa-venezuelan-kitchen-seattle", "name": "Arepa Venezuelan Kitchen", "transactions": [], "url": "https://www.yelp.com/biz/arepa-venezuelan-kitchen-seattle?adjust_creative=8_C4NSGbL05eUQksKleGYw&utm_campaign=yelp_api_v3&utm_medium=api_v3_business_search&utm_source=8_C4NSGbL05eUQksKleGYw", "is_closed": false, "image_url": "https://s3-media2.fl.yelpcdn.com/bphoto/8AORchOEKFuk1td6qW3VQg/o.jpg"}, {"coordinates": {"longitude": -122.34597, "latitude": 47.61339}, "categories": [{"alias": "sushi", "title": "Sushi Bars"}, {"alias": "japanese", "title": "Japanese"}], "location": {"display_address": ["2230 1st Ave", "Seattle, WA 98121"], "address3": "", "city": "Seattle", "state": "WA", "address2": null, "address1": "2230 1st Ave", "zip_code": "98121", "country": "US"}, "review_count": 2702, "distance": 1558.206601114, "display_phone": "(206) 374-8717", "price": "$$", "rating": 4.0, "phone": "+12063748717", "id": "umi-sake-house-seattle", "name": "Umi Sake House", "transactions": [], "url": "https://www.yelp.com/biz/umi-sake-house-seattle?adjust_creative=8_C4NSGbL05eUQksKleGYw&utm_campaign=yelp_api_v3&utm_medium=api_v3_business_search&utm_source=8_C4NSGbL05eUQksKleGYw", "is_closed": false, "image_url": "https://s3-media3.fl.yelpcdn.com/bphoto/c-XwgpadB530bjPUAL7oFw/o.jpg"}, {"coordinates": {"longitude": -122.3387322711, "latitude": 47.606474929346}, "categories": [{"alias": "newamerican", "title": "American (New)"}, {"alias": "bars", "title": "Bars"}, {"alias": "seafood", "title": "Seafood"}], "location": {"display_address": ["89 University St", "Seattle, WA 98101"], "address3": "", "city": "Seattle", "state": "WA", "address2": "", "address1": "89 University St", "zip_code": "98101", "country": "US"}, "review_count": 567, "distance": 2120.2296500859998, "display_phone": "(206) 623-2101", "price": "$$", "rating": 4.0, "phone": "+12066232101", "id": "lec\u014dsho-seattle-2", "name": "Lec\u014dsho", "transactions": [], "url": "https://www.yelp.com/biz/lec%C5%8Dsho-seattle-2?adjust_creative=8_C4NSGbL05eUQksKleGYw&utm_campaign=yelp_api_v3&utm_medium=api_v3_business_search&utm_source=8_C4NSGbL05eUQksKleGYw", "is_closed": false, "image_url": "https://s3-media4.fl.yelpcdn.com/bphoto/DN_S1fQX8AU3QGxbh9jgKQ/o.jpg"}, {"coordinates": {"longitude": -122.412895202637, "latitude": 47.5782127380371}, "categories": [{"alias": "french", "title": "French"}, {"alias": "desserts", "title": "Desserts"}, {"alias": "cocktailbars", "title": "Cocktail Bars"}], "location": {"display_address": ["2820 Alki Ave SW", "Seattle, WA 98116"], "address3": "", "city": "Seattle", "state": "WA", "address2": null, "address1": "2820 Alki Ave SW", "zip_code": "98116", "country": "US"}, "review_count": 27, "distance": 7822.296849079999, "display_phone": "(206) 743-8531", "price": "$$$", "rating": 4.5, "phone": "+12067438531", "id": "mar\u00e9e-bistro-and-bar-seattle", "name": "Mar\u00e9e Bistro and Bar", "transactions": [], "url": "https://www.yelp.com/biz/mar%C3%A9e-bistro-and-bar-seattle?adjust_creative=8_C4NSGbL05eUQksKleGYw&utm_campaign=yelp_api_v3&utm_medium=api_v3_business_search&utm_source=8_C4NSGbL05eUQksKleGYw", "is_closed": false, "image_url": "https://s3-media2.fl.yelpcdn.com/bphoto/d0rjOx3GG_pLx6zd7HUcaQ/o.jpg"}, {"coordinates": {"longitude": -122.41011, "latitude": 47.57901}, "categories": [{"alias": "wine_bars", "title": "Wine Bars"}, {"alias": "pizza", "title": "Pizza"}, {"alias": "tapasmallplates", "title": "Tapas/Small Plates"}], "location": {"display_address": ["2716 Alki Ave SW", "Seattle, WA 98116"], "address3": "", "city": "Seattle", "state": "WA", "address2": null, "address1": "2716 Alki Ave SW", "zip_code": "98116", "country": "US"}, "review_count": 296, "distance": 7607.2777597, "display_phone": "(206) 935-6550", "price": "$$", "rating": 4.5, "phone": "+12069356550", "id": "phoenecia-seattle", "name": "Phoenecia", "transactions": [], "url": "https://www.yelp.com/biz/phoenecia-seattle?adjust_creative=8_C4NSGbL05eUQksKleGYw&utm_campaign=yelp_api_v3&utm_medium=api_v3_business_search&utm_source=8_C4NSGbL05eUQksKleGYw", "is_closed": false, "image_url": "https://s3-media3.fl.yelpcdn.com/bphoto/xx-IuBHxfdyovACUw8OAiA/o.jpg"}, {"coordinates": {"longitude": -122.321296, "latitude": 47.624515}, "categories": [{"alias": "bars", "title": "Bars"}, {"alias": "mediterranean", "title": "Mediterranean"}, {"alias": "tradamerican", "title": "American (Traditional)"}], "location": {"display_address": ["601 Broadway E", "Seattle, WA 98102"], "address3": "", "city": "Seattle", "state": "WA", "address2": "", "address1": "601 Broadway E", "zip_code": "98102", "country": "US"}, "review_count": 57, "distance": 1072.7486107516, "display_phone": "(206) 420-8488", "price": "$$", "rating": 4.5, "phone": "+12064208488", "id": "corvus-and-company-seattle", "name": "Corvus & Company", "transactions": [], "url": "https://www.yelp.com/biz/corvus-and-company-seattle?adjust_creative=8_C4NSGbL05eUQksKleGYw&utm_campaign=yelp_api_v3&utm_medium=api_v3_business_search&utm_source=8_C4NSGbL05eUQksKleGYw", "is_closed": false, "image_url": "https://s3-media3.fl.yelpcdn.com/bphoto/K3ok5wgmM5A5r5eRl4kElw/o.jpg"}, {"coordinates": {"longitude": -122.32339, "latitude": 47.59821}, "categories": [{"alias": "bbq", "title": "Barbeque"}, {"alias": "dimsum", "title": "Dim Sum"}, {"alias": "cantonese", "title": "Cantonese"}], "location": {"display_address": ["707 S King St", "Seattle, WA 98104"], "address3": "", "city": "Seattle", "state": "WA", "address2": "", "address1": "707 S King St", "zip_code": "98104", "country": "US"}, "review_count": 1061, "distance": 3172.092503812, "display_phone": "(206) 621-2228", "price": "$$", "rating": 4.0, "phone": "+12066212228", "id": "harbor-city-restaurant-seattle", "name": "Harbor City Restaurant", "transactions": ["pickup"], "url": "https://www.yelp.com/biz/harbor-city-restaurant-seattle?adjust_creative=8_C4NSGbL05eUQksKleGYw&utm_campaign=yelp_api_v3&utm_medium=api_v3_business_search&utm_source=8_C4NSGbL05eUQksKleGYw", "is_closed": false, "image_url": "https://s3-media2.fl.yelpcdn.com/bphoto/8Ucn_4P8X41HS-eriEFy7g/o.jpg"}, {"coordinates": {"longitude": -122.33175, "latitude": 47.62881}, "categories": [{"alias": "seafood", "title": "Seafood"}, {"alias": "bars", "title": "Bars"}, {"alias": "sandwiches", "title": "Sandwiches"}], "location": {"display_address": ["1001 Fairview Ave N", "Seattle, WA 98109"], "address3": null, "city": "Seattle", "state": "WA", "address2": "", "address1": "1001 Fairview Ave N", "zip_code": "98109", "country": "US"}, "review_count": 44, "distance": 467.4128149971999, "display_phone": "(206) 453-5067", "price": "$$", "rating": 4.0, "phone": "+12064535067", "id": "the-100-pound-clam-seattle-2", "name": "The 100 Pound Clam", "transactions": [], "url": "https://www.yelp.com/biz/the-100-pound-clam-seattle-2?adjust_creative=8_C4NSGbL05eUQksKleGYw&utm_campaign=yelp_api_v3&utm_medium=api_v3_business_search&utm_source=8_C4NSGbL05eUQksKleGYw", "is_closed": false, "image_url": "https://s3-media2.fl.yelpcdn.com/bphoto/V2vTx8gy9_olC_bAQHBziA/o.jpg"}, {"coordinates": {"longitude": -122.38655, "latitude": 47.5648}, "categories": [{"alias": "moroccan", "title": "Moroccan"}, {"alias": "tapas", "title": "Tapas Bars"}, {"alias": "spanish", "title": "Spanish"}], "location": {"display_address": ["4160 California Ave SW", "Seattle, WA 98126"], "address3": "", "city": "Seattle", "state": "WA", "address2": "", "address1": "4160 California Ave SW", "zip_code": "98126", "country": "US"}, "review_count": 101, "distance": 7752.379072779999, "display_phone": "(206) 932-5039", "price": "$$", "rating": 4.5, "phone": "+12069325039", "id": "ittos-tapas-seattle", "name": "Itto's Tapas", "transactions": [], "url": "https://www.yelp.com/biz/ittos-tapas-seattle?adjust_creative=8_C4NSGbL05eUQksKleGYw&utm_campaign=yelp_api_v3&utm_medium=api_v3_business_search&utm_source=8_C4NSGbL05eUQksKleGYw", "is_closed": false, "image_url": "https://s3-media3.fl.yelpcdn.com/bphoto/Vd8fra9wyjcQlO7VAFsB1Q/o.jpg"}, {"coordinates": {"longitude": -122.3871313, "latitude": 47.5735781}, "categories": [{"alias": "newamerican", "title": "American (New)"}, {"alias": "italian", "title": "Italian"}], "location": {"display_address": ["3405 California Ave SW", "Seattle, WA 98116"], "address3": "", "city": "Seattle", "state": "WA", "address2": "", "address1": "3405 California Ave SW", "zip_code": "98116", "country": "US"}, "review_count": 97, "distance": 6943.3767295, "display_phone": "(206) 937-0155", "price": "$$", "rating": 4.0, "phone": "+12069370155", "id": "westcity-sardine-kitchen-seattle", "name": "Westcity Sardine Kitchen", "transactions": [], "url": "https://www.yelp.com/biz/westcity-sardine-kitchen-seattle?adjust_creative=8_C4NSGbL05eUQksKleGYw&utm_campaign=yelp_api_v3&utm_medium=api_v3_business_search&utm_source=8_C4NSGbL05eUQksKleGYw", "is_closed": false, "image_url": "https://s3-media2.fl.yelpcdn.com/bphoto/cpp6aBPz4sSKAup36ugdLA/o.jpg"}, {"coordinates": {"longitude": -122.413087476886, "latitude": 47.5782800784475}, "categories": [{"alias": "tex-mex", "title": "Tex-Mex"}, {"alias": "mexican", "title": "Mexican"}, {"alias": "newmexican", "title": "New Mexican Cuisine"}], "location": {"display_address": ["2820 Alki Ave SW", "Seattle, WA 98116"], "address3": "", "city": "Seattle", "state": "WA", "address2": null, "address1": "2820 Alki Ave SW", "zip_code": "98116", "country": "US"}, "review_count": 567, "distance": 7829.64348618, "display_phone": "(206) 933-6000", "price": "$$", "rating": 4.0, "phone": "+12069336000", "id": "cactus-restaurants-seattle-2", "name": "Cactus Restaurants", "transactions": [], "url": "https://www.yelp.com/biz/cactus-restaurants-seattle-2?adjust_creative=8_C4NSGbL05eUQksKleGYw&utm_campaign=yelp_api_v3&utm_medium=api_v3_business_search&utm_source=8_C4NSGbL05eUQksKleGYw", "is_closed": false, "image_url": "https://s3-media1.fl.yelpcdn.com/bphoto/Jm0iPH0dbQcKmHWJrTbRiQ/o.jpg"}, {"coordinates": {"longitude": -122.35727, "latitude": 47.63267}, "categories": [{"alias": "newamerican", "title": "American (New)"}, {"alias": "gourmet", "title": "Specialty Food"}, {"alias": "cocktailbars", "title": "Cocktail Bars"}], "location": {"display_address": ["1507 Queen Anne Ave N", "Seattle, WA 98109"], "address3": "", "city": "Seattle", "state": "WA", "address2": "", "address1": "1507 Queen Anne Ave N", "zip_code": "98109", "country": "US"}, "review_count": 316, "distance": 1823.737240404, "display_phone": "(206) 352-3773", "price": "$$", "rating": 4.0, "phone": "+12063523773", "id": "betty-seattle", "name": "Betty", "transactions": [], "url": "https://www.yelp.com/biz/betty-seattle?adjust_creative=8_C4NSGbL05eUQksKleGYw&utm_campaign=yelp_api_v3&utm_medium=api_v3_business_search&utm_source=8_C4NSGbL05eUQksKleGYw", "is_closed": false, "image_url": "https://s3-media3.fl.yelpcdn.com/bphoto/IPhZYomsYzexQfTg-UtI_g/o.jpg"}, {"coordinates": {"longitude": -122.3076, "latitude": 47.62493}, "categories": [{"alias": "vietnamese", "title": "Vietnamese"}, {"alias": "asianfusion", "title": "Asian Fusion"}, {"alias": "dimsum", "title": "Dim Sum"}], "location": {"display_address": ["615 19th Ave E", "Seattle, WA 98112"], "address3": "", "city": "Seattle", "state": "WA", "address2": "", "address1": "615 19th Ave E", "zip_code": "98112", "country": "US"}, "review_count": 451, "distance": 2086.744434574, "display_phone": "(206) 325-2111", "price": "$$", "rating": 4.0, "phone": "+12063252111", "id": "monsoon-seattle-seattle", "name": "Monsoon Seattle", "transactions": [], "url": "https://www.yelp.com/biz/monsoon-seattle-seattle?adjust_creative=8_C4NSGbL05eUQksKleGYw&utm_campaign=yelp_api_v3&utm_medium=api_v3_business_search&utm_source=8_C4NSGbL05eUQksKleGYw", "is_closed": false, "image_url": "https://s3-media4.fl.yelpcdn.com/bphoto/w_XF9tePOex78h4eITPLmA/o.jpg"}, {"coordinates": {"longitude": -122.387065950985, "latitude": 47.5651027485655}, "categories": [{"alias": "italian", "title": "Italian"}], "location": {"display_address": ["4147 California Ave SW", "Seattle, WA 98116"], "address3": null, "city": "Seattle", "state": "WA", "address2": "", "address1": "4147 California Ave SW", "zip_code": "98116", "country": "US"}, "review_count": 51, "distance": 7741.586034069999, "display_phone": "(206) 397-3775", "price": "$$", "rating": 4.0, "phone": "+12063973775", "id": "raccolto-seattle", "name": "Raccolto", "transactions": [], "url": "https://www.yelp.com/biz/raccolto-seattle?adjust_creative=8_C4NSGbL05eUQksKleGYw&utm_campaign=yelp_api_v3&utm_medium=api_v3_business_search&utm_source=8_C4NSGbL05eUQksKleGYw", "is_closed": false, "image_url": "https://s3-media1.fl.yelpcdn.com/bphoto/JoqEdstLLdMXWKq7OH61Pw/o.jpg"}, {"coordinates": {"longitude": -122.382583618164, "latitude": 47.6655235290527}, "categories": [{"alias": "gastropubs", "title": "Gastropubs"}], "location": {"display_address": ["5205 Ballard Ave", "Seattle, WA 98107"], "address3": "", "city": "Seattle", "state": "WA", "address2": "", "address1": "5205 Ballard Ave", "zip_code": "98107", "country": "US"}, "review_count": 93, "distance": 5685.139839006, "display_phone": "(206) 420-8192", "price": "$$", "rating": 4.0, "phone": "+12064208192", "id": "bramling-cross-seattle-2", "name": "Bramling Cross", "transactions": [], "url": "https://www.yelp.com/biz/bramling-cross-seattle-2?adjust_creative=8_C4NSGbL05eUQksKleGYw&utm_campaign=yelp_api_v3&utm_medium=api_v3_business_search&utm_source=8_C4NSGbL05eUQksKleGYw", "is_closed": false, "image_url": "https://s3-media3.fl.yelpcdn.com/bphoto/VtdRYFQdGs0GTCfD7x3JUg/o.jpg"}, {"coordinates": {"longitude": -122.3255081, "latitude": 47.5982018}, "categories": [{"alias": "chinese", "title": "Chinese"}, {"alias": "noodles", "title": "Noodles"}], "location": {"display_address": ["615 S King St", "Seattle, WA 98104"], "address3": "", "city": "Seattle", "state": "WA", "address2": "", "address1": "615 S King St", "zip_code": "98104", "country": "US"}, "review_count": 343, "distance": 3111.3936707679995, "display_phone": "(206) 748-9168", "price": "$", "rating": 4.0, "phone": "+12067489168", "id": "king-noodle-seattle", "name": "King Noodle", "transactions": [], "url": "https://www.yelp.com/biz/king-noodle-seattle?adjust_creative=8_C4NSGbL05eUQksKleGYw&utm_campaign=yelp_api_v3&utm_medium=api_v3_business_search&utm_source=8_C4NSGbL05eUQksKleGYw", "is_closed": false, "image_url": "https://s3-media4.fl.yelpcdn.com/bphoto/Rwfz8z9wfm6Xpimj1-SJbg/o.jpg"}, {"coordinates": {"longitude": -122.332821339369, "latitude": 47.5999034196138}, "categories": [{"alias": "cafes", "title": "Cafes"}, {"alias": "grocery", "title": "Grocery"}, {"alias": "florists", "title": "Florists"}], "location": {"display_address": ["300 Occidental Ave S", "Seattle, WA 98104"], "address3": "", "city": "Seattle", "state": "WA", "address2": "", "address1": "300 Occidental Ave S", "zip_code": "98104", "country": "US"}, "review_count": 308, "distance": 2838.163466116, "display_phone": "(206) 624-1374", "price": "$$", "rating": 4.0, "phone": "+12066241374", "id": "the-london-plane-seattle-3", "name": "The London Plane", "transactions": [], "url": "https://www.yelp.com/biz/the-london-plane-seattle-3?adjust_creative=8_C4NSGbL05eUQksKleGYw&utm_campaign=yelp_api_v3&utm_medium=api_v3_business_search&utm_source=8_C4NSGbL05eUQksKleGYw", "is_closed": false, "image_url": "https://s3-media2.fl.yelpcdn.com/bphoto/nJSJMxR37K4IyRqZsSQxmg/o.jpg"}, {"coordinates": {"longitude": -122.386947631836, "latitude": 47.5809555053711}, "categories": [{"alias": "newamerican", "title": "American (New)"}], "location": {"display_address": ["2605 California Ave SW", "Seattle, WA 98116"], "address3": "", "city": "Seattle", "state": "WA", "address2": "", "address1": "2605 California Ave SW", "zip_code": "98116", "country": "US"}, "review_count": 292, "distance": 6269.50100998, "display_phone": "(206) 923-1102", "price": "$$", "rating": 4.0, "phone": "+12069231102", "id": "circa-seattle", "name": "Circa", "transactions": [], "url": "https://www.yelp.com/biz/circa-seattle?adjust_creative=8_C4NSGbL05eUQksKleGYw&utm_campaign=yelp_api_v3&utm_medium=api_v3_business_search&utm_source=8_C4NSGbL05eUQksKleGYw", "is_closed": false, "image_url": "https://s3-media2.fl.yelpcdn.com/bphoto/Rh--t-ckIV1RohZ9dpsRyQ/o.jpg"}, {"coordinates": {"longitude": -122.33519, "latitude": 47.60741}, "categories": [{"alias": "poke", "title": "Poke"}, {"alias": "seafood", "title": "Seafood"}, {"alias": "hawaiian", "title": "Hawaiian"}], "location": {"display_address": ["1200 Third Ave", "Ste 100", "Seattle, WA 98101"], "address3": "", "city": "Seattle", "state": "WA", "address2": "Ste 100", "address1": "1200 Third Ave", "zip_code": "98101", "country": "US"}, "review_count": 140, "distance": 2001.392765806, "display_phone": "(206) 962-5123", "price": "$$", "rating": 4.0, "phone": "+12069625123", "id": "pok\u00e9works-seattle", "name": "Pok\u00e9works", "transactions": ["delivery", "pickup"], "url": "https://www.yelp.com/biz/pok%C3%A9works-seattle?adjust_creative=8_C4NSGbL05eUQksKleGYw&utm_campaign=yelp_api_v3&utm_medium=api_v3_business_search&utm_source=8_C4NSGbL05eUQksKleGYw", "is_closed": false, "image_url": "https://s3-media1.fl.yelpcdn.com/bphoto/oxCc7MkGXTsY6gi6UkFz5Q/o.jpg"}, {"coordinates": {"longitude": -122.35855, "latitude": 47.6259}, "categories": [{"alias": "lounges", "title": "Lounges"}, {"alias": "wine_bars", "title": "Wine Bars"}, {"alias": "tapas", "title": "Tapas Bars"}], "location": {"display_address": ["108 W Roy St", "Seattle, WA 98119"], "address3": "", "city": "Seattle", "state": "WA", "address2": "", "address1": "108 W Roy St", "zip_code": "98119", "country": "US"}, "review_count": 266, "distance": 1732.3452358139998, "display_phone": "(206) 285-2830", "price": "$$", "rating": 4.0, "phone": "+12062852830", "id": "the-sitting-room-seattle", "name": "The Sitting Room", "transactions": [], "url": "https://www.yelp.com/biz/the-sitting-room-seattle?adjust_creative=8_C4NSGbL05eUQksKleGYw&utm_campaign=yelp_api_v3&utm_medium=api_v3_business_search&utm_source=8_C4NSGbL05eUQksKleGYw", "is_closed": false, "image_url": "https://s3-media1.fl.yelpcdn.com/bphoto/-5fru1H81XQ7UH29Oisbyg/o.jpg"}, {"coordinates": {"longitude": -122.34226, "latitude": 47.6516}, "categories": [{"alias": "bars", "title": "Bars"}, {"alias": "newamerican", "title": "American (New)"}, {"alias": "sandwiches", "title": "Sandwiches"}], "location": {"display_address": ["3630 Stone Way N", "Seattle, WA 98103"], "address3": "", "city": "Seattle", "state": "WA", "address2": "", "address1": "3630 Stone Way N", "zip_code": "98103", "country": "US"}, "review_count": 27, "distance": 2936.846102774, "display_phone": "(206) 556-3438", "price": "$$", "rating": 4.5, "phone": "+12065563438", "id": "36-stone-seattle", "name": "36 Stone", "transactions": [], "url": "https://www.yelp.com/biz/36-stone-seattle?adjust_creative=8_C4NSGbL05eUQksKleGYw&utm_campaign=yelp_api_v3&utm_medium=api_v3_business_search&utm_source=8_C4NSGbL05eUQksKleGYw", "is_closed": false, "image_url": "https://s3-media1.fl.yelpcdn.com/bphoto/Wco2lZbUl9qkAOgZ5x_7-w/o.jpg"}, {"coordinates": {"longitude": -122.338417, "latitude": 47.614946}, "categories": [{"alias": "asianfusion", "title": "Asian Fusion"}, {"alias": "korean", "title": "Korean"}, {"alias": "seafood", "title": "Seafood"}], "location": {"display_address": ["2000 6th Ave", "Amazon Doppler", "Seattle, WA 98121"], "address3": "Amazon Doppler", "city": "Seattle", "state": "WA", "address2": "", "address1": "2000 6th Ave", "zip_code": "98121", "country": "US"}, "review_count": 95, "distance": 1184.983113308, "display_phone": "(206) 327-9860", "price": "$", "rating": 4.0, "phone": "+12063279860", "id": "marination-seattle-2", "name": "Marination", "transactions": [], "url": "https://www.yelp.com/biz/marination-seattle-2?adjust_creative=8_C4NSGbL05eUQksKleGYw&utm_campaign=yelp_api_v3&utm_medium=api_v3_business_search&utm_source=8_C4NSGbL05eUQksKleGYw", "is_closed": false, "image_url": "https://s3-media3.fl.yelpcdn.com/bphoto/ag8wp1zXodS0Bdj474xQ3A/o.jpg"}, {"coordinates": {"longitude": -122.342582871828, "latitude": 47.6492389738054}, "categories": [{"alias": "bars", "title": "Bars"}, {"alias": "tradamerican", "title": "American (Traditional)"}, {"alias": "breakfast_brunch", "title": "Breakfast & Brunch"}], "location": {"display_address": ["3400 Stone Way N", "Seattle, WA 98103"], "address3": "", "city": "Seattle", "state": "WA", "address2": null, "address1": "3400 Stone Way N", "zip_code": "98103", "country": "US"}, "review_count": 69, "distance": 2701.035789, "display_phone": "(206) 737-8743", "price": "$$", "rating": 4.0, "phone": "+12067378743", "id": "thackeray-seattle-2", "name": "Thackeray", "transactions": [], "url": "https://www.yelp.com/biz/thackeray-seattle-2?adjust_creative=8_C4NSGbL05eUQksKleGYw&utm_campaign=yelp_api_v3&utm_medium=api_v3_business_search&utm_source=8_C4NSGbL05eUQksKleGYw", "is_closed": false, "image_url": "https://s3-media4.fl.yelpcdn.com/bphoto/pC6_NK5cnkauCi8zJHM4sg/o.jpg"}, {"coordinates": {"longitude": -122.33869, "latitude": 47.6174}, "categories": [{"alias": "steak", "title": "Steakhouses"}, {"alias": "butcher", "title": "Butcher"}, {"alias": "musicvenues", "title": "Music Venues"}], "location": {"display_address": ["2121 Westlake Ave", "Seattle, WA 98121"], "address3": null, "city": "Seattle", "state": "WA", "address2": null, "address1": "2121 Westlake Ave", "zip_code": "98121", "country": "US"}, "review_count": 128, "distance": 922.16389005, "display_phone": "(206) 209-5990", "price": "$$$$", "rating": 4.0, "phone": "+12062095990", "id": "the-butchers-table-seattle", "name": "The Butcher's Table", "transactions": [], "url": "https://www.yelp.com/biz/the-butchers-table-seattle?adjust_creative=8_C4NSGbL05eUQksKleGYw&utm_campaign=yelp_api_v3&utm_medium=api_v3_business_search&utm_source=8_C4NSGbL05eUQksKleGYw", "is_closed": false, "image_url": "https://s3-media4.fl.yelpcdn.com/bphoto/BPCg9OHQp4vgz64vpwVBPg/o.jpg"}, {"coordinates": {"longitude": -122.29914, "latitude": 47.59906}, "categories": [{"alias": "foodtrucks", "title": "Food Trucks"}, {"alias": "bbq", "title": "Barbeque"}, {"alias": "sandwiches", "title": "Sandwiches"}], "location": {"display_address": ["2513 S Jackson St", "Seattle, WA 98144"], "address3": "", "city": "Seattle", "state": "WA", "address2": "", "address1": "2513 S Jackson St", "zip_code": "98144", "country": "US"}, "review_count": 62, "distance": 3999.380811908, "display_phone": "(206) 557-8090", "price": "$$", "rating": 4.5, "phone": "+12065578090", "id": "wood-shop-bbq-seattle", "name": "Wood Shop BBQ", "transactions": [], "url": "https://www.yelp.com/biz/wood-shop-bbq-seattle?adjust_creative=8_C4NSGbL05eUQksKleGYw&utm_campaign=yelp_api_v3&utm_medium=api_v3_business_search&utm_source=8_C4NSGbL05eUQksKleGYw", "is_closed": false, "image_url": "https://s3-media1.fl.yelpcdn.com/bphoto/k-5wGPDCSy_wUOMd0FVAaQ/o.jpg"}, {"coordinates": {"longitude": -122.3137093, "latitude": 47.6597921}, "categories": [{"alias": "thai", "title": "Thai"}], "location": {"display_address": ["1313 NE 43rd St", "Seattle, WA 98105"], "address3": "", "city": "Seattle", "state": "WA", "address2": "", "address1": "1313 NE 43rd St", "zip_code": "98105", "country": "US"}, "review_count": 65, "distance": 4156.46173008, "display_phone": "(206) 432-5902", "price": "$", "rating": 4.5, "phone": "+12064325902", "id": "wann-yen-seattle", "name": "Wann Yen", "transactions": [], "url": "https://www.yelp.com/biz/wann-yen-seattle?adjust_creative=8_C4NSGbL05eUQksKleGYw&utm_campaign=yelp_api_v3&utm_medium=api_v3_business_search&utm_source=8_C4NSGbL05eUQksKleGYw", "is_closed": false, "image_url": "https://s3-media4.fl.yelpcdn.com/bphoto/3VhmUkaPxy90nKq_3tOnLA/o.jpg"}, {"coordinates": {"longitude": -122.3169, "latitude": 47.5481399}, "categories": [{"alias": "tapasmallplates", "title": "Tapas/Small Plates"}, {"alias": "bars", "title": "Bars"}], "location": {"display_address": ["6118 12th Ave S", "Seattle, WA 98108"], "address3": null, "city": "Seattle", "state": "WA", "address2": "", "address1": "6118 12th Ave S", "zip_code": "98108", "country": "US"}, "review_count": 39, "distance": 8709.153589803998, "display_phone": "(206) 717-2984", "price": "$$", "rating": 4.0, "phone": "+12067172984", "id": "ciudad-seattle-2", "name": "Ciudad", "transactions": [], "url": "https://www.yelp.com/biz/ciudad-seattle-2?adjust_creative=8_C4NSGbL05eUQksKleGYw&utm_campaign=yelp_api_v3&utm_medium=api_v3_business_search&utm_source=8_C4NSGbL05eUQksKleGYw", "is_closed": false, "image_url": "https://s3-media2.fl.yelpcdn.com/bphoto/snzqUMgB7D2oG0fTtEJH9g/o.jpg"}, {"coordinates": {"longitude": -122.355095744133, "latitude": 47.6233123987913}, "categories": [{"alias": "wine_bars", "title": "Wine Bars"}, {"alias": "cocktailbars", "title": "Cocktail Bars"}, {"alias": "gastropubs", "title": "Gastropubs"}], "location": {"display_address": ["114 Republican St", "Seattle, WA 98109"], "address3": "", "city": "Seattle", "state": "WA", "address2": "", "address1": "114 Republican St", "zip_code": "98109", "country": "US"}, "review_count": 147, "distance": 1486.3110586078, "display_phone": "(206) 420-1791", "price": "$$", "rating": 4.0, "phone": "+12064201791", "id": "triumph-bar-seattle", "name": "Triumph Bar", "transactions": [], "url": "https://www.yelp.com/biz/triumph-bar-seattle?adjust_creative=8_C4NSGbL05eUQksKleGYw&utm_campaign=yelp_api_v3&utm_medium=api_v3_business_search&utm_source=8_C4NSGbL05eUQksKleGYw", "is_closed": false, "image_url": "https://s3-media1.fl.yelpcdn.com/bphoto/73439aL5346r-ScAQD2x-g/o.jpg"}, {"coordinates": {"longitude": -122.35672, "latitude": 47.63253}, "categories": [{"alias": "tradamerican", "title": "American (Traditional)"}, {"alias": "breakfast_brunch", "title": "Breakfast & Brunch"}], "location": {"display_address": ["1502 Queen Anne Ave N", "Seattle, WA 98109"], "address3": "", "city": "Seattle", "state": "WA", "address2": "", "address1": "1502 Queen Anne Ave N", "zip_code": "98109", "country": "US"}, "review_count": 916, "distance": 1774.801717156, "display_phone": "(206) 285-7768", "price": "$$", "rating": 4.0, "phone": "+12062857768", "id": "5-spot-seattle", "name": "5 Spot", "transactions": [], "url": "https://www.yelp.com/biz/5-spot-seattle?adjust_creative=8_C4NSGbL05eUQksKleGYw&utm_campaign=yelp_api_v3&utm_medium=api_v3_business_search&utm_source=8_C4NSGbL05eUQksKleGYw", "is_closed": false, "image_url": "https://s3-media3.fl.yelpcdn.com/bphoto/UrUsIIx-6KZfNchv3aYeEQ/o.jpg"}, {"coordinates": {"longitude": -122.3991185, "latitude": 47.6394142}, "categories": [{"alias": "cocktailbars", "title": "Cocktail Bars"}, {"alias": "newamerican", "title": "American (New)"}], "location": {"display_address": ["3217 W McGraw St", "Seattle, WA 98199"], "address3": "", "city": "Seattle", "state": "WA", "address2": "", "address1": "3217 W McGraw St", "zip_code": "98199", "country": "US"}, "review_count": 23, "distance": 5013.826993436, "display_phone": "(206) 946-1651", "price": "$$", "rating": 4.5, "phone": "+12069461651", "id": "olivers-twist-seattle-2", "name": "Oliver's Twist", "transactions": [], "url": "https://www.yelp.com/biz/olivers-twist-seattle-2?adjust_creative=8_C4NSGbL05eUQksKleGYw&utm_campaign=yelp_api_v3&utm_medium=api_v3_business_search&utm_source=8_C4NSGbL05eUQksKleGYw", "is_closed": false, "image_url": "https://s3-media1.fl.yelpcdn.com/bphoto/1Moag-KkRbrDV82Zvov4NA/o.jpg"}, {"coordinates": {"longitude": -122.285522460938, "latitude": 47.5580902099609}, "categories": [{"alias": "caribbean", "title": "Caribbean"}], "location": {"display_address": ["4869 Rainier Ave S", "Seattle, WA 98118"], "address3": "", "city": "Seattle", "state": "WA", "address2": "", "address1": "4869 Rainier Ave S", "zip_code": "98118", "country": "US"}, "review_count": 589, "distance": 8369.56740014, "display_phone": "(206) 329-1202", "price": "$$", "rating": 4.0, "phone": "+12063291202", "id": "island-soul-restaurant-seattle-2", "name": "Island Soul Restaurant", "transactions": ["pickup"], "url": "https://www.yelp.com/biz/island-soul-restaurant-seattle-2?adjust_creative=8_C4NSGbL05eUQksKleGYw&utm_campaign=yelp_api_v3&utm_medium=api_v3_business_search&utm_source=8_C4NSGbL05eUQksKleGYw", "is_closed": false, "image_url": "https://s3-media2.fl.yelpcdn.com/bphoto/WlfHsIN-OxlkYwhO7AdgpA/o.jpg"}, {"coordinates": {"longitude": -122.314514, "latitude": 47.664349}, "categories": [{"alias": "korean", "title": "Korean"}, {"alias": "japanese", "title": "Japanese"}, {"alias": "hawaiian", "title": "Hawaiian"}], "location": {"display_address": ["4743 Brooklyn Ave NE", "Seattle, WA 98105"], "address3": "", "city": "Seattle", "state": "WA", "address2": "", "address1": "4743 Brooklyn Ave NE", "zip_code": "98105", "country": "US"}, "review_count": 302, "distance": 4605.616775898, "display_phone": "(206) 659-0722", "price": "$$", "rating": 4.0, "phone": "+12066590722", "id": "itadakimasu-seattle", "name": "Itadakimasu", "transactions": [], "url": "https://www.yelp.com/biz/itadakimasu-seattle?adjust_creative=8_C4NSGbL05eUQksKleGYw&utm_campaign=yelp_api_v3&utm_medium=api_v3_business_search&utm_source=8_C4NSGbL05eUQksKleGYw", "is_closed": false, "image_url": "https://s3-media4.fl.yelpcdn.com/bphoto/f8dJZiWAIel1CGLhZQYZMQ/o.jpg"}, {"coordinates": {"longitude": -122.33142, "latitude": 47.6689099}, "categories": [{"alias": "newamerican", "title": "American (New)"}, {"alias": "breakfast_brunch", "title": "Breakfast & Brunch"}, {"alias": "cocktailbars", "title": "Cocktail Bars"}], "location": {"display_address": ["2253 N 56th St", "Seattle, WA 98103"], "address3": "", "city": "Seattle", "state": "WA", "address2": "", "address1": "2253 N 56th St", "zip_code": "98103", "country": "US"}, "review_count": 399, "distance": 4844.121768568, "display_phone": "(206) 420-8943", "price": "$$", "rating": 4.0, "phone": "+12064208943", "id": "burgundian-seattle", "name": "Burgundian", "transactions": [], "url": "https://www.yelp.com/biz/burgundian-seattle?adjust_creative=8_C4NSGbL05eUQksKleGYw&utm_campaign=yelp_api_v3&utm_medium=api_v3_business_search&utm_source=8_C4NSGbL05eUQksKleGYw", "is_closed": false, "image_url": "https://s3-media3.fl.yelpcdn.com/bphoto/h08PmrHVlIBshbtw79vcLw/o.jpg"}, {"coordinates": {"longitude": -122.34165, "latitude": 47.61203}, "categories": [{"alias": "seafood", "title": "Seafood"}, {"alias": "newamerican", "title": "American (New)"}, {"alias": "breakfast_brunch", "title": "Breakfast & Brunch"}], "location": {"display_address": ["2000 2nd Ave", "Seattle, WA 98121"], "address3": null, "city": "Seattle", "state": "WA", "address2": null, "address1": "2000 2nd Ave", "zip_code": "98121", "country": "US"}, "review_count": 236, "distance": 1555.4893431778, "display_phone": "(206) 826-1700", "price": "$$$", "rating": 4.5, "phone": "+12068261700", "id": "shaker-and-spear-seattle-2", "name": "Shaker and Spear", "transactions": [], "url": "https://www.yelp.com/biz/shaker-and-spear-seattle-2?adjust_creative=8_C4NSGbL05eUQksKleGYw&utm_campaign=yelp_api_v3&utm_medium=api_v3_business_search&utm_source=8_C4NSGbL05eUQksKleGYw", "is_closed": false, "image_url": "https://s3-media1.fl.yelpcdn.com/bphoto/l4voRg9QhL7WXuVc5plSzg/o.jpg"}, {"coordinates": {"longitude": -122.356923889573, "latitude": 47.6239046835758}, "categories": [{"alias": "thai", "title": "Thai"}, {"alias": "noodles", "title": "Noodles"}], "location": {"display_address": ["517 Queen Anne Ave N", "Seattle, WA 98109"], "address3": "", "city": "Seattle", "state": "WA", "address2": "", "address1": "517 Queen Anne Ave N", "zip_code": "98109", "country": "US"}, "review_count": 63, "distance": 1613.7800081259998, "display_phone": "(206) 284-3700", "price": "$$", "rating": 4.0, "phone": "+12062843700", "id": "pung-kang-noodle-place-seattle", "name": "Pung Kang Noodle Place", "transactions": ["pickup"], "url": "https://www.yelp.com/biz/pung-kang-noodle-place-seattle?adjust_creative=8_C4NSGbL05eUQksKleGYw&utm_campaign=yelp_api_v3&utm_medium=api_v3_business_search&utm_source=8_C4NSGbL05eUQksKleGYw", "is_closed": false, "image_url": "https://s3-media1.fl.yelpcdn.com/bphoto/JawjpFw9-wbLW_-LpgUPPg/o.jpg"}, {"coordinates": {"longitude": -122.34653, "latitude": 47.61669}, "categories": [{"alias": "mediterranean", "title": "Mediterranean"}, {"alias": "mideastern", "title": "Middle Eastern"}, {"alias": "greek", "title": "Greek"}], "location": {"display_address": ["2501 4th Ave", "Seattle, WA 98121"], "address3": "", "city": "Seattle", "state": "WA", "address2": "", "address1": "2501 4th Ave", "zip_code": "98121", "country": "US"}, "review_count": 734, "distance": 1275.250028304, "display_phone": "(206) 728-5389", "price": "$$", "rating": 4.5, "phone": "+12067285389", "id": "petra-mediterranean-bistro-seattle", "name": "Petra Mediterranean Bistro", "transactions": ["pickup"], "url": "https://www.yelp.com/biz/petra-mediterranean-bistro-seattle?adjust_creative=8_C4NSGbL05eUQksKleGYw&utm_campaign=yelp_api_v3&utm_medium=api_v3_business_search&utm_source=8_C4NSGbL05eUQksKleGYw", "is_closed": false, "image_url": "https://s3-media1.fl.yelpcdn.com/bphoto/2PCvnahAtI9-5lQaB9u7ng/o.jpg"}], "region": {"center": {"longitude": -122.33551025390625, "latitude": 47.62541904760501}}, "total": 7629}