{"total": 29564, "region": {"center": {"latitude": 34.07542999486466, "longitude": -118.32138061523438}}, "businesses": [{"review_count": 551, "distance": 6859.327982396, "coordinates": {"latitude": 34.0482422, "longitude": -118.2486874}, "is_closed": false, "name": "Le Petit Paris", "price": "$$$", "url": "https://www.yelp.com/biz/le-petit-paris-los-angeles-3?adjust_creative=8_C4NSGbL05eUQksKleGYw&utm_campaign=yelp_api_v3&utm_medium=api_v3_business_search&utm_source=8_C4NSGbL05eUQksKleGYw", "transactions": [], "rating": 4.0, "display_phone": "(213) 217-4445", "categories": [{"alias": "french", "title": "French"}, {"alias": "cocktailbars", "title": "Cocktail Bars"}, {"alias": "brasseries", "title": "Brasseries"}], "id": "le-petit-paris-los-angeles-3", "phone": "+12132174445", "image_url": "https://s3-media3.fl.yelpcdn.com/bphoto/DXXsqREkgoqdqWyRWnPh1A/o.jpg", "location": {"state": "CA", "address1": "418 /420 S Spring St", "display_address": ["418 /420 S Spring St", "Los Angeles, CA 90013"], "city": "Los Angeles", "address2": "", "address3": "", "country": "US", "zip_code": "90013"}}, {"review_count": 65, "distance": 2243.892140356, "coordinates": {"latitude": 34.0478553771973, "longitude": -118.317260742188}, "is_closed": false, "name": "Huitlacoche", "price": "$", "url": "https://www.yelp.com/biz/huitlacoche-los-angeles?adjust_creative=8_C4NSGbL05eUQksKleGYw&utm_campaign=yelp_api_v3&utm_medium=api_v3_business_search&utm_source=8_C4NSGbL05eUQksKleGYw", "transactions": [], "rating": 5.0, "display_phone": "(323) 381-0688", "categories": [{"alias": "foodtrucks", "title": "Food Trucks"}, {"alias": "mexican", "title": "Mexican"}], "id": "huitlacoche-los-angeles", "phone": "+13233810688", "image_url": "https://s3-media3.fl.yelpcdn.com/bphoto/6eN7Ky4wxVeBa1SJBM7Zmg/o.jpg", "location": {"state": "CA", "address1": "", "display_address": ["Los Angeles, CA 90019"], "city": "Los Angeles", "address2": "", "address3": "", "country": "US", "zip_code": "90019"}}, {"review_count": 277, "distance": 5486.042754916, "coordinates": {"latitude": 34.1042868132788, "longitude": -118.291536018424}, "is_closed": false, "name": "Tacos Tu Madre", "price": "$", "url": "https://www.yelp.com/biz/tacos-tu-madre-los-angeles-4?adjust_creative=8_C4NSGbL05eUQksKleGYw&utm_campaign=yelp_api_v3&utm_medium=api_v3_business_search&utm_source=8_C4NSGbL05eUQksKleGYw", "transactions": [], "rating": 3.5, "display_phone": "(323) 522-3651", "categories": [{"alias": "mexican", "title": "Mexican"}, {"alias": "breakfast_brunch", "title": "Breakfast & Brunch"}, {"alias": "tapasmallplates", "title": "Tapas/Small Plates"}], "id": "tacos-tu-madre-los-angeles-4", "phone": "+13235223651", "image_url": "https://s3-media2.fl.yelpcdn.com/bphoto/EIpMbCW2FvNpSXXqrZ-d9A/o.jpg", "location": {"state": "CA", "address1": "1824 N Vermont Ave", "display_address": ["1824 N Vermont Ave", "Los Angeles, CA 90027"], "city": "Los Angeles", "address2": "", "address3": "", "country": "US", "zip_code": "90027"}}, {"review_count": 182, "distance": 13353.830174039998, "coordinates": {"latitude": 34.0786918481748, "longitude": -118.177881403922}, "is_closed": false, "name": "Dough Box Pizza & Bread", "price": "$$", "url": "https://www.yelp.com/biz/dough-box-pizza-and-bread-los-angeles-3?adjust_creative=8_C4NSGbL05eUQksKleGYw&utm_campaign=yelp_api_v3&utm_medium=api_v3_business_search&utm_source=8_C4NSGbL05eUQksKleGYw", "transactions": [], "rating": 4.5, "display_phone": "(323) 346-6811", "categories": [{"alias": "pizza", "title": "Pizza"}], "id": "dough-box-pizza-and-bread-los-angeles-3", "phone": "+13233466811", "image_url": "https://s3-media2.fl.yelpcdn.com/bphoto/OQYgasB--E2ZQUhXQ7WHSw/o.jpg", "location": {"state": "CA", "address1": "2734 N Eastern Ave", "display_address": ["2734 N Eastern Ave", "Los Angeles, CA 90032"], "city": "Los Angeles", "address2": null, "address3": "", "country": "US", "zip_code": "90032"}}, {"review_count": 72, "distance": 2220.139891296, "coordinates": {"latitude": 34.0630912780762, "longitude": -118.297538757324}, "is_closed": false, "name": "Mountain Cafe", "price": "$", "url": "https://www.yelp.com/biz/mountain-cafe-los-angeles-4?adjust_creative=8_C4NSGbL05eUQksKleGYw&utm_campaign=yelp_api_v3&utm_medium=api_v3_business_search&utm_source=8_C4NSGbL05eUQksKleGYw", "transactions": [], "rating": 4.0, "display_phone": "(213) 487-7615", "categories": [{"alias": "korean", "title": "Korean"}], "id": "mountain-cafe-los-angeles-4", "phone": "+12134877615", "image_url": "https://s3-media2.fl.yelpcdn.com/bphoto/O0Q5q5JCmlu2grgWPPMszQ/o.jpg", "location": {"state": "CA", "address1": "3470 W 6th St", "display_address": ["3470 W 6th St", "Los Angeles, CA 90020"], "city": "Los Angeles", "address2": "", "address3": "", "country": "US", "zip_code": "90020"}}, {"review_count": 6, "distance": 9058.332089604, "coordinates": {"latitude": 34.0292873376909, "longitude": -118.231128640473}, "is_closed": false, "name": "Norigami", "url": "https://www.yelp.com/biz/norigami-los-angeles-2?adjust_creative=8_C4NSGbL05eUQksKleGYw&utm_campaign=yelp_api_v3&utm_medium=api_v3_business_search&utm_source=8_C4NSGbL05eUQksKleGYw", "transactions": [], "rating": 5.0, "display_phone": "", "location": {"state": "CA", "address1": "", "display_address": ["Los Angeles, CA 90001"], "city": "Los Angeles", "address2": "", "address3": null, "country": "US", "zip_code": "90001"}, "id": "norigami-los-angeles-2", "phone": "", "image_url": "https://s3-media1.fl.yelpcdn.com/bphoto/uyRjzcbWdlpsm7jlgJJmHA/o.jpg", "categories": [{"alias": "japanese", "title": "Japanese"}, {"alias": "sushi", "title": "Sushi Bars"}]}, {"review_count": 90, "distance": 10390.773555356, "coordinates": {"latitude": 34.045078, "longitude": -118.432335}, "is_closed": false, "name": "The West End: Craft Bar and Neighborhood Kitchen", "price": "$$", "url": "https://www.yelp.com/biz/the-west-end-craft-bar-and-neighborhood-kitchen-los-angeles?adjust_creative=8_C4NSGbL05eUQksKleGYw&utm_campaign=yelp_api_v3&utm_medium=api_v3_business_search&utm_source=8_C4NSGbL05eUQksKleGYw", "transactions": [], "rating": 4.0, "display_phone": "(310) 470-6601", "categories": [{"alias": "tapasmallplates", "title": "Tapas/Small Plates"}, {"alias": "newamerican", "title": "American (New)"}, {"alias": "gastropubs", "title": "Gastropubs"}], "id": "the-west-end-craft-bar-and-neighborhood-kitchen-los-angeles", "phone": "+13104706601", "image_url": "https://s3-media2.fl.yelpcdn.com/bphoto/u4HfA4mJ-XU-dql8lO0y7A/o.jpg", "location": {"state": "CA", "address1": "2116-B Westwood Blvd", "display_address": ["2116-B Westwood Blvd", "Los Angeles, CA 90025"], "city": "Los Angeles", "address2": "", "address3": "", "country": "US", "zip_code": "90025"}}, {"review_count": 33, "distance": 10395.70795273, "coordinates": {"latitude": 34.1396434, "longitude": -118.3835196}, "is_closed": false, "name": "Tere's Mexican Grill", "price": "$$", "url": "https://www.yelp.com/biz/teres-mexican-grill-los-angeles-3?adjust_creative=8_C4NSGbL05eUQksKleGYw&utm_campaign=yelp_api_v3&utm_medium=api_v3_business_search&utm_source=8_C4NSGbL05eUQksKleGYw", "transactions": [], "rating": 4.5, "display_phone": "(818) 452-9263", "categories": [{"alias": "mexican", "title": "Mexican"}, {"alias": "desserts", "title": "Desserts"}, {"alias": "salad", "title": "Salad"}], "id": "teres-mexican-grill-los-angeles-3", "phone": "+18184529263", "image_url": "https://s3-media1.fl.yelpcdn.com/bphoto/KKyyVdhBMWH9tHPbaQyOSQ/o.jpg", "location": {"state": "CA", "address1": "11548 Ventura Blvd", "display_address": ["11548 Ventura Blvd", "Los Angeles, CA 91604"], "city": "Los Angeles", "address2": "", "address3": null, "country": "US", "zip_code": "91604"}}, {"review_count": 225, "distance": 9518.366595689999, "coordinates": {"latitude": 34.04302, "longitude": -118.42214}, "is_closed": false, "name": "Totoraku", "price": "$$$$", "url": "https://www.yelp.com/biz/totoraku-los-angeles?adjust_creative=8_C4NSGbL05eUQksKleGYw&utm_campaign=yelp_api_v3&utm_medium=api_v3_business_search&utm_source=8_C4NSGbL05eUQksKleGYw", "transactions": [], "rating": 4.5, "display_phone": "(310) 838-9881", "categories": [{"alias": "japanese", "title": "Japanese"}], "id": "totoraku-los-angeles", "phone": "+13108389881", "image_url": "https://s3-media3.fl.yelpcdn.com/bphoto/xZw6rLHhPgVRokKVeKKbCA/o.jpg", "location": {"state": "CA", "address1": "10610 W Pico Blvd", "display_address": ["10610 W Pico Blvd", "Los Angeles, CA 90064"], "city": "Los Angeles", "address2": "", "address3": "", "country": "US", "zip_code": "90064"}}, {"review_count": 415, "distance": 13405.948649939999, "coordinates": {"latitude": 34.1273687, "longitude": -118.4443859}, "is_closed": false, "name": "Vibrato Grill Jazz", "price": "$$$", "url": "https://www.yelp.com/biz/vibrato-grill-jazz-los-angeles?adjust_creative=8_C4NSGbL05eUQksKleGYw&utm_campaign=yelp_api_v3&utm_medium=api_v3_business_search&utm_source=8_C4NSGbL05eUQksKleGYw", "transactions": [], "rating": 4.0, "display_phone": "(310) 474-9400", "categories": [{"alias": "newamerican", "title": "American (New)"}, {"alias": "salad", "title": "Salad"}, {"alias": "jazzandblues", "title": "Jazz & Blues"}], "id": "vibrato-grill-jazz-los-angeles", "phone": "+13104749400", "image_url": "https://s3-media1.fl.yelpcdn.com/bphoto/FvDeDBzzRBnoIaGqyrA-Aw/o.jpg", "location": {"state": "CA", "address1": "2930 N Beverly Glen Cir", "display_address": ["2930 N Beverly Glen Cir", "Los Angeles, CA 90077"], "city": "Los Angeles", "address2": "", "address3": "", "country": "US", "zip_code": "90077"}}, {"review_count": 306, "distance": 4897.588710454, "coordinates": {"latitude": 34.1053549, "longitude": -118.3246985}, "is_closed": false, "name": "Papilles Bistro", "price": "$$$", "url": "https://www.yelp.com/biz/papilles-bistro-los-angeles?adjust_creative=8_C4NSGbL05eUQksKleGYw&utm_campaign=yelp_api_v3&utm_medium=api_v3_business_search&utm_source=8_C4NSGbL05eUQksKleGYw", "transactions": [], "rating": 4.5, "display_phone": "(323) 871-2026", "categories": [{"alias": "french", "title": "French"}], "id": "papilles-bistro-los-angeles", "phone": "+13238712026", "image_url": "https://s3-media2.fl.yelpcdn.com/bphoto/e4gZnptWecMxx9RKNCiikQ/o.jpg", "location": {"state": "CA", "address1": "6221 Franklin Ave", "display_address": ["6221 Franklin Ave", "Los Angeles, CA 90028"], "city": "Los Angeles", "address2": "", "address3": "", "country": "US", "zip_code": "90028"}}, {"review_count": 298, "distance": 13441.778995699999, "coordinates": {"latitude": 33.957713033813, "longitude": -118.395974141022}, "is_closed": false, "name": "Kanpai Japanese Sushi Bar & Grill 2", "price": "$$", "url": "https://www.yelp.com/biz/kanpai-japanese-sushi-bar-and-grill-2-los-angeles?adjust_creative=8_C4NSGbL05eUQksKleGYw&utm_campaign=yelp_api_v3&utm_medium=api_v3_business_search&utm_source=8_C4NSGbL05eUQksKleGYw", "transactions": ["pickup"], "rating": 4.0, "display_phone": "(310) 670-0533", "categories": [{"alias": "sushi", "title": "Sushi Bars"}, {"alias": "ramen", "title": "Ramen"}], "id": "kanpai-japanese-sushi-bar-and-grill-2-los-angeles", "phone": "+13106700533", "image_url": "https://s3-media3.fl.yelpcdn.com/bphoto/mMdKLPHU-ZmfN5dOeic-cw/o.jpg", "location": {"state": "CA", "address1": "8736 S Sepulveda Blvd", "display_address": ["8736 S Sepulveda Blvd", "Ste C", "Los Angeles, CA 90045"], "city": "Los Angeles", "address2": "Ste C", "address3": "", "country": "US", "zip_code": "90045"}}, {"review_count": 39, "distance": 6304.703391272, "coordinates": {"latitude": 34.04813, "longitude": -118.25484}, "is_closed": false, "name": "Astro Doughnuts & Fried Chicken", "price": "$$", "url": "https://www.yelp.com/biz/astro-doughnuts-and-fried-chicken-los-angeles?adjust_creative=8_C4NSGbL05eUQksKleGYw&utm_campaign=yelp_api_v3&utm_medium=api_v3_business_search&utm_source=8_C4NSGbL05eUQksKleGYw", "transactions": [], "rating": 4.0, "display_phone": "(213) 622-7876", "categories": [{"alias": "chickenshop", "title": "Chicken Shop"}, {"alias": "donuts", "title": "Donuts"}, {"alias": "hotdogs", "title": "Fast Food"}], "id": "astro-doughnuts-and-fried-chicken-los-angeles", "phone": "+12136227876", "image_url": "https://s3-media4.fl.yelpcdn.com/bphoto/Ua70n2MwJsO6mMjQNC4mBw/o.jpg", "location": {"state": "CA", "address1": "516 W 6th St", "display_address": ["516 W 6th St", "Los Angeles, CA 90014"], "city": "Los Angeles", "address2": "", "address3": null, "country": "US", "zip_code": "90014"}}, {"review_count": 312, "distance": 2586.3450473619996, "coordinates": {"latitude": 34.0576939, "longitude": -118.2937043}, "is_closed": false, "name": "Tofu and Noodles", "price": "$$", "url": "https://www.yelp.com/biz/tofu-and-noodles-los-angeles-2?adjust_creative=8_C4NSGbL05eUQksKleGYw&utm_campaign=yelp_api_v3&utm_medium=api_v3_business_search&utm_source=8_C4NSGbL05eUQksKleGYw", "transactions": ["pickup"], "rating": 4.5, "display_phone": "(213) 915-0256", "categories": [{"alias": "korean", "title": "Korean"}, {"alias": "soup", "title": "Soup"}, {"alias": "noodles", "title": "Noodles"}], "id": "tofu-and-noodles-los-angeles-2", "phone": "+12139150256", "image_url": "https://s3-media1.fl.yelpcdn.com/bphoto/oBl3COoVC19rvIh2iUkW6Q/o.jpg", "location": {"state": "CA", "address1": "3068 W 8th St", "display_address": ["3068 W 8th St", "Los Angeles, CA 90005"], "city": "Los Angeles", "address2": "", "address3": "", "country": "US", "zip_code": "90005"}}, {"review_count": 357, "distance": 1340.600014882, "coordinates": {"latitude": 34.067756012401, "longitude": -118.308878212251}, "is_closed": false, "name": "Mister Bossam", "price": "$$", "url": "https://www.yelp.com/biz/mister-bossam-los-angeles?adjust_creative=8_C4NSGbL05eUQksKleGYw&utm_campaign=yelp_api_v3&utm_medium=api_v3_business_search&utm_source=8_C4NSGbL05eUQksKleGYw", "transactions": ["delivery", "pickup"], "rating": 4.0, "display_phone": "(213) 388-5379", "categories": [{"alias": "korean", "title": "Korean"}], "id": "mister-bossam-los-angeles", "phone": "+12133885379", "image_url": "https://s3-media2.fl.yelpcdn.com/bphoto/yQVZlmntLwWVovZR4L0dzw/o.jpg", "location": {"state": "CA", "address1": "338 S Western Ave", "display_address": ["338 S Western Ave", "Los Angeles, CA 90020"], "city": "Los Angeles", "address2": "", "address3": "", "country": "US", "zip_code": "90020"}}, {"review_count": 913, "distance": 11393.980750059998, "coordinates": {"latitude": 34.0604028405844, "longitude": -118.445061835982}, "is_closed": false, "name": "TLT Food", "price": "$$", "url": "https://www.yelp.com/biz/tlt-food-los-angeles?adjust_creative=8_C4NSGbL05eUQksKleGYw&utm_campaign=yelp_api_v3&utm_medium=api_v3_business_search&utm_source=8_C4NSGbL05eUQksKleGYw", "transactions": ["delivery", "pickup"], "rating": 4.0, "display_phone": "(310) 443-4433", "categories": [{"alias": "newamerican", "title": "American (New)"}, {"alias": "mexican", "title": "Mexican"}], "id": "tlt-food-los-angeles", "phone": "+13104434433", "image_url": "https://s3-media2.fl.yelpcdn.com/bphoto/Prrv5QsQ28qy-If5jIwvYw/o.jpg", "location": {"state": "CA", "address1": "1116 Westwood Blvd", "display_address": ["1116 Westwood Blvd", "Los Angeles, CA 90024"], "city": "Los Angeles", "address2": null, "address3": "", "country": "US", "zip_code": "90024"}}, {"review_count": 50, "distance": 6801.976898419999, "coordinates": {"latitude": 34.118312064463, "longitude": -118.293733642467}, "is_closed": false, "name": "Roosevelt Cafe", "price": "$$", "url": "https://www.yelp.com/biz/roosevelt-cafe-los-angeles?adjust_creative=8_C4NSGbL05eUQksKleGYw&utm_campaign=yelp_api_v3&utm_medium=api_v3_business_search&utm_source=8_C4NSGbL05eUQksKleGYw", "transactions": ["pickup"], "rating": 4.0, "display_phone": "(323) 284-5613", "categories": [{"alias": "burgers", "title": "Burgers"}, {"alias": "pizza", "title": "Pizza"}, {"alias": "sandwiches", "title": "Sandwiches"}], "id": "roosevelt-cafe-los-angeles", "phone": "+13232845613", "image_url": "https://s3-media3.fl.yelpcdn.com/bphoto/jcNPTKmRkkE3Xx_UjncrAw/o.jpg", "location": {"state": "CA", "address1": "2650 N Vermont Ave", "display_address": ["2650 N Vermont Ave", "Los Angeles, CA 90027"], "city": "Los Angeles", "address2": "", "address3": "", "country": "US", "zip_code": "90027"}}, {"review_count": 85, "distance": 1399.4318043117999, "coordinates": {"latitude": 34.0628631, "longitude": -118.3062672}, "is_closed": false, "name": "Kitchen Sooda", "price": "$$", "url": "https://www.yelp.com/biz/kitchen-sooda-los-angeles?adjust_creative=8_C4NSGbL05eUQksKleGYw&utm_campaign=yelp_api_v3&utm_medium=api_v3_business_search&utm_source=8_C4NSGbL05eUQksKleGYw", "transactions": [], "rating": 4.0, "display_phone": "(323) 741-0159", "categories": [{"alias": "seafood", "title": "Seafood"}, {"alias": "bars", "title": "Bars"}, {"alias": "asianfusion", "title": "Asian Fusion"}], "id": "kitchen-sooda-los-angeles", "phone": "+13237410159", "image_url": "https://s3-media1.fl.yelpcdn.com/bphoto/lRnrZKLUmmuFSSNiQOTu6Q/o.jpg", "location": {"state": "CA", "address1": "618 S Serrano Ave", "display_address": ["618 S Serrano Ave", "Fl 1", "Los Angeles, CA 90005"], "city": "Los Angeles", "address2": "Fl 1", "address3": "", "country": "US", "zip_code": "90005"}}, {"review_count": 427, "distance": 5558.918176268, "coordinates": {"latitude": 34.097541809082, "longitude": -118.363555908203}, "is_closed": false, "name": "EVO Kitchen", "price": "$$", "url": "https://www.yelp.com/biz/evo-kitchen-los-angeles?adjust_creative=8_C4NSGbL05eUQksKleGYw&utm_campaign=yelp_api_v3&utm_medium=api_v3_business_search&utm_source=8_C4NSGbL05eUQksKleGYw", "transactions": ["delivery", "pickup"], "rating": 4.0, "display_phone": "(323) 375-3390", "categories": [{"alias": "gluten_free", "title": "Gluten-Free"}, {"alias": "pizza", "title": "Pizza"}, {"alias": "vegan", "title": "Vegan"}], "id": "evo-kitchen-los-angeles", "phone": "+13233753390", "image_url": "https://s3-media2.fl.yelpcdn.com/bphoto/BvwFKqmwB2dhfamHj-E1Yw/o.jpg", "location": {"state": "CA", "address1": "7950 Sunset Blvd", "display_address": ["7950 Sunset Blvd", "Ste 104", "Los Angeles, CA 90046"], "city": "Los Angeles", "address2": "Ste 104", "address3": "", "country": "US", "zip_code": "90046"}}, {"review_count": 579, "distance": 6792.91550955, "coordinates": {"latitude": 34.0507299112262, "longitude": -118.248818814755}, "is_closed": false, "name": "Sticky Rice", "price": "$$", "url": "https://www.yelp.com/biz/sticky-rice-los-angeles?adjust_creative=8_C4NSGbL05eUQksKleGYw&utm_campaign=yelp_api_v3&utm_medium=api_v3_business_search&utm_source=8_C4NSGbL05eUQksKleGYw", "transactions": [], "rating": 4.0, "display_phone": "(213) 621-2865", "categories": [{"alias": "thai", "title": "Thai"}], "id": "sticky-rice-los-angeles", "phone": "+12136212865", "image_url": "https://s3-media3.fl.yelpcdn.com/bphoto/uIl6-gH_TBAr_iEc6chWhw/o.jpg", "location": {"state": "CA", "address1": "317 S Broadway", "display_address": ["317 S Broadway", "Ste C-4-5", "Los Angeles, CA 90013"], "city": "Los Angeles", "address2": "Ste C-4-5", "address3": "", "country": "US", "zip_code": "90013"}}, {"review_count": 203, "distance": 6436.722218558, "coordinates": {"latitude": 34.05287, "longitude": -118.2522}, "is_closed": false, "name": "Nick + Stef's Steakhouse", "price": "$$$", "url": "https://www.yelp.com/biz/nick-stefs-steakhouse-los-angeles-3?adjust_creative=8_C4NSGbL05eUQksKleGYw&utm_campaign=yelp_api_v3&utm_medium=api_v3_business_search&utm_source=8_C4NSGbL05eUQksKleGYw", "transactions": [], "rating": 4.0, "display_phone": "(213) 680-0330", "categories": [{"alias": "steak", "title": "Steakhouses"}], "id": "nick-stefs-steakhouse-los-angeles-3", "phone": "+12136800330", "image_url": "https://s3-media3.fl.yelpcdn.com/bphoto/V4DjYgbUSiXs78gOXUDWAg/o.jpg", "location": {"state": "CA", "address1": "330 S Hope St", "display_address": ["330 S Hope St", "Los Angeles, CA 90071"], "city": "Los Angeles", "address2": "", "address3": "", "country": "US", "zip_code": "90071"}}, {"review_count": 123, "distance": 10986.141002589999, "coordinates": {"latitude": 34.0538361065561, "longitude": -118.440269194543}, "is_closed": false, "name": "The Kitchen At Westwood", "price": "$$", "url": "https://www.yelp.com/biz/the-kitchen-at-westwood-los-angeles?adjust_creative=8_C4NSGbL05eUQksKleGYw&utm_campaign=yelp_api_v3&utm_medium=api_v3_business_search&utm_source=8_C4NSGbL05eUQksKleGYw", "transactions": ["delivery", "pickup"], "rating": 4.5, "display_phone": "(310) 474-8444", "categories": [{"alias": "mediterranean", "title": "Mediterranean"}, {"alias": "turkish", "title": "Turkish"}, {"alias": "halal", "title": "Halal"}], "id": "the-kitchen-at-westwood-los-angeles", "phone": "+13104748444", "image_url": "https://s3-media2.fl.yelpcdn.com/bphoto/4zDE7vPUkGkjd9whpUFpXA/o.jpg", "location": {"state": "CA", "address1": "1510 Westwood Blvd", "display_address": ["1510 Westwood Blvd", "Los Angeles, CA 90024"], "city": "Los Angeles", "address2": "", "address3": "", "country": "US", "zip_code": "90024"}}, {"review_count": 575, "distance": 6173.436608567999, "coordinates": {"latitude": 34.077356879173, "longitude": -118.385645328462}, "is_closed": false, "name": "Madeo Restaurant", "price": "$$$$", "url": "https://www.yelp.com/biz/madeo-restaurant-los-angeles-3?adjust_creative=8_C4NSGbL05eUQksKleGYw&utm_campaign=yelp_api_v3&utm_medium=api_v3_business_search&utm_source=8_C4NSGbL05eUQksKleGYw", "transactions": [], "rating": 4.0, "display_phone": "(310) 859-4903", "categories": [{"alias": "italian", "title": "Italian"}], "id": "madeo-restaurant-los-angeles-3", "phone": "+13108594903", "image_url": "https://s3-media2.fl.yelpcdn.com/bphoto/uGYZDH2l3ka6nBHOfmUAYA/o.jpg", "location": {"state": "CA", "address1": "8897 Beverly Blvd", "display_address": ["8897 Beverly Blvd", "Los Angeles, CA 90048"], "city": "Los Angeles", "address2": null, "address3": null, "country": "US", "zip_code": "90048"}}, {"review_count": 206, "distance": 15427.85905234, "coordinates": {"latitude": 33.9411401917076, "longitude": -118.404446638623}, "is_closed": false, "name": "Farmers Market LAX", "price": "$$", "url": "https://www.yelp.com/biz/farmers-market-lax-los-angeles?adjust_creative=8_C4NSGbL05eUQksKleGYw&utm_campaign=yelp_api_v3&utm_medium=api_v3_business_search&utm_source=8_C4NSGbL05eUQksKleGYw", "transactions": [], "rating": 4.0, "display_phone": "(626) 497-0804", "categories": [{"alias": "farmersmarket", "title": "Farmers Market"}, {"alias": "mexican", "title": "Mexican"}, {"alias": "french", "title": "French"}], "id": "farmers-market-lax-los-angeles", "phone": "+16264970804", "image_url": "https://s3-media3.fl.yelpcdn.com/bphoto/LERYT49g0VsJ--wBL3KwIA/o.jpg", "location": {"state": "CA", "address1": "500 World Way", "display_address": ["500 World Way", "Los Angeles, CA 90045"], "city": "Los Angeles", "address2": null, "address3": "", "country": "US", "zip_code": "90045"}}, {"review_count": 56, "distance": 5783.523460291999, "coordinates": {"latitude": 34.0973541677846, "longitude": -118.275790887418}, "is_closed": false, "name": "Kope Poki", "price": "$$", "url": "https://www.yelp.com/biz/kope-poki-los-angeles?adjust_creative=8_C4NSGbL05eUQksKleGYw&utm_campaign=yelp_api_v3&utm_medium=api_v3_business_search&utm_source=8_C4NSGbL05eUQksKleGYw", "transactions": [], "rating": 5.0, "display_phone": "(323) 522-3182", "categories": [{"alias": "poke", "title": "Poke"}, {"alias": "seafood", "title": "Seafood"}, {"alias": "hawaiian", "title": "Hawaiian"}], "id": "kope-poki-los-angeles", "phone": "+13235223182", "image_url": "https://s3-media3.fl.yelpcdn.com/bphoto/FiU0ISqsWxApG0gpKzbAKA/o.jpg", "location": {"state": "CA", "address1": "1903 Hyperion Ave", "display_address": ["1903 Hyperion Ave", "Los Angeles, CA 90027"], "city": "Los Angeles", "address2": "", "address3": null, "country": "US", "zip_code": "90027"}}, {"review_count": 52, "distance": 6865.6456075, "coordinates": {"latitude": 34.0451582, "longitude": -118.2495361}, "is_closed": false, "name": "Wake & Late", "price": "$", "url": "https://www.yelp.com/biz/wake-and-late-los-angeles-3?adjust_creative=8_C4NSGbL05eUQksKleGYw&utm_campaign=yelp_api_v3&utm_medium=api_v3_business_search&utm_source=8_C4NSGbL05eUQksKleGYw", "transactions": ["pickup"], "rating": 4.5, "display_phone": "(213) 537-0820", "categories": [{"alias": "coffee", "title": "Coffee & Tea"}, {"alias": "breakfast_brunch", "title": "Breakfast & Brunch"}, {"alias": "newamerican", "title": "American (New)"}], "id": "wake-and-late-los-angeles-3", "phone": "+12135370820", "image_url": "https://s3-media1.fl.yelpcdn.com/bphoto/YJ6xl-OMzObyX1dQGU2b3w/o.jpg", "location": {"state": "CA", "address1": "105 E 6th St", "display_address": ["105 E 6th St", "Los Angeles, CA 90014"], "city": "Los Angeles", "address2": "", "address3": null, "country": "US", "zip_code": "90014"}}, {"review_count": 114, "distance": 6950.32425028, "coordinates": {"latitude": 34.0506788, "longitude": -118.2470936}, "is_closed": false, "name": "Spring", "price": "$$$", "url": "https://www.yelp.com/biz/spring-los-angeles-3?adjust_creative=8_C4NSGbL05eUQksKleGYw&utm_campaign=yelp_api_v3&utm_medium=api_v3_business_search&utm_source=8_C4NSGbL05eUQksKleGYw", "transactions": [], "rating": 4.0, "display_phone": "(213) 372-5189", "categories": [{"alias": "french", "title": "French"}], "id": "spring-los-angeles-3", "phone": "+12133725189", "image_url": "https://s3-media3.fl.yelpcdn.com/bphoto/ZFRjAAspdiejG9Mtz-W90A/o.jpg", "location": {"state": "CA", "address1": "257 S Spring St", "display_address": ["257 S Spring St", "Los Angeles, CA 90012"], "city": "Los Angeles", "address2": "", "address3": "", "country": "US", "zip_code": "90012"}}, {"review_count": 735, "distance": 4586.394336136, "coordinates": {"latitude": 34.0839249, "longitude": -118.3630799}, "is_closed": false, "name": "Carlitos Gardel", "price": "$$$", "url": "https://www.yelp.com/biz/carlitos-gardel-los-angeles-3?adjust_creative=8_C4NSGbL05eUQksKleGYw&utm_campaign=yelp_api_v3&utm_medium=api_v3_business_search&utm_source=8_C4NSGbL05eUQksKleGYw", "transactions": [], "rating": 4.5, "display_phone": "(323) 655-0891", "categories": [{"alias": "argentine", "title": "Argentine"}, {"alias": "steak", "title": "Steakhouses"}], "id": "carlitos-gardel-los-angeles-3", "phone": "+13236550891", "image_url": "https://s3-media2.fl.yelpcdn.com/bphoto/3tG7ce0TLVCidV7HnezOmw/o.jpg", "location": {"state": "CA", "address1": "7963 Melrose Ave", "display_address": ["7963 Melrose Ave", "Los Angeles, CA 90046"], "city": "Los Angeles", "address2": "", "address3": "", "country": "US", "zip_code": "90046"}}, {"review_count": 1135, "distance": 4735.26488443, "coordinates": {"latitude": 34.1013265448907, "longitude": -118.302894830704}, "is_closed": false, "name": "Sanamluang Cafe", "price": "$", "url": "https://www.yelp.com/biz/sanamluang-cafe-los-angeles?adjust_creative=8_C4NSGbL05eUQksKleGYw&utm_campaign=yelp_api_v3&utm_medium=api_v3_business_search&utm_source=8_C4NSGbL05eUQksKleGYw", "transactions": [], "rating": 4.0, "display_phone": "(323) 660-8006", "categories": [{"alias": "thai", "title": "Thai"}], "id": "sanamluang-cafe-los-angeles", "phone": "+13236608006", "image_url": "https://s3-media2.fl.yelpcdn.com/bphoto/JoutsOUZBGrQ-qdbsWvdmA/o.jpg", "location": {"state": "CA", "address1": "5176 Hollywood Blvd", "display_address": ["5176 Hollywood Blvd", "Los Angeles, CA 90027"], "city": "Los Angeles", "address2": "", "address3": "", "country": "US", "zip_code": "90027"}}, {"review_count": 56, "distance": 10989.929549883998, "coordinates": {"latitude": 34.0530658, "longitude": -118.4400299}, "is_closed": false, "name": "Asuka", "price": "$$$", "url": "https://www.yelp.com/biz/asuka-los-angeles-2?adjust_creative=8_C4NSGbL05eUQksKleGYw&utm_campaign=yelp_api_v3&utm_medium=api_v3_business_search&utm_source=8_C4NSGbL05eUQksKleGYw", "transactions": [], "rating": 4.5, "display_phone": "(424) 832-7284", "categories": [{"alias": "sushi", "title": "Sushi Bars"}, {"alias": "japanese", "title": "Japanese"}], "id": "asuka-los-angeles-2", "phone": "+14248327284", "image_url": "https://s3-media4.fl.yelpcdn.com/bphoto/zJ-b5Cu5GAmkC0kIh0APKA/o.jpg", "location": {"state": "CA", "address1": "1553 Westwood Blvd", "display_address": ["1553 Westwood Blvd", "Los Angeles, CA 90024"], "city": "Los Angeles", "address2": null, "address3": "", "country": "US", "zip_code": "90024"}}, {"review_count": 87, "distance": 22054.351907819997, "coordinates": {"latitude": 34.2599225189168, "longitude": -118.323251441646}, "is_closed": false, "name": "Like's Thai & Chinese Food", "price": "$", "url": "https://www.yelp.com/biz/likes-thai-and-chinese-food-los-angeles-2?adjust_creative=8_C4NSGbL05eUQksKleGYw&utm_campaign=yelp_api_v3&utm_medium=api_v3_business_search&utm_source=8_C4NSGbL05eUQksKleGYw", "transactions": [], "rating": 4.5, "display_phone": "(818) 353-3393", "categories": [{"alias": "thai", "title": "Thai"}, {"alias": "chinese", "title": "Chinese"}], "id": "likes-thai-and-chinese-food-los-angeles-2", "phone": "+18183533393", "image_url": "https://s3-media2.fl.yelpcdn.com/bphoto/EHU_FBcswDDTchx4LmGDeA/o.jpg", "location": {"state": "CA", "address1": "8702 Foothill Blvd", "display_address": ["8702 Foothill Blvd", "Los Angeles, CA 91040"], "city": "Los Angeles", "address2": null, "address3": "", "country": "US", "zip_code": "91040"}}, {"review_count": 81, "distance": 2189.793049718, "coordinates": {"latitude": 34.0681312, "longitude": -118.3438686}, "is_closed": false, "name": "Wilde Wine Bar & Restaurant", "price": "$$", "url": "https://www.yelp.com/biz/wilde-wine-bar-and-restaurant-los-angeles?adjust_creative=8_C4NSGbL05eUQksKleGYw&utm_campaign=yelp_api_v3&utm_medium=api_v3_business_search&utm_source=8_C4NSGbL05eUQksKleGYw", "transactions": [], "rating": 4.0, "display_phone": "(323) 932-9500", "categories": [{"alias": "wine_bars", "title": "Wine Bars"}, {"alias": "newamerican", "title": "American (New)"}, {"alias": "modern_european", "title": "Modern European"}], "id": "wilde-wine-bar-and-restaurant-los-angeles", "phone": "+13239329500", "image_url": "https://s3-media2.fl.yelpcdn.com/bphoto/e8Oc_l4e9YSIwquk123Hpg/o.jpg", "location": {"state": "CA", "address1": "320 S La Brea Ave", "display_address": ["320 S La Brea Ave", "Los Angeles, CA 90036"], "city": "Los Angeles", "address2": null, "address3": "", "country": "US", "zip_code": "90036"}}, {"review_count": 364, "distance": 7185.702617198, "coordinates": {"latitude": 34.1076812744141, "longitude": -118.26676940918}, "is_closed": false, "name": "Little Pine", "price": "$$", "url": "https://www.yelp.com/biz/little-pine-los-angeles-2?adjust_creative=8_C4NSGbL05eUQksKleGYw&utm_campaign=yelp_api_v3&utm_medium=api_v3_business_search&utm_source=8_C4NSGbL05eUQksKleGYw", "transactions": [], "rating": 4.0, "display_phone": "(323) 741-8148", "categories": [{"alias": "vegan", "title": "Vegan"}], "id": "little-pine-los-angeles-2", "phone": "+13237418148", "image_url": "https://s3-media2.fl.yelpcdn.com/bphoto/T-0oX33KSJAH5Urcg0UB-w/o.jpg", "location": {"state": "CA", "address1": "2870 Rowena Ave", "display_address": ["2870 Rowena Ave", "Los Angeles, CA 90039"], "city": "Los Angeles", "address2": "", "address3": "", "country": "US", "zip_code": "90039"}}, {"review_count": 630, "distance": 12829.671032852, "coordinates": {"latitude": 34.120601, "longitude": -118.201632}, "is_closed": false, "name": "Huarache Azteca Restaurante", "price": "$", "url": "https://www.yelp.com/biz/huarache-azteca-restaurante-los-angeles?adjust_creative=8_C4NSGbL05eUQksKleGYw&utm_campaign=yelp_api_v3&utm_medium=api_v3_business_search&utm_source=8_C4NSGbL05eUQksKleGYw", "transactions": [], "rating": 4.0, "display_phone": "(323) 478-9572", "categories": [{"alias": "mexican", "title": "Mexican"}, {"alias": "latin", "title": "Latin American"}], "id": "huarache-azteca-restaurante-los-angeles", "phone": "+13234789572", "image_url": "https://s3-media1.fl.yelpcdn.com/bphoto/j7ji1w8z7wxGPjCwX-5W8g/o.jpg", "location": {"state": "CA", "address1": "5225 York Blvd", "display_address": ["5225 York Blvd", "Los Angeles, CA 90042"], "city": "Los Angeles", "address2": "", "address3": "", "country": "US", "zip_code": "90042"}}, {"review_count": 584, "distance": 4584.326334236, "coordinates": {"latitude": 34.101795, "longitude": -118.3323928}, "is_closed": false, "name": "Te'Kila", "price": "$$", "url": "https://www.yelp.com/biz/tekila-los-angeles?adjust_creative=8_C4NSGbL05eUQksKleGYw&utm_campaign=yelp_api_v3&utm_medium=api_v3_business_search&utm_source=8_C4NSGbL05eUQksKleGYw", "transactions": [], "rating": 4.0, "display_phone": "(323) 960-2404", "categories": [{"alias": "bars", "title": "Bars"}, {"alias": "mexican", "title": "Mexican"}], "id": "tekila-los-angeles", "phone": "+13239602404", "image_url": "https://s3-media4.fl.yelpcdn.com/bphoto/HRsMe6NQ6u4cufIMAF97Bg/o.jpg", "location": {"state": "CA", "address1": "6541 Hollywood Blvd", "display_address": ["6541 Hollywood Blvd", "Los Angeles, CA 90028"], "city": "Los Angeles", "address2": "", "address3": "", "country": "US", "zip_code": "90028"}}, {"review_count": 13, "distance": 4846.43165427, "coordinates": {"latitude": 34.1021077916729, "longitude": -118.340764233634}, "is_closed": false, "name": "Fist of Fusion", "price": "$$", "url": "https://www.yelp.com/biz/fist-of-fusion-los-angeles-2?adjust_creative=8_C4NSGbL05eUQksKleGYw&utm_campaign=yelp_api_v3&utm_medium=api_v3_business_search&utm_source=8_C4NSGbL05eUQksKleGYw", "transactions": ["pickup"], "rating": 4.5, "display_phone": "(323) 378-5536", "categories": [{"alias": "asianfusion", "title": "Asian Fusion"}, {"alias": "filipino", "title": "Filipino"}, {"alias": "hawaiian", "title": "Hawaiian"}], "id": "fist-of-fusion-los-angeles-2", "phone": "+13233785536", "image_url": "https://s3-media2.fl.yelpcdn.com/bphoto/0gAKzolRsyeQYvwZibHPdw/o.jpg", "location": {"state": "CA", "address1": "6801 Hollywood Blvd", "display_address": ["6801 Hollywood Blvd", "Ste 315B", "Los Angeles, CA 90028"], "city": "Los Angeles", "address2": "Ste 315B", "address3": "", "country": "US", "zip_code": "90028"}}, {"review_count": 675, "distance": 4145.978972122, "coordinates": {"latitude": 34.0786537528038, "longitude": -118.361425995827}, "is_closed": false, "name": "Jon & Vinny's", "price": "$$", "url": "https://www.yelp.com/biz/jon-and-vinnys-los-angeles?adjust_creative=8_C4NSGbL05eUQksKleGYw&utm_campaign=yelp_api_v3&utm_medium=api_v3_business_search&utm_source=8_C4NSGbL05eUQksKleGYw", "transactions": [], "rating": 3.5, "display_phone": "(323) 334-3369", "categories": [{"alias": "italian", "title": "Italian"}], "id": "jon-and-vinnys-los-angeles", "phone": "+13233343369", "image_url": "https://s3-media1.fl.yelpcdn.com/bphoto/aVb2xiKBGPNlVP-i6bWvyQ/o.jpg", "location": {"state": "CA", "address1": "412 N Fairfax Ave", "display_address": ["412 N Fairfax Ave", "Los Angeles, CA 90036"], "city": "Los Angeles", "address2": "", "address3": "", "country": "US", "zip_code": "90036"}}, {"review_count": 291, "distance": 1607.3356635904, "coordinates": {"latitude": 34.0753144025803, "longitude": -118.323578685522}, "is_closed": false, "name": "Kiku Sushi", "price": "$$", "url": "https://www.yelp.com/biz/kiku-sushi-los-angeles?adjust_creative=8_C4NSGbL05eUQksKleGYw&utm_campaign=yelp_api_v3&utm_medium=api_v3_business_search&utm_source=8_C4NSGbL05eUQksKleGYw", "transactions": ["delivery", "pickup"], "rating": 4.0, "display_phone": "(323) 464-1323", "categories": [{"alias": "sushi", "title": "Sushi Bars"}, {"alias": "japanese", "title": "Japanese"}], "id": "kiku-sushi-los-angeles", "phone": "+13234641323", "image_url": "https://s3-media1.fl.yelpcdn.com/bphoto/n-hVdf2E7z_be5j1t0-hvQ/o.jpg", "location": {"state": "CA", "address1": "246 N Larchmont Blvd", "display_address": ["246 N Larchmont Blvd", "Los Angeles, CA 90004"], "city": "Los Angeles", "address2": "", "address3": "", "country": "US", "zip_code": "90004"}}, {"review_count": 837, "distance": 12938.93105666, "coordinates": {"latitude": 34.048937, "longitude": -118.460995}, "is_closed": false, "name": "Bandera", "price": "$$$", "url": "https://www.yelp.com/biz/bandera-los-angeles-6?adjust_creative=8_C4NSGbL05eUQksKleGYw&utm_campaign=yelp_api_v3&utm_medium=api_v3_business_search&utm_source=8_C4NSGbL05eUQksKleGYw", "transactions": [], "rating": 4.0, "display_phone": "(310) 477-3524", "categories": [{"alias": "newamerican", "title": "American (New)"}, {"alias": "jazzandblues", "title": "Jazz & Blues"}], "id": "bandera-los-angeles-6", "phone": "+13104773524", "image_url": "https://s3-media3.fl.yelpcdn.com/bphoto/RXkBhJA3Mt6HD2hS9dN0GQ/o.jpg", "location": {"state": "CA", "address1": "11700 Wilshire Blvd", "display_address": ["11700 Wilshire Blvd", "Los Angeles, CA 90025"], "city": "Los Angeles", "address2": "", "address3": "", "country": "US", "zip_code": "90025"}}, {"review_count": 498, "distance": 5156.4534634639995, "coordinates": {"latitude": 34.0981715, "longitude": -118.3555408}, "is_closed": false, "name": "The Pikey", "price": "$$", "url": "https://www.yelp.com/biz/the-pikey-los-angeles?adjust_creative=8_C4NSGbL05eUQksKleGYw&utm_campaign=yelp_api_v3&utm_medium=api_v3_business_search&utm_source=8_C4NSGbL05eUQksKleGYw", "transactions": ["pickup"], "rating": 4.0, "display_phone": "(323) 850-5400", "categories": [{"alias": "british", "title": "British"}, {"alias": "venues", "title": "Venues & Event Spaces"}, {"alias": "cocktailbars", "title": "Cocktail Bars"}], "id": "the-pikey-los-angeles", "phone": "+13238505400", "image_url": "https://s3-media2.fl.yelpcdn.com/bphoto/r71gtaRoVxLOAb1-JV2Q1w/o.jpg", "location": {"state": "CA", "address1": "7617 W Sunset Blvd", "display_address": ["7617 W Sunset Blvd", "Los Angeles, CA 90046"], "city": "Los Angeles", "address2": "", "address3": "", "country": "US", "zip_code": "90046"}}, {"review_count": 244, "distance": 10611.954807596, "coordinates": {"latitude": 34.0430400520563, "longitude": -118.208352997899}, "is_closed": false, "name": "Otomisan Restaurant", "price": "$$", "url": "https://www.yelp.com/biz/otomisan-restaurant-los-angeles?adjust_creative=8_C4NSGbL05eUQksKleGYw&utm_campaign=yelp_api_v3&utm_medium=api_v3_business_search&utm_source=8_C4NSGbL05eUQksKleGYw", "transactions": [], "rating": 4.0, "display_phone": "(323) 526-1150", "categories": [{"alias": "japanese", "title": "Japanese"}, {"alias": "sushi", "title": "Sushi Bars"}], "id": "otomisan-restaurant-los-angeles", "phone": "+13235261150", "image_url": "https://s3-media3.fl.yelpcdn.com/bphoto/jp1CmZffbygTSLUIf2Myfg/o.jpg", "location": {"state": "CA", "address1": "2506 E 1st St", "display_address": ["2506 E 1st St", "Los Angeles, CA 90033"], "city": "Los Angeles", "address2": "", "address3": "", "country": "US", "zip_code": "90033"}}, {"review_count": 331, "distance": 4861.773814358, "coordinates": {"latitude": 34.1018373715043, "longitude": -118.300754739329}, "is_closed": false, "name": "Fukurou Ramen", "price": "$", "url": "https://www.yelp.com/biz/fukurou-ramen-los-angeles?adjust_creative=8_C4NSGbL05eUQksKleGYw&utm_campaign=yelp_api_v3&utm_medium=api_v3_business_search&utm_source=8_C4NSGbL05eUQksKleGYw", "transactions": ["delivery", "pickup"], "rating": 4.0, "display_phone": "(323) 719-9011", "categories": [{"alias": "ramen", "title": "Ramen"}, {"alias": "noodles", "title": "Noodles"}], "id": "fukurou-ramen-los-angeles", "phone": "+13237199011", "image_url": "https://s3-media3.fl.yelpcdn.com/bphoto/-iULkCSe_IqNeRJkk7Z7sQ/o.jpg", "location": {"state": "CA", "address1": "5103 Hollywood Blvd", "display_address": ["5103 Hollywood Blvd", "Los Angeles, CA 90027"], "city": "Los Angeles", "address2": "", "address3": "", "country": "US", "zip_code": "90027"}}, {"review_count": 1176, "distance": 8628.911897404, "coordinates": {"latitude": 34.1333008, "longitude": -118.3573532}, "is_closed": false, "name": "Joe's Falafel", "price": "$", "url": "https://www.yelp.com/biz/joes-falafel-los-angeles?adjust_creative=8_C4NSGbL05eUQksKleGYw&utm_campaign=yelp_api_v3&utm_medium=api_v3_business_search&utm_source=8_C4NSGbL05eUQksKleGYw", "transactions": ["delivery", "pickup"], "rating": 4.5, "display_phone": "(323) 512-4447", "categories": [{"alias": "mediterranean", "title": "Mediterranean"}], "id": "joes-falafel-los-angeles", "phone": "+13235124447", "image_url": "https://s3-media3.fl.yelpcdn.com/bphoto/0116Lnmaz7CMzVDXl4_rTg/o.jpg", "location": {"state": "CA", "address1": "3535 Cahuenga Blvd W", "display_address": ["3535 Cahuenga Blvd W", "Ste 105", "Los Angeles, CA 90068"], "city": "Los Angeles", "address2": "Ste 105", "address3": "", "country": "US", "zip_code": "90068"}}, {"review_count": 46, "distance": 5756.214569831999, "coordinates": {"latitude": 34.0550257964308, "longitude": -118.38336369965}, "is_closed": false, "name": "Founders Ale House", "price": "$$", "url": "https://www.yelp.com/biz/founders-ale-house-los-angeles-2?adjust_creative=8_C4NSGbL05eUQksKleGYw&utm_campaign=yelp_api_v3&utm_medium=api_v3_business_search&utm_source=8_C4NSGbL05eUQksKleGYw", "transactions": [], "rating": 4.5, "display_phone": "(424) 777-0079", "categories": [{"alias": "bars", "title": "Bars"}, {"alias": "newamerican", "title": "American (New)"}], "id": "founders-ale-house-los-angeles-2", "phone": "+14247770079", "image_url": "https://s3-media1.fl.yelpcdn.com/bphoto/cLPceJ7Kq-p22oRmqUAJ4g/o.jpg", "location": {"state": "CA", "address1": "8771 W Pico Blvd", "display_address": ["8771 W Pico Blvd", "Los Angeles, CA 90035"], "city": "Los Angeles", "address2": null, "address3": "", "country": "US", "zip_code": "90035"}}, {"review_count": 164, "distance": 7727.633217203999, "coordinates": {"latitude": 34.057933, "longitude": -118.237608}, "is_closed": false, "name": "Juanita's Caf\u00e9", "price": "$", "url": "https://www.yelp.com/biz/juanitas-caf%C3%A9-los-angeles-2?adjust_creative=8_C4NSGbL05eUQksKleGYw&utm_campaign=yelp_api_v3&utm_medium=api_v3_business_search&utm_source=8_C4NSGbL05eUQksKleGYw", "transactions": [], "rating": 4.5, "display_phone": "(213) 628-1013", "categories": [{"alias": "mexican", "title": "Mexican"}], "id": "juanitas-caf\u00e9-los-angeles-2", "phone": "+12136281013", "image_url": "https://s3-media2.fl.yelpcdn.com/bphoto/yVJdAionXeVqGmVMwYQ-Dg/o.jpg", "location": {"state": "CA", "address1": "20 Olvera St", "display_address": ["20 Olvera St", "Los Angeles, CA 90012"], "city": "Los Angeles", "address2": "", "address3": "", "country": "US", "zip_code": "90012"}}, {"review_count": 722, "distance": 1543.48822121, "coordinates": {"latitude": 34.075313, "longitude": -118.323881}, "is_closed": false, "name": "Larchmont Village Wine Spirits & Cheese", "price": "$", "url": "https://www.yelp.com/biz/larchmont-village-wine-spirits-and-cheese-los-angeles?adjust_creative=8_C4NSGbL05eUQksKleGYw&utm_campaign=yelp_api_v3&utm_medium=api_v3_business_search&utm_source=8_C4NSGbL05eUQksKleGYw", "transactions": [], "rating": 4.5, "display_phone": "(323) 856-8699", "categories": [{"alias": "beer_and_wine", "title": "Beer, Wine & Spirits"}, {"alias": "sandwiches", "title": "Sandwiches"}, {"alias": "cheese", "title": "Cheese Shops"}], "id": "larchmont-village-wine-spirits-and-cheese-los-angeles", "phone": "+13238568699", "image_url": "https://s3-media1.fl.yelpcdn.com/bphoto/gDkOFEM2oPykU25cWbUH-g/o.jpg", "location": {"state": "CA", "address1": "223 N Larchmont Blvd", "display_address": ["223 N Larchmont Blvd", "Los Angeles, CA 90004"], "city": "Los Angeles", "address2": "", "address3": "", "country": "US", "zip_code": "90004"}}, {"review_count": 506, "distance": 6003.516214942, "coordinates": {"latitude": 34.1074686, "longitude": -118.2872751}, "is_closed": false, "name": "Farfalla Trattoria", "price": "$$", "url": "https://www.yelp.com/biz/farfalla-trattoria-los-angeles?adjust_creative=8_C4NSGbL05eUQksKleGYw&utm_campaign=yelp_api_v3&utm_medium=api_v3_business_search&utm_source=8_C4NSGbL05eUQksKleGYw", "transactions": [], "rating": 4.0, "display_phone": "(323) 661-7365", "categories": [{"alias": "italian", "title": "Italian"}], "id": "farfalla-trattoria-los-angeles", "phone": "+13236617365", "image_url": "https://s3-media2.fl.yelpcdn.com/bphoto/CWxSlsBedgQRe2EMqunUsg/o.jpg", "location": {"state": "CA", "address1": "1978 Hillhurst Ave", "display_address": ["1978 Hillhurst Ave", "Los Angeles, CA 90027"], "city": "Los Angeles", "address2": "", "address3": "", "country": "US", "zip_code": "90027"}}, {"review_count": 427, "distance": 16315.11394378, "coordinates": {"latitude": 34.1525724100928, "longitude": -118.460406732341}, "is_closed": false, "name": "8oz Poke", "price": "$$", "url": "https://www.yelp.com/biz/8oz-poke-los-angeles?adjust_creative=8_C4NSGbL05eUQksKleGYw&utm_campaign=yelp_api_v3&utm_medium=api_v3_business_search&utm_source=8_C4NSGbL05eUQksKleGYw", "transactions": [], "rating": 4.5, "display_phone": "(818) 616-3696", "categories": [{"alias": "hawaiian", "title": "Hawaiian"}, {"alias": "poke", "title": "Poke"}, {"alias": "hotdogs", "title": "Fast Food"}], "id": "8oz-poke-los-angeles", "phone": "+18186163696", "image_url": "https://s3-media1.fl.yelpcdn.com/bphoto/Po3CWBTdT_LD9pWrFn1LXA/o.jpg", "location": {"state": "CA", "address1": "15030 Ventura Blvd", "display_address": ["15030 Ventura Blvd", "Ste 2", "Los Angeles, CA 91403"], "city": "Los Angeles", "address2": "Ste 2", "address3": "", "country": "US", "zip_code": "91403"}}, {"review_count": 26, "distance": 3775.8066320219996, "coordinates": {"latitude": 34.0297396935999, "longitude": -118.335594981909}, "is_closed": false, "name": "Los Girasoles Mexican Grill", "price": "$", "url": "https://www.yelp.com/biz/los-girasoles-mexican-grill-los-angeles?adjust_creative=8_C4NSGbL05eUQksKleGYw&utm_campaign=yelp_api_v3&utm_medium=api_v3_business_search&utm_source=8_C4NSGbL05eUQksKleGYw", "transactions": [], "rating": 4.5, "display_phone": "(323) 373-9670", "categories": [{"alias": "mexican", "title": "Mexican"}], "id": "los-girasoles-mexican-grill-los-angeles", "phone": "+13233739670", "image_url": "https://s3-media3.fl.yelpcdn.com/bphoto/mLuj_0Ec0E3NtRywVhgiEw/o.jpg", "location": {"state": "CA", "address1": "2851 Crenshaw Blvd", "display_address": ["2851 Crenshaw Blvd", "Los Angeles, CA 90016"], "city": "Los Angeles", "address2": "", "address3": null, "country": "US", "zip_code": "90016"}}, {"review_count": 29, "distance": 11993.845497924, "coordinates": {"latitude": 34.0409057606415, "longitude": -118.193614703225}, "is_closed": false, "name": "Guadalajara Buffet", "price": "$", "url": "https://www.yelp.com/biz/guadalajara-buffet-los-angeles?adjust_creative=8_C4NSGbL05eUQksKleGYw&utm_campaign=yelp_api_v3&utm_medium=api_v3_business_search&utm_source=8_C4NSGbL05eUQksKleGYw", "transactions": [], "rating": 4.0, "display_phone": "(323) 247-6819", "categories": [{"alias": "buffets", "title": "Buffets"}], "id": "guadalajara-buffet-los-angeles", "phone": "+13232476819", "image_url": "https://s3-media4.fl.yelpcdn.com/bphoto/kvIonEST_82cXW2H_8lkuQ/o.jpg", "location": {"state": "CA", "address1": "3277 E Cesar Chavez Ave", "display_address": ["3277 E Cesar Chavez Ave", "Los Angeles, CA 90063"], "city": "Los Angeles", "address2": "", "address3": "", "country": "US", "zip_code": "90063"}}]}