{"businesses": [{"coordinates": {"longitude": -95.361335, "latitude": 29.752967}, "categories": [{"alias": "newamerican", "title": "American (New)"}, {"alias": "cocktailbars", "title": "Cocktail Bars"}], "location": {"display_address": ["1515 Dallas St", "Houston, TX 77010"], "address3": "", "city": "Houston", "state": "TX", "address2": null, "address1": "1515 Dallas St", "zip_code": "77010", "country": "US"}, "review_count": 211, "distance": 1127.516317786, "display_phone": "(832) 377-3362", "price": "$$", "rating": 3.5, "phone": "+18323773362", "id": "hearsay-on-the-green-houston", "name": "Hearsay on the Green", "transactions": ["pickup"], "url": "https://www.yelp.com/biz/hearsay-on-the-green-houston?adjust_creative=8_C4NSGbL05eUQksKleGYw&utm_campaign=yelp_api_v3&utm_medium=api_v3_business_search&utm_source=8_C4NSGbL05eUQksKleGYw", "is_closed": false, "image_url": "https://s3-media2.fl.yelpcdn.com/bphoto/LhlMtr8HrOy3sWcJAQ70ww/o.jpg"}, {"coordinates": {"longitude": -95.374886375278, "latitude": 29.752140342509}, "categories": [{"alias": "salad", "title": "Salad"}, {"alias": "seafood", "title": "Seafood"}, {"alias": "breakfast_brunch", "title": "Breakfast & Brunch"}], "location": {"display_address": ["501 Pierce St", "Houston, TX 77002"], "address3": "", "city": "Houston", "state": "TX", "address2": "", "address1": "501 Pierce St", "zip_code": "77002", "country": "US"}, "review_count": 364, "distance": 1882.1118646199998, "display_phone": "(713) 751-0660", "price": "$$", "rating": 4.0, "phone": "+17137510660", "id": "district-7-grill-houston-3", "name": "District 7 Grill", "transactions": [], "url": "https://www.yelp.com/biz/district-7-grill-houston-3?adjust_creative=8_C4NSGbL05eUQksKleGYw&utm_campaign=yelp_api_v3&utm_medium=api_v3_business_search&utm_source=8_C4NSGbL05eUQksKleGYw", "is_closed": false, "image_url": "https://s3-media3.fl.yelpcdn.com/bphoto/kdhGrgQFsc5weeeU2HJeWg/o.jpg"}, {"coordinates": {"longitude": -95.40378279984, "latitude": 29.7530888020992}, "categories": [{"alias": "szechuan", "title": "Szechuan"}], "location": {"display_address": ["1915 W Gray St", "Ste A", "Houston, TX 77019"], "address3": null, "city": "Houston", "state": "TX", "address2": "Ste A", "address1": "1915 W Gray St", "zip_code": "77019", "country": "US"}, "review_count": 132, "distance": 4332.68285074, "display_phone": "(346) 204-5644", "price": "$$", "rating": 4.0, "phone": "+13462045644", "id": "pepper-twins-houston", "name": "Pepper Twins", "transactions": ["pickup"], "url": "https://www.yelp.com/biz/pepper-twins-houston?adjust_creative=8_C4NSGbL05eUQksKleGYw&utm_campaign=yelp_api_v3&utm_medium=api_v3_business_search&utm_source=8_C4NSGbL05eUQksKleGYw", "is_closed": false, "image_url": "https://s3-media2.fl.yelpcdn.com/bphoto/3bKpesILW1eVBrm_1qknxg/o.jpg"}, {"coordinates": {"longitude": -95.4255589842796, "latitude": 29.6800126880407}, "categories": [{"alias": "cajun", "title": "Cajun/Creole"}, {"alias": "sandwiches", "title": "Sandwiches"}, {"alias": "fishnchips", "title": "Fish & Chips"}], "location": {"display_address": ["9591 S Main St", "Houston, TX 77025"], "address3": "", "city": "Houston", "state": "TX", "address2": null, "address1": "9591 S Main St", "zip_code": "77025", "country": "US"}, "review_count": 169, "distance": 11173.664196202, "display_phone": "(713) 662-3054", "price": "$", "rating": 4.0, "phone": "+17136623054", "id": "sleepy-po-boys-houston", "name": "Sleepy' Po-Boys", "transactions": [], "url": "https://www.yelp.com/biz/sleepy-po-boys-houston?adjust_creative=8_C4NSGbL05eUQksKleGYw&utm_campaign=yelp_api_v3&utm_medium=api_v3_business_search&utm_source=8_C4NSGbL05eUQksKleGYw", "is_closed": false, "image_url": "https://s3-media2.fl.yelpcdn.com/bphoto/3RssDkUFEOOT0Wvcph0XJw/o.jpg"}, {"coordinates": {"longitude": -95.3960419, "latitude": 29.938498}, "categories": [{"alias": "hotdogs", "title": "Fast Food"}, {"alias": "sandwiches", "title": "Sandwiches"}, {"alias": "chickenshop", "title": "Chicken Shop"}], "location": {"display_address": ["414 N Sam Houston Pkwy E", "Ste E", "Houston, TX 77060"], "address3": "", "city": "Houston", "state": "TX", "address2": "Ste E", "address1": "414 N Sam Houston Pkwy E", "zip_code": "77060", "country": "US"}, "review_count": 109, "distance": 19691.198661159997, "display_phone": "(281) 448-6300", "price": "$", "rating": 4.5, "phone": "+12814486300", "id": "super-chicken-houston", "name": "Super Chicken", "transactions": [], "url": "https://www.yelp.com/biz/super-chicken-houston?adjust_creative=8_C4NSGbL05eUQksKleGYw&utm_campaign=yelp_api_v3&utm_medium=api_v3_business_search&utm_source=8_C4NSGbL05eUQksKleGYw", "is_closed": false, "image_url": "https://s3-media2.fl.yelpcdn.com/bphoto/xuGgpmJaAc25z29bvoDSmw/o.jpg"}, {"coordinates": {"longitude": -95.3551356, "latitude": 29.7519133}, "categories": [{"alias": "vietnamese", "title": "Vietnamese"}], "location": {"display_address": ["912 St Emanuel St", "Houston, TX 77003"], "address3": "", "city": "Houston", "state": "TX", "address2": "", "address1": "912 St Emanuel St", "zip_code": "77003", "country": "US"}, "review_count": 580, "distance": 1329.4181113477998, "display_phone": "(713) 224-8964", "price": "$$", "rating": 4.0, "phone": "+17132248964", "id": "huynh-restaurant-houston", "name": "Huynh Restaurant", "transactions": ["pickup"], "url": "https://www.yelp.com/biz/huynh-restaurant-houston?adjust_creative=8_C4NSGbL05eUQksKleGYw&utm_campaign=yelp_api_v3&utm_medium=api_v3_business_search&utm_source=8_C4NSGbL05eUQksKleGYw", "is_closed": false, "image_url": "https://s3-media3.fl.yelpcdn.com/bphoto/Rns1HmDNOWuGlirFg9FITA/o.jpg"}, {"coordinates": {"longitude": -95.3768463134766, "latitude": 29.7474517822266}, "categories": [{"alias": "wine_bars", "title": "Wine Bars"}, {"alias": "newamerican", "title": "American (New)"}, {"alias": "basque", "title": "Basque"}], "location": {"display_address": ["2450 Louisiana St", "Houston, TX 77006"], "address3": "", "city": "Houston", "state": "TX", "address2": "", "address1": "2450 Louisiana St", "zip_code": "77006", "country": "US"}, "review_count": 357, "distance": 2375.231182426, "display_phone": "(713) 524-0004", "price": "$$$", "rating": 4.0, "phone": "+17135240004", "id": "ibiza-food-and-wine-bar-houston-2", "name": "Ibiza Food & Wine Bar", "transactions": [], "url": "https://www.yelp.com/biz/ibiza-food-and-wine-bar-houston-2?adjust_creative=8_C4NSGbL05eUQksKleGYw&utm_campaign=yelp_api_v3&utm_medium=api_v3_business_search&utm_source=8_C4NSGbL05eUQksKleGYw", "is_closed": false, "image_url": "https://s3-media1.fl.yelpcdn.com/bphoto/MyuNQl9peOLrlsHP8Gvwlg/o.jpg"}, {"coordinates": {"longitude": -95.4836534841309, "latitude": 29.7851634817767}, "categories": [{"alias": "burgers", "title": "Burgers"}], "location": {"display_address": ["1014 Wirt Rd", "Ste 220", "Houston, TX 77055"], "address3": "", "city": "Houston", "state": "TX", "address2": "Ste 220", "address1": "1014 Wirt Rd", "zip_code": "77055", "country": "US"}, "review_count": 286, "distance": 12189.73500646, "display_phone": "(281) 501-9773", "price": "$$", "rating": 4.0, "phone": "+12815019773", "id": "buffburger-houston", "name": "BuffBurger", "transactions": [], "url": "https://www.yelp.com/biz/buffburger-houston?adjust_creative=8_C4NSGbL05eUQksKleGYw&utm_campaign=yelp_api_v3&utm_medium=api_v3_business_search&utm_source=8_C4NSGbL05eUQksKleGYw", "is_closed": false, "image_url": "https://s3-media3.fl.yelpcdn.com/bphoto/urmIl7xJHnOGA0pj5lCaJQ/o.jpg"}, {"coordinates": {"longitude": -95.3778756782413, "latitude": 29.8041456666703}, "categories": [{"alias": "mexican", "title": "Mexican"}, {"alias": "breakfast_brunch", "title": "Breakfast & Brunch"}, {"alias": "sandwiches", "title": "Sandwiches"}], "location": {"display_address": ["1402 Northwood St", "Houston, TX 77009"], "address3": null, "city": "Houston", "state": "TX", "address2": "", "address1": "1402 Northwood St", "zip_code": "77009", "country": "US"}, "review_count": 36, "distance": 4888.56417547, "display_phone": "(832) 709-9191", "price": "$", "rating": 5.0, "phone": "+18327099191", "id": "unos-pnches-tacos-houston", "name": "Unos P'nches Tacos", "transactions": [], "url": "https://www.yelp.com/biz/unos-pnches-tacos-houston?adjust_creative=8_C4NSGbL05eUQksKleGYw&utm_campaign=yelp_api_v3&utm_medium=api_v3_business_search&utm_source=8_C4NSGbL05eUQksKleGYw", "is_closed": false, "image_url": "https://s3-media1.fl.yelpcdn.com/bphoto/YO_9b7NP8EbCKpfQQDCZwA/o.jpg"}, {"coordinates": {"longitude": -95.2608907, "latitude": 29.668205}, "categories": [{"alias": "mexican", "title": "Mexican"}], "location": {"display_address": ["8553 Gulf Fwy", "Houston, TX 77017"], "address3": "", "city": "Houston", "state": "TX", "address2": "", "address1": "8553 Gulf Fwy", "zip_code": "77017", "country": "US"}, "review_count": 114, "distance": 14237.14861984, "display_phone": "(713) 943-3183", "price": "$$", "rating": 4.0, "phone": "+17139433183", "id": "ninfas-mexican-restaurant-houston-3", "name": "Ninfa's Mexican Restaurant", "transactions": [], "url": "https://www.yelp.com/biz/ninfas-mexican-restaurant-houston-3?adjust_creative=8_C4NSGbL05eUQksKleGYw&utm_campaign=yelp_api_v3&utm_medium=api_v3_business_search&utm_source=8_C4NSGbL05eUQksKleGYw", "is_closed": false, "image_url": "https://s3-media2.fl.yelpcdn.com/bphoto/_2cFI0H7BcgNoQtvY7DdFw/o.jpg"}, {"coordinates": {"longitude": -95.35488, "latitude": 29.75227}, "categories": [{"alias": "bbq", "title": "Barbeque"}, {"alias": "seafood", "title": "Seafood"}], "location": {"display_address": ["2019 Walker St", "Houston, TX 77003"], "address3": "", "city": "Houston", "state": "TX", "address2": "", "address1": "2019 Walker St", "zip_code": "77003", "country": "US"}, "review_count": 5, "distance": 1291.06565622, "display_phone": "(281) 226-2183", "price": "$", "rating": 4.5, "phone": "+12812262183", "id": "house-of-hoopz-bbq-and-crawfish-houston-3", "name": "House of Hoopz BBQ & Crawfish", "transactions": [], "url": "https://www.yelp.com/biz/house-of-hoopz-bbq-and-crawfish-houston-3?adjust_creative=8_C4NSGbL05eUQksKleGYw&utm_campaign=yelp_api_v3&utm_medium=api_v3_business_search&utm_source=8_C4NSGbL05eUQksKleGYw", "is_closed": false, "image_url": "https://s3-media2.fl.yelpcdn.com/bphoto/yYw2k9IfRU3vsf5YArN7cw/o.jpg"}, {"coordinates": {"longitude": -95.3555475, "latitude": 29.7522031}, "categories": [{"alias": "bars", "title": "Bars"}, {"alias": "arcades", "title": "Arcades"}, {"alias": "burgers", "title": "Burgers"}], "location": {"display_address": ["2006 Walker St", "Houston, TX 77003"], "address3": "", "city": "Houston", "state": "TX", "address2": "", "address1": "2006 Walker St", "zip_code": "77003", "country": "US"}, "review_count": 139, "distance": 1276.4555205243998, "display_phone": "(713) 237-0644", "price": "$", "rating": 4.5, "phone": "+17132370644", "id": "neils-bahr-houston", "name": "Neil's Bahr", "transactions": [], "url": "https://www.yelp.com/biz/neils-bahr-houston?adjust_creative=8_C4NSGbL05eUQksKleGYw&utm_campaign=yelp_api_v3&utm_medium=api_v3_business_search&utm_source=8_C4NSGbL05eUQksKleGYw", "is_closed": false, "image_url": "https://s3-media3.fl.yelpcdn.com/bphoto/wCg8HQltGkFTwUFgCMPi-g/o.jpg"}, {"coordinates": {"longitude": -95.362643, "latitude": 29.754491}, "categories": [{"alias": "seafood", "title": "Seafood"}, {"alias": "cajun", "title": "Cajun/Creole"}, {"alias": "southern", "title": "Southern"}], "location": {"display_address": ["1331 Lamar St", "Ste 114", "Houston, TX 77010"], "address3": "", "city": "Houston", "state": "TX", "address2": "Ste 114", "address1": "1331 Lamar St", "zip_code": "77010", "country": "US"}, "review_count": 71, "distance": 983.6536010501999, "display_phone": "(713) 655-9100", "price": "$$", "rating": 4.0, "phone": "+17136559100", "id": "massas-south-coast-grill-houston", "name": "Massas' South Coast Grill", "transactions": [], "url": "https://www.yelp.com/biz/massas-south-coast-grill-houston?adjust_creative=8_C4NSGbL05eUQksKleGYw&utm_campaign=yelp_api_v3&utm_medium=api_v3_business_search&utm_source=8_C4NSGbL05eUQksKleGYw", "is_closed": false, "image_url": "https://s3-media3.fl.yelpcdn.com/bphoto/oZwmVY3NGSVxpkdD60LlNA/o.jpg"}, {"coordinates": {"longitude": -95.3722551, "latitude": 29.7734887}, "categories": [{"alias": "coffee", "title": "Coffee & Tea"}, {"alias": "tapasmallplates", "title": "Tapas/Small Plates"}, {"alias": "cocktailbars", "title": "Cocktail Bars"}], "location": {"display_address": ["1720 Houston Ave", "Houston, TX 77007"], "address3": "", "city": "Houston", "state": "TX", "address2": null, "address1": "1720 Houston Ave", "zip_code": "77007", "country": "US"}, "review_count": 96, "distance": 1663.09517468, "display_phone": "(832) 203-8016", "price": "$", "rating": 4.5, "phone": "+18322038016", "id": "cafeza-houston", "name": "Cafeza", "transactions": [], "url": "https://www.yelp.com/biz/cafeza-houston?adjust_creative=8_C4NSGbL05eUQksKleGYw&utm_campaign=yelp_api_v3&utm_medium=api_v3_business_search&utm_source=8_C4NSGbL05eUQksKleGYw", "is_closed": false, "image_url": "https://s3-media1.fl.yelpcdn.com/bphoto/DwFPYKYU0KMUcXDzJS3RRA/o.jpg"}, {"coordinates": {"longitude": -95.4120621085167, "latitude": 29.6933987958478}, "categories": [{"alias": "cajun", "title": "Cajun/Creole"}, {"alias": "seafood", "title": "Seafood"}], "location": {"display_address": ["1333 Old Spanish Trl", "Ste A", "Houston, TX 77054"], "address3": null, "city": "Houston", "state": "TX", "address2": "Ste A", "address1": "1333 Old Spanish Trl", "zip_code": "77054", "country": "US"}, "review_count": 56, "distance": 9233.438098577999, "display_phone": "(832) 968-4340", "price": "$$", "rating": 4.0, "phone": "+18329684340", "id": "nola-poboys-houston", "name": "Nola Poboys", "transactions": ["delivery", "pickup"], "url": "https://www.yelp.com/biz/nola-poboys-houston?adjust_creative=8_C4NSGbL05eUQksKleGYw&utm_campaign=yelp_api_v3&utm_medium=api_v3_business_search&utm_source=8_C4NSGbL05eUQksKleGYw", "is_closed": false, "image_url": "https://s3-media2.fl.yelpcdn.com/bphoto/lGNvcRY8hPjAjKjxL3MWLg/o.jpg"}, {"coordinates": {"longitude": -95.4147, "latitude": 29.72527}, "categories": [{"alias": "divebars", "title": "Dive Bars"}, {"alias": "tradamerican", "title": "American (Traditional)"}], "location": {"display_address": ["2349 Bissonnet St", "Houston, TX 77005"], "address3": "", "city": "Houston", "state": "TX", "address2": null, "address1": "2349 Bissonnet St", "zip_code": "77005", "country": "US"}, "review_count": 247, "distance": 6758.235520022, "display_phone": "(713) 526-5282", "price": "$$", "rating": 4.0, "phone": "+17135265282", "id": "under-the-volcano-houston", "name": "Under the Volcano", "transactions": [], "url": "https://www.yelp.com/biz/under-the-volcano-houston?adjust_creative=8_C4NSGbL05eUQksKleGYw&utm_campaign=yelp_api_v3&utm_medium=api_v3_business_search&utm_source=8_C4NSGbL05eUQksKleGYw", "is_closed": false, "image_url": "https://s3-media1.fl.yelpcdn.com/bphoto/QGUnacKQDcF8VSCTZbjOdA/o.jpg"}, {"coordinates": {"longitude": -95.5501472577453, "latitude": 29.7075825698547}, "categories": [{"alias": "panasian", "title": "Pan Asian"}], "location": {"display_address": ["9630 Clarewood Dr", "Ste A-12", "Houston, TX 77036"], "address3": null, "city": "Houston", "state": "TX", "address2": "Ste A-12", "address1": "9630 Clarewood Dr", "zip_code": "77036", "country": "US"}, "review_count": 37, "distance": 19370.98828136, "display_phone": "(713) 492-2835", "price": "$$", "rating": 4.0, "phone": "+17134922835", "id": "night-market-houston-2", "name": "Night Market", "transactions": [], "url": "https://www.yelp.com/biz/night-market-houston-2?adjust_creative=8_C4NSGbL05eUQksKleGYw&utm_campaign=yelp_api_v3&utm_medium=api_v3_business_search&utm_source=8_C4NSGbL05eUQksKleGYw", "is_closed": false, "image_url": "https://s3-media3.fl.yelpcdn.com/bphoto/B2a6UP77ahaW9sS1zMNS3A/o.jpg"}, {"coordinates": {"longitude": -95.3930600768915, "latitude": 29.8038379159858}, "categories": [{"alias": "soup", "title": "Soup"}, {"alias": "vietnamese", "title": "Vietnamese"}], "location": {"display_address": ["502 E 20th St", "Ste B", "Houston, TX 77008"], "address3": "", "city": "Houston", "state": "TX", "address2": "Ste B", "address1": "502 E 20th St", "zip_code": "77008", "country": "US"}, "review_count": 94, "distance": 5549.96831466, "display_phone": "(346) 571-8980", "price": "$", "rating": 4.0, "phone": "+13465718980", "id": "nam-eatery-houston", "name": "Nam Eatery", "transactions": [], "url": "https://www.yelp.com/biz/nam-eatery-houston?adjust_creative=8_C4NSGbL05eUQksKleGYw&utm_campaign=yelp_api_v3&utm_medium=api_v3_business_search&utm_source=8_C4NSGbL05eUQksKleGYw", "is_closed": false, "image_url": "https://s3-media2.fl.yelpcdn.com/bphoto/Y7xNsPgacUe35PNXYjAD5A/o.jpg"}, {"coordinates": {"longitude": -95.52758, "latitude": 29.67172}, "categories": [{"alias": "seafoodmarkets", "title": "Seafood Markets"}, {"alias": "cajun", "title": "Cajun/Creole"}], "location": {"display_address": ["8550 S Braeswood Blvd", "Houston, TX 77071"], "address3": "", "city": "Houston", "state": "TX", "address2": "", "address1": "8550 S Braeswood Blvd", "zip_code": "77071", "country": "US"}, "review_count": 139, "distance": 19104.877474999998, "display_phone": "(713) 270-7987", "price": "$$", "rating": 4.0, "phone": "+17132707987", "id": "lotus-seafood-market-houston", "name": "Lotus Seafood Market", "transactions": [], "url": "https://www.yelp.com/biz/lotus-seafood-market-houston?adjust_creative=8_C4NSGbL05eUQksKleGYw&utm_campaign=yelp_api_v3&utm_medium=api_v3_business_search&utm_source=8_C4NSGbL05eUQksKleGYw", "is_closed": false, "image_url": "https://s3-media1.fl.yelpcdn.com/bphoto/ggCwfI92_62UfU8cFpDnlQ/o.jpg"}, {"coordinates": {"longitude": -95.3103361, "latitude": 29.9024307}, "categories": [{"alias": "mexican", "title": "Mexican"}], "location": {"display_address": ["5319 Aldine Mail Rt", "Houston, TX 77039"], "address3": "", "city": "Houston", "state": "TX", "address2": "", "address1": "5319 Aldine Mail Rt", "zip_code": "77039", "country": "US"}, "review_count": 12, "distance": 16223.405703879998, "display_phone": "(281) 219-1889", "price": "$", "rating": 4.5, "phone": "+12812191889", "id": "taco-real-houston", "name": "Taco Real", "transactions": [], "url": "https://www.yelp.com/biz/taco-real-houston?adjust_creative=8_C4NSGbL05eUQksKleGYw&utm_campaign=yelp_api_v3&utm_medium=api_v3_business_search&utm_source=8_C4NSGbL05eUQksKleGYw", "is_closed": false, "image_url": "https://s3-media2.fl.yelpcdn.com/bphoto/MEb_CqRJrdT-5-DTBxLhug/o.jpg"}, {"coordinates": {"longitude": -95.4364499, "latitude": 29.73805}, "categories": [{"alias": "modern_european", "title": "Modern European"}, {"alias": "french", "title": "French"}, {"alias": "italian", "title": "Italian"}], "location": {"display_address": ["3641 W Alabama St", "Houston, TX 77027"], "address3": "", "city": "Houston", "state": "TX", "address2": "", "address1": "3641 W Alabama St", "zip_code": "77027", "country": "US"}, "review_count": 38, "distance": 7891.349766064, "display_phone": "(832) 940-2126", "price": "$$", "rating": 4.5, "phone": "+18329402126", "id": "borgo-food-station-houston", "name": "Borgo Food Station", "transactions": [], "url": "https://www.yelp.com/biz/borgo-food-station-houston?adjust_creative=8_C4NSGbL05eUQksKleGYw&utm_campaign=yelp_api_v3&utm_medium=api_v3_business_search&utm_source=8_C4NSGbL05eUQksKleGYw", "is_closed": false, "image_url": "https://s3-media3.fl.yelpcdn.com/bphoto/xaQoF-J-PCq8T_gKoEc1XA/o.jpg"}, {"coordinates": {"longitude": -95.3779718, "latitude": 29.7676141}, "categories": [{"alias": "cocktailbars", "title": "Cocktail Bars"}, {"alias": "tapasmallplates", "title": "Tapas/Small Plates"}, {"alias": "whiskeybars", "title": "Whiskey Bars"}], "location": {"display_address": ["1919 Washington Ave", "Houston, TX 77007"], "address3": "", "city": "Houston", "state": "TX", "address2": "", "address1": "1919 Washington Ave", "zip_code": "77007", "country": "US"}, "review_count": 249, "distance": 1812.734987494, "display_phone": "(713) 869-4383", "price": "$$", "rating": 4.0, "phone": "+17138694383", "id": "julep-houston", "name": "Julep", "transactions": [], "url": "https://www.yelp.com/biz/julep-houston?adjust_creative=8_C4NSGbL05eUQksKleGYw&utm_campaign=yelp_api_v3&utm_medium=api_v3_business_search&utm_source=8_C4NSGbL05eUQksKleGYw", "is_closed": false, "image_url": "https://s3-media4.fl.yelpcdn.com/bphoto/RKyDHQZqB2FuqnBJn-3sAw/o.jpg"}, {"coordinates": {"longitude": -95.185375213623, "latitude": 29.771846464795}, "categories": [{"alias": "sandwiches", "title": "Sandwiches"}], "location": {"display_address": ["13431 East Fwy", "Houston, TX 77015"], "address3": "", "city": "Houston", "state": "TX", "address2": "", "address1": "13431 East Fwy", "zip_code": "77015", "country": "US"}, "review_count": 39, "distance": 16879.73478938, "display_phone": "(713) 450-3352", "price": "$", "rating": 4.0, "phone": "+17134503352", "id": "hobos-sandwich-shop-houston", "name": "Hobo's Sandwich Shop", "transactions": [], "url": "https://www.yelp.com/biz/hobos-sandwich-shop-houston?adjust_creative=8_C4NSGbL05eUQksKleGYw&utm_campaign=yelp_api_v3&utm_medium=api_v3_business_search&utm_source=8_C4NSGbL05eUQksKleGYw", "is_closed": false, "image_url": "https://s3-media1.fl.yelpcdn.com/bphoto/MSSBoPIVkf1OXghPRC0m9w/o.jpg"}, {"coordinates": {"longitude": -95.5679916590452, "latitude": 29.703324415391}, "categories": [{"alias": "korean", "title": "Korean"}, {"alias": "chicken_wings", "title": "Chicken Wings"}, {"alias": "beerbar", "title": "Beer Bar"}], "location": {"display_address": ["10603 Bellaire Blvd", "Ste B107", "Houston, TX 77072"], "address3": null, "city": "Houston", "state": "TX", "address2": "Ste B107", "address1": "10603 Bellaire Blvd", "zip_code": "77072", "country": "US"}, "review_count": 78, "distance": 21155.702889179996, "display_phone": "(281) 575-8077", "price": "$$", "rating": 4.0, "phone": "+12815758077", "id": "lims-chicken-houston", "name": "Lims Chicken", "transactions": [], "url": "https://www.yelp.com/biz/lims-chicken-houston?adjust_creative=8_C4NSGbL05eUQksKleGYw&utm_campaign=yelp_api_v3&utm_medium=api_v3_business_search&utm_source=8_C4NSGbL05eUQksKleGYw", "is_closed": false, "image_url": "https://s3-media1.fl.yelpcdn.com/bphoto/rcbBp9Fu48ruQKaoi_PNiQ/o.jpg"}, {"coordinates": {"longitude": -95.1764231, "latitude": 29.7711734}, "categories": [{"alias": "seafood", "title": "Seafood"}], "location": {"display_address": ["13955 East Fwy", "Houston, TX 77015"], "address3": "", "city": "Houston", "state": "TX", "address2": "", "address1": "13955 East Fwy", "zip_code": "77015", "country": "US"}, "review_count": 152, "distance": 17767.394429829998, "display_phone": "(713) 451-3700", "price": "$$", "rating": 4.0, "phone": "+17134513700", "id": "captain-toms-seafood-and-oyster-bar-houston", "name": "Captain Tom's Seafood and Oyster Bar", "transactions": [], "url": "https://www.yelp.com/biz/captain-toms-seafood-and-oyster-bar-houston?adjust_creative=8_C4NSGbL05eUQksKleGYw&utm_campaign=yelp_api_v3&utm_medium=api_v3_business_search&utm_source=8_C4NSGbL05eUQksKleGYw", "is_closed": false, "image_url": "https://s3-media2.fl.yelpcdn.com/bphoto/HVPND159h9sbET8gkbPk5A/o.jpg"}, {"coordinates": {"longitude": -95.3350349304517, "latitude": 29.9848430665455}, "categories": [{"alias": "seafood", "title": "Seafood"}, {"alias": "cajun", "title": "Cajun/Creole"}], "location": {"display_address": ["3950 N Terminal Rd", "Houston, TX 77032"], "address3": "", "city": "Houston", "state": "TX", "address2": "", "address1": "3950 N Terminal Rd", "zip_code": "77032", "country": "US"}, "review_count": 379, "distance": 24781.636032219998, "display_phone": "(281) 821-7684", "price": "$$", "rating": 4.0, "phone": "+12818217684", "id": "pappadeaux-seafood-kitchen-houston-14", "name": "Pappadeaux Seafood Kitchen", "transactions": [], "url": "https://www.yelp.com/biz/pappadeaux-seafood-kitchen-houston-14?adjust_creative=8_C4NSGbL05eUQksKleGYw&utm_campaign=yelp_api_v3&utm_medium=api_v3_business_search&utm_source=8_C4NSGbL05eUQksKleGYw", "is_closed": false, "image_url": "https://s3-media1.fl.yelpcdn.com/bphoto/b9x_Kv3L-GpVYNuU8kuvWQ/o.jpg"}, {"coordinates": {"longitude": -95.4643246, "latitude": 29.6633819}, "categories": [{"alias": "peruvian", "title": "Peruvian"}, {"alias": "seafood", "title": "Seafood"}, {"alias": "mexican", "title": "Mexican"}], "location": {"display_address": ["10804 S Post Oak Rd", "Ste 375", "Houston, TX 77035"], "address3": "", "city": "Houston", "state": "TX", "address2": "Ste 375", "address1": "10804 S Post Oak Rd", "zip_code": "77035", "country": "US"}, "review_count": 58, "distance": 15016.431281339997, "display_phone": "(281) 888-3931", "price": "$$", "rating": 4.0, "phone": "+12818883931", "id": "peru-gourmet-houston-3", "name": "Peru Gourmet", "transactions": ["delivery", "pickup"], "url": "https://www.yelp.com/biz/peru-gourmet-houston-3?adjust_creative=8_C4NSGbL05eUQksKleGYw&utm_campaign=yelp_api_v3&utm_medium=api_v3_business_search&utm_source=8_C4NSGbL05eUQksKleGYw", "is_closed": false, "image_url": "https://s3-media3.fl.yelpcdn.com/bphoto/b9YHZ5O9SUYpOBgxWvO2jg/o.jpg"}, {"coordinates": {"longitude": -95.4677811, "latitude": 29.8176708}, "categories": [{"alias": "seafood", "title": "Seafood"}], "location": {"display_address": ["11011 Northwest Fwy", "Houston, TX 77092"], "address3": "", "city": "Houston", "state": "TX", "address2": "", "address1": "11011 Northwest Fwy", "zip_code": "77092", "country": "US"}, "review_count": 65, "distance": 12033.34256394, "display_phone": "(832) 409-5222", "price": "$", "rating": 4.5, "phone": "+18324095222", "id": "ty-seafood-kitchen-houston", "name": "Ty Seafood Kitchen", "transactions": [], "url": "https://www.yelp.com/biz/ty-seafood-kitchen-houston?adjust_creative=8_C4NSGbL05eUQksKleGYw&utm_campaign=yelp_api_v3&utm_medium=api_v3_business_search&utm_source=8_C4NSGbL05eUQksKleGYw", "is_closed": false, "image_url": "https://s3-media4.fl.yelpcdn.com/bphoto/J5OO0bLxiXGulIAdld70Dw/o.jpg"}, {"coordinates": {"longitude": -95.4615188, "latitude": 29.7501227}, "categories": [{"alias": "sushi", "title": "Sushi Bars"}], "location": {"display_address": ["1700 Post Oak Blvd", "Ste 250", "Houston, TX 77056"], "address3": "", "city": "Houston", "state": "TX", "address2": "Ste 250", "address1": "1700 Post Oak Blvd", "zip_code": "77056", "country": "US"}, "review_count": 130, "distance": 9988.398804658, "display_phone": "(832) 659-0613", "price": "$$", "rating": 4.5, "phone": "+18326590613", "id": "sozo-sushi-and-lounge-houston", "name": "Sozo Sushi & Lounge", "transactions": [], "url": "https://www.yelp.com/biz/sozo-sushi-and-lounge-houston?adjust_creative=8_C4NSGbL05eUQksKleGYw&utm_campaign=yelp_api_v3&utm_medium=api_v3_business_search&utm_source=8_C4NSGbL05eUQksKleGYw", "is_closed": false, "image_url": "https://s3-media3.fl.yelpcdn.com/bphoto/59N3bEyPzQ1AtTjsl4q5yA/o.jpg"}, {"coordinates": {"longitude": -95.4499031809509, "latitude": 29.8843021991708}, "categories": [{"alias": "thai", "title": "Thai"}], "location": {"display_address": ["9734 W Montgomery Rd", "Houston, TX 77088"], "address3": "", "city": "Houston", "state": "TX", "address2": null, "address1": "9734 W Montgomery Rd", "zip_code": "77088", "country": "US"}, "review_count": 83, "distance": 16035.94173398, "display_phone": "(832) 230-3330", "price": "$", "rating": 5.0, "phone": "+18322303330", "id": "aim-thai-restaurant-houston", "name": "Aim Thai Restaurant", "transactions": [], "url": "https://www.yelp.com/biz/aim-thai-restaurant-houston?adjust_creative=8_C4NSGbL05eUQksKleGYw&utm_campaign=yelp_api_v3&utm_medium=api_v3_business_search&utm_source=8_C4NSGbL05eUQksKleGYw", "is_closed": false, "image_url": "https://s3-media2.fl.yelpcdn.com/bphoto/qEnFwQOhpLxoyyVaAMm5dg/o.jpg"}, {"coordinates": {"longitude": -95.3879249, "latitude": 29.7882862}, "categories": [{"alias": "newamerican", "title": "American (New)"}], "location": {"display_address": ["933 Studewood St", "Houston, TX 77008"], "address3": "", "city": "Houston", "state": "TX", "address2": "", "address1": "933 Studewood St", "zip_code": "77008", "country": "US"}, "review_count": 282, "distance": 3941.8938996360002, "display_phone": "(713) 868-7930", "price": "$$$", "rating": 4.0, "phone": "+17138687930", "id": "glass-wall-houston", "name": "Glass Wall", "transactions": [], "url": "https://www.yelp.com/biz/glass-wall-houston?adjust_creative=8_C4NSGbL05eUQksKleGYw&utm_campaign=yelp_api_v3&utm_medium=api_v3_business_search&utm_source=8_C4NSGbL05eUQksKleGYw", "is_closed": false, "image_url": "https://s3-media1.fl.yelpcdn.com/bphoto/0-ppM2p1xMd63SReOtswdg/o.jpg"}, {"coordinates": {"longitude": -95.295086, "latitude": 29.701025}, "categories": [{"alias": "tradamerican", "title": "American (Traditional)"}, {"alias": "diners", "title": "Diners"}, {"alias": "breakfast_brunch", "title": "Breakfast & Brunch"}], "location": {"display_address": ["7006 I-45 S At Woodridge", "Houston, TX 77087"], "address3": "", "city": "Houston", "state": "TX", "address2": "", "address1": "7006 I-45 S At Woodridge", "zip_code": "77087", "country": "US"}, "review_count": 270, "distance": 9314.276856118, "display_phone": "(713) 644-7669", "price": "$$", "rating": 4.0, "phone": "+17136447669", "id": "dot-coffee-shop-houston", "name": "Dot Coffee Shop", "transactions": [], "url": "https://www.yelp.com/biz/dot-coffee-shop-houston?adjust_creative=8_C4NSGbL05eUQksKleGYw&utm_campaign=yelp_api_v3&utm_medium=api_v3_business_search&utm_source=8_C4NSGbL05eUQksKleGYw", "is_closed": false, "image_url": "https://s3-media2.fl.yelpcdn.com/bphoto/GhMxqyrNAFEE01QsewTrQQ/o.jpg"}, {"coordinates": {"longitude": -95.4210586547852, "latitude": 29.8767757415771}, "categories": [{"alias": "bbq", "title": "Barbeque"}], "location": {"display_address": ["8307 1/2 De Priest St", "Houston, TX 77088"], "address3": "", "city": "Houston", "state": "TX", "address2": "", "address1": "8307 1/2 De Priest St", "zip_code": "77088", "country": "US"}, "review_count": 97, "distance": 13963.713707140001, "display_phone": "(281) 999-5559", "price": "$$", "rating": 4.0, "phone": "+12819995559", "id": "burns-original-bbq-houston", "name": "Burns Original BBQ", "transactions": [], "url": "https://www.yelp.com/biz/burns-original-bbq-houston?adjust_creative=8_C4NSGbL05eUQksKleGYw&utm_campaign=yelp_api_v3&utm_medium=api_v3_business_search&utm_source=8_C4NSGbL05eUQksKleGYw", "is_closed": false, "image_url": "https://s3-media3.fl.yelpcdn.com/bphoto/ATXzKNomnp1wziBvbYPfZw/o.jpg"}, {"coordinates": {"longitude": -95.4521601294998, "latitude": 29.7415521341054}, "categories": [{"alias": "newamerican", "title": "American (New)"}, {"alias": "wine_bars", "title": "Wine Bars"}, {"alias": "breakfast_brunch", "title": "Breakfast & Brunch"}], "location": {"display_address": ["4410 Westheimer Rd", "Houston, TX 77027"], "address3": "", "city": "Houston", "state": "TX", "address2": "", "address1": "4410 Westheimer Rd", "zip_code": "77027", "country": "US"}, "review_count": 353, "distance": 9216.229425958, "display_phone": "(713) 621-5452", "price": "$$", "rating": 4.0, "phone": "+17136215452", "id": "seasons-52-houston-3", "name": "Seasons 52", "transactions": [], "url": "https://www.yelp.com/biz/seasons-52-houston-3?adjust_creative=8_C4NSGbL05eUQksKleGYw&utm_campaign=yelp_api_v3&utm_medium=api_v3_business_search&utm_source=8_C4NSGbL05eUQksKleGYw", "is_closed": false, "image_url": "https://s3-media2.fl.yelpcdn.com/bphoto/l617Zf7VDSRKHHLexnsX_A/o.jpg"}, {"coordinates": {"longitude": -95.5503358730164, "latitude": 29.7362871246859}, "categories": [{"alias": "latin", "title": "Latin American"}, {"alias": "argentine", "title": "Argentine"}, {"alias": "empanadas", "title": "Empanadas"}], "location": {"display_address": ["10001 Westheimer Rd", "Carillion Shopping Centre", "Houston, TX 77042"], "address3": "Carillion Shopping Centre", "city": "Houston", "state": "TX", "address2": "", "address1": "10001 Westheimer Rd", "zip_code": "77042", "country": "US"}, "review_count": 446, "distance": 18618.47377208, "display_phone": "(713) 266-2729", "price": "$", "rating": 4.5, "phone": "+17132662729", "id": "the-original-marinis-empanada-house-houston", "name": "The Original Marini's Empanada House", "transactions": [], "url": "https://www.yelp.com/biz/the-original-marinis-empanada-house-houston?adjust_creative=8_C4NSGbL05eUQksKleGYw&utm_campaign=yelp_api_v3&utm_medium=api_v3_business_search&utm_source=8_C4NSGbL05eUQksKleGYw", "is_closed": false, "image_url": "https://s3-media2.fl.yelpcdn.com/bphoto/COQU_xUvk3uXVGzRNQjN-w/o.jpg"}, {"coordinates": {"longitude": -95.38767, "latitude": 29.69832}, "categories": [{"alias": "foodtrucks", "title": "Food Trucks"}, {"alias": "juicebars", "title": "Juice Bars & Smoothies"}, {"alias": "halal", "title": "Halal"}], "location": {"display_address": ["2424 Old Spanish Trl", "Houston, TX 77054"], "address3": "", "city": "Houston", "state": "TX", "address2": null, "address1": "2424 Old Spanish Trl", "zip_code": "77054", "country": "US"}, "review_count": 442, "distance": 7663.655675777999, "display_phone": "(832) 618-4891", "price": "$", "rating": 4.5, "phone": "+18326184891", "id": "gyro-king-houston", "name": "Gyro King", "transactions": ["delivery", "pickup"], "url": "https://www.yelp.com/biz/gyro-king-houston?adjust_creative=8_C4NSGbL05eUQksKleGYw&utm_campaign=yelp_api_v3&utm_medium=api_v3_business_search&utm_source=8_C4NSGbL05eUQksKleGYw", "is_closed": false, "image_url": "https://s3-media2.fl.yelpcdn.com/bphoto/9tYwjrO_NTsOV0dKZQpwPQ/o.jpg"}, {"coordinates": {"longitude": -95.5475857708602, "latitude": 29.7058032273817}, "categories": [{"alias": "taiwanese", "title": "Taiwanese"}], "location": {"display_address": ["9203 Bellaire Blvd", "Houston, TX 77036"], "address3": null, "city": "Houston", "state": "TX", "address2": "", "address1": "9203 Bellaire Blvd", "zip_code": "77036", "country": "US"}, "review_count": 27, "distance": 19201.320393179998, "display_phone": "(713) 988-7275", "price": "$", "rating": 4.0, "phone": "+17139887275", "id": "tainan-bistro-houston-2", "name": "Tainan Bistro", "transactions": [], "url": "https://www.yelp.com/biz/tainan-bistro-houston-2?adjust_creative=8_C4NSGbL05eUQksKleGYw&utm_campaign=yelp_api_v3&utm_medium=api_v3_business_search&utm_source=8_C4NSGbL05eUQksKleGYw", "is_closed": false, "image_url": "https://s3-media1.fl.yelpcdn.com/bphoto/4bZftso47BfPi5AFe16rYg/o.jpg"}, {"coordinates": {"longitude": -95.3630849719048, "latitude": 29.7589940700126}, "categories": [{"alias": "newamerican", "title": "American (New)"}, {"alias": "pubs", "title": "Pubs"}, {"alias": "venues", "title": "Venues & Event Spaces"}], "location": {"display_address": ["705 Main St", "Houston, TX 77002"], "address3": "", "city": "Houston", "state": "TX", "address2": "", "address1": "705 Main St", "zip_code": "77002", "country": "US"}, "review_count": 572, "distance": 540.5474849298, "display_phone": "(713) 228-9472", "price": "$$", "rating": 4.0, "phone": "+17132289472", "id": "flying-saucer-draught-emporium-houston-2", "name": "Flying Saucer Draught Emporium", "transactions": [], "url": "https://www.yelp.com/biz/flying-saucer-draught-emporium-houston-2?adjust_creative=8_C4NSGbL05eUQksKleGYw&utm_campaign=yelp_api_v3&utm_medium=api_v3_business_search&utm_source=8_C4NSGbL05eUQksKleGYw", "is_closed": false, "image_url": "https://s3-media4.fl.yelpcdn.com/bphoto/nrzGfBMgoE-A0qkgptC2bQ/o.jpg"}, {"coordinates": {"longitude": -95.452224, "latitude": 29.689605}, "categories": [{"alias": "tradamerican", "title": "American (Traditional)"}, {"alias": "breakfast_brunch", "title": "Breakfast & Brunch"}, {"alias": "sandwiches", "title": "Sandwiches"}], "location": {"display_address": ["4520 Beechnut St", "Houston, TX 77096"], "address3": "", "city": "Houston", "state": "TX", "address2": "", "address1": "4520 Beechnut St", "zip_code": "77096", "country": "US"}, "review_count": 156, "distance": 12084.400967582, "display_phone": "(832) 582-5333", "price": "$$", "rating": 4.0, "phone": "+18325825333", "id": "tapesters-grill-houston-2", "name": "Tapester's Grill", "transactions": [], "url": "https://www.yelp.com/biz/tapesters-grill-houston-2?adjust_creative=8_C4NSGbL05eUQksKleGYw&utm_campaign=yelp_api_v3&utm_medium=api_v3_business_search&utm_source=8_C4NSGbL05eUQksKleGYw", "is_closed": false, "image_url": "https://s3-media2.fl.yelpcdn.com/bphoto/g8NucXOtvbWdEJCXuAwd7Q/o.jpg"}, {"coordinates": {"longitude": -95.4588606, "latitude": 29.7423569}, "categories": [{"alias": "newamerican", "title": "American (New)"}], "location": {"display_address": ["2400 West Loop S", "Houston, TX 77027"], "address3": "", "city": "Houston", "state": "TX", "address2": "", "address1": "2400 West Loop S", "zip_code": "77027", "country": "US"}, "review_count": 6, "distance": 9820.874557358, "display_phone": "(713) 586-5143", "price": "$$", "rating": 4.5, "phone": "+17135865143", "id": "sage-houston-2", "name": "Sage", "transactions": [], "url": "https://www.yelp.com/biz/sage-houston-2?adjust_creative=8_C4NSGbL05eUQksKleGYw&utm_campaign=yelp_api_v3&utm_medium=api_v3_business_search&utm_source=8_C4NSGbL05eUQksKleGYw", "is_closed": false, "image_url": "https://s3-media2.fl.yelpcdn.com/bphoto/v-FH7E-s8jQ3qOx0WoF9-A/o.jpg"}, {"coordinates": {"longitude": -95.4311263, "latitude": 29.7316976}, "categories": [{"alias": "hotdog", "title": "Hot Dogs"}, {"alias": "burgers", "title": "Burgers"}], "location": {"display_address": ["3 Greenway Plz", "Ste C220", "Houston, TX 77046"], "address3": "", "city": "Houston", "state": "TX", "address2": "Ste C220", "address1": "3 Greenway Plz", "zip_code": "77046", "country": "US"}, "review_count": 59, "distance": 7728.483592459999, "display_phone": "(832) 542-3528", "price": "$", "rating": 4.5, "phone": "+18325423528", "id": "kuma-burgers-houston", "name": "Kuma Burgers", "transactions": [], "url": "https://www.yelp.com/biz/kuma-burgers-houston?adjust_creative=8_C4NSGbL05eUQksKleGYw&utm_campaign=yelp_api_v3&utm_medium=api_v3_business_search&utm_source=8_C4NSGbL05eUQksKleGYw", "is_closed": false, "image_url": "https://s3-media3.fl.yelpcdn.com/bphoto/6Nijh1ZlbhwyNPMAa8rPaw/o.jpg"}, {"coordinates": {"longitude": -95.4159322, "latitude": 29.7173153}, "categories": [{"alias": "greek", "title": "Greek"}, {"alias": "wine_bars", "title": "Wine Bars"}], "location": {"display_address": ["2429 Rice Blvd", "Houston, TX 77005"], "address3": "", "city": "Houston", "state": "TX", "address2": "", "address1": "2429 Rice Blvd", "zip_code": "77005", "country": "US"}, "review_count": 230, "distance": 7438.62053704, "display_phone": "(832) 831-7133", "price": "$$", "rating": 4.0, "phone": "+18328317133", "id": "helen-greek-food-and-wine-houston", "name": "Helen Greek Food and Wine", "transactions": [], "url": "https://www.yelp.com/biz/helen-greek-food-and-wine-houston?adjust_creative=8_C4NSGbL05eUQksKleGYw&utm_campaign=yelp_api_v3&utm_medium=api_v3_business_search&utm_source=8_C4NSGbL05eUQksKleGYw", "is_closed": false, "image_url": "https://s3-media2.fl.yelpcdn.com/bphoto/xokKU0tihuwyiIu71m9big/o.jpg"}, {"coordinates": {"longitude": -95.421385, "latitude": 29.771282}, "categories": [{"alias": "newamerican", "title": "American (New)"}, {"alias": "lounges", "title": "Lounges"}, {"alias": "wine_bars", "title": "Wine Bars"}], "location": {"display_address": ["5922 Washington Ave", "Houston, TX 77007"], "address3": "", "city": "Houston", "state": "TX", "address2": "", "address1": "5922 Washington Ave", "zip_code": "77007", "country": "US"}, "review_count": 792, "distance": 6000.229137992, "display_phone": "(713) 868-1131", "price": "$$", "rating": 4.0, "phone": "+17138681131", "id": "benjys-houston-2", "name": "Benjy's", "transactions": [], "url": "https://www.yelp.com/biz/benjys-houston-2?adjust_creative=8_C4NSGbL05eUQksKleGYw&utm_campaign=yelp_api_v3&utm_medium=api_v3_business_search&utm_source=8_C4NSGbL05eUQksKleGYw", "is_closed": false, "image_url": "https://s3-media2.fl.yelpcdn.com/bphoto/QK7eLzzdzd0CxpV48eL0zg/o.jpg"}, {"coordinates": {"longitude": -95.47851, "latitude": 29.78265}, "categories": [{"alias": "tapas", "title": "Tapas Bars"}, {"alias": "spanish", "title": "Spanish"}], "location": {"display_address": ["7951 Katy Fwy", "Houston, TX 77024"], "address3": "", "city": "Houston", "state": "TX", "address2": "", "address1": "7951 Katy Fwy", "zip_code": "77024", "country": "US"}, "review_count": 85, "distance": 11632.489283278, "display_phone": "(713) 263-1700", "price": "$$", "rating": 4.0, "phone": "+17132631700", "id": "boca2-gastro-bar-and-bites-houston", "name": "Boca2 Gastro Bar & Bites", "transactions": ["pickup"], "url": "https://www.yelp.com/biz/boca2-gastro-bar-and-bites-houston?adjust_creative=8_C4NSGbL05eUQksKleGYw&utm_campaign=yelp_api_v3&utm_medium=api_v3_business_search&utm_source=8_C4NSGbL05eUQksKleGYw", "is_closed": false, "image_url": "https://s3-media1.fl.yelpcdn.com/bphoto/P99qweFv2QsOmRgNzl7tUQ/o.jpg"}, {"coordinates": {"longitude": -95.33488, "latitude": 29.85698}, "categories": [{"alias": "breweries", "title": "Breweries"}, {"alias": "tradamerican", "title": "American (Traditional)"}, {"alias": "breakfast_brunch", "title": "Breakfast & Brunch"}], "location": {"display_address": ["3418 Topping St", "Houston, TX 77093"], "address3": "", "city": "Houston", "state": "TX", "address2": null, "address1": "3418 Topping St", "zip_code": "77093", "country": "US"}, "review_count": 43, "distance": 10719.588432399998, "display_phone": "(832) 377-0237", "price": "$$", "rating": 4.5, "phone": "+18323770237", "id": "city-acre-brewing-houston", "name": "City Acre Brewing", "transactions": [], "url": "https://www.yelp.com/biz/city-acre-brewing-houston?adjust_creative=8_C4NSGbL05eUQksKleGYw&utm_campaign=yelp_api_v3&utm_medium=api_v3_business_search&utm_source=8_C4NSGbL05eUQksKleGYw", "is_closed": false, "image_url": "https://s3-media2.fl.yelpcdn.com/bphoto/pO-CaH8BFUzb_xoxnpiUyQ/o.jpg"}, {"coordinates": {"longitude": -95.5000686645508, "latitude": 29.7454319000244}, "categories": [{"alias": "newamerican", "title": "American (New)"}], "location": {"display_address": ["6565 Del Monte St", "Houston, TX 77057"], "address3": "", "city": "Houston", "state": "TX", "address2": "", "address1": "6565 Del Monte St", "zip_code": "77057", "country": "US"}, "review_count": 87, "distance": 13724.96168078, "display_phone": "(713) 750-9259", "price": "$$", "rating": 4.0, "phone": "+17137509259", "id": "the-del-houston", "name": "The Del", "transactions": [], "url": "https://www.yelp.com/biz/the-del-houston?adjust_creative=8_C4NSGbL05eUQksKleGYw&utm_campaign=yelp_api_v3&utm_medium=api_v3_business_search&utm_source=8_C4NSGbL05eUQksKleGYw", "is_closed": false, "image_url": "https://s3-media2.fl.yelpcdn.com/bphoto/XfNBi53wJR7yeZ2bFlp3qw/o.jpg"}, {"coordinates": {"longitude": -95.19434, "latitude": 29.7935}, "categories": [{"alias": "pizza", "title": "Pizza"}], "location": {"display_address": ["13018 Woodforest Blvd", "Ste D", "Houston, TX 77015"], "address3": null, "city": "Houston", "state": "TX", "address2": "Ste D", "address1": "13018 Woodforest Blvd", "zip_code": "77015", "country": "US"}, "review_count": 11, "distance": 16356.385468079998, "display_phone": "(713) 451-5757", "price": "$$", "rating": 5.0, "phone": "+17134515757", "id": "italian-express-pizzeria-houston", "name": "Italian Express Pizzeria", "transactions": ["delivery", "pickup"], "url": "https://www.yelp.com/biz/italian-express-pizzeria-houston?adjust_creative=8_C4NSGbL05eUQksKleGYw&utm_campaign=yelp_api_v3&utm_medium=api_v3_business_search&utm_source=8_C4NSGbL05eUQksKleGYw", "is_closed": false, "image_url": "https://s3-media3.fl.yelpcdn.com/bphoto/1mfsKW2jY2cGHrvsblGFjw/o.jpg"}, {"coordinates": {"longitude": -95.5409503849888, "latitude": 29.7361709905847}, "categories": [{"alias": "mideastern", "title": "Middle Eastern"}, {"alias": "persian", "title": "Persian/Iranian"}, {"alias": "mediterranean", "title": "Mediterranean"}], "location": {"display_address": ["9741 Westheimer Rd", "Houston, TX 77042"], "address3": "", "city": "Houston", "state": "TX", "address2": "", "address1": "9741 Westheimer Rd", "zip_code": "77042", "country": "US"}, "review_count": 633, "distance": 17726.20578654, "display_phone": "(713) 975-1810", "price": "$$", "rating": 4.5, "phone": "+17139751810", "id": "kasra-persian-grill-houston-2", "name": "Kasra Persian Grill", "transactions": ["pickup"], "url": "https://www.yelp.com/biz/kasra-persian-grill-houston-2?adjust_creative=8_C4NSGbL05eUQksKleGYw&utm_campaign=yelp_api_v3&utm_medium=api_v3_business_search&utm_source=8_C4NSGbL05eUQksKleGYw", "is_closed": false, "image_url": "https://s3-media1.fl.yelpcdn.com/bphoto/TxssLEjugrQV8EBFR1I4fA/o.jpg"}, {"coordinates": {"longitude": -95.4156891256571, "latitude": 29.7167059779167}, "categories": [{"alias": "french", "title": "French"}, {"alias": "brasseries", "title": "Brasseries"}], "location": {"display_address": ["2442 Times Blvd", "Houston, TX 77005"], "address3": "", "city": "Houston", "state": "TX", "address2": "", "address1": "2442 Times Blvd", "zip_code": "77005", "country": "US"}, "review_count": 244, "distance": 7429.367475775999, "display_phone": "(713) 520-8841", "price": "$$", "rating": 4.0, "phone": "+17135208841", "id": "caf\u00e9-rabelais-houston-2", "name": "Caf\u00e9 Rabelais", "transactions": [], "url": "https://www.yelp.com/biz/caf%C3%A9-rabelais-houston-2?adjust_creative=8_C4NSGbL05eUQksKleGYw&utm_campaign=yelp_api_v3&utm_medium=api_v3_business_search&utm_source=8_C4NSGbL05eUQksKleGYw", "is_closed": false, "image_url": "https://s3-media1.fl.yelpcdn.com/bphoto/qcWom9uHUCCo0ct0OrtuzA/o.jpg"}, {"coordinates": {"longitude": -95.2346, "latitude": 29.645436}, "categories": [{"alias": "mexican", "title": "Mexican"}, {"alias": "cajun", "title": "Cajun/Creole"}], "location": {"display_address": ["887 Edgebrook Dr", "Houston, TX 77304"], "address3": "", "city": "Houston", "state": "TX", "address2": "", "address1": "887 Edgebrook Dr", "zip_code": "77304", "country": "US"}, "review_count": 124, "distance": 17820.16388376, "display_phone": "(713) 947-9153", "price": "$", "rating": 4.5, "phone": "+17139479153", "id": "casarez-houston", "name": "Casarez", "transactions": [], "url": "https://www.yelp.com/biz/casarez-houston?adjust_creative=8_C4NSGbL05eUQksKleGYw&utm_campaign=yelp_api_v3&utm_medium=api_v3_business_search&utm_source=8_C4NSGbL05eUQksKleGYw", "is_closed": false, "image_url": "https://s3-media1.fl.yelpcdn.com/bphoto/W-KHtMcXrqBg7kyj6thB2g/o.jpg"}], "region": {"center": {"longitude": -95.36166306585073, "latitude": 29.784524510252204}}, "total": 11135}