{"businesses": [{"coordinates": {"longitude": -95.38767, "latitude": 29.69832}, "categories": [{"alias": "foodtrucks", "title": "Food Trucks"}, {"alias": "juicebars", "title": "Juice Bars & Smoothies"}, {"alias": "halal", "title": "Halal"}], "location": {"display_address": ["2424 Old Spanish Trl", "Houston, TX 77054"], "address3": "", "city": "Houston", "state": "TX", "address2": null, "address1": "2424 Old Spanish Trl", "zip_code": "77054", "country": "US"}, "review_count": 442, "distance": 7663.655675777999, "display_phone": "(832) 618-4891", "price": "$", "rating": 4.5, "phone": "+18326184891", "id": "gyro-king-houston", "name": "Gyro King", "transactions": ["delivery", "pickup"], "url": "https://www.yelp.com/biz/gyro-king-houston?adjust_creative=8_C4NSGbL05eUQksKleGYw&utm_campaign=yelp_api_v3&utm_medium=api_v3_business_search&utm_source=8_C4NSGbL05eUQksKleGYw", "is_closed": false, "image_url": "https://s3-media2.fl.yelpcdn.com/bphoto/9tYwjrO_NTsOV0dKZQpwPQ/o.jpg"}, {"coordinates": {"longitude": -95.5475857708602, "latitude": 29.7058032273817}, "categories": [{"alias": "taiwanese", "title": "Taiwanese"}], "location": {"display_address": ["9203 Bellaire Blvd", "Houston, TX 77036"], "address3": null, "city": "Houston", "state": "TX", "address2": "", "address1": "9203 Bellaire Blvd", "zip_code": "77036", "country": "US"}, "review_count": 27, "distance": 19201.320393179998, "display_phone": "(713) 988-7275", "price": "$", "rating": 4.0, "phone": "+17139887275", "id": "tainan-bistro-houston-2", "name": "Tainan Bistro", "transactions": [], "url": "https://www.yelp.com/biz/tainan-bistro-houston-2?adjust_creative=8_C4NSGbL05eUQksKleGYw&utm_campaign=yelp_api_v3&utm_medium=api_v3_business_search&utm_source=8_C4NSGbL05eUQksKleGYw", "is_closed": false, "image_url": "https://s3-media1.fl.yelpcdn.com/bphoto/4bZftso47BfPi5AFe16rYg/o.jpg"}, {"coordinates": {"longitude": -95.3630849719048, "latitude": 29.7589940700126}, "categories": [{"alias": "newamerican", "title": "American (New)"}, {"alias": "pubs", "title": "Pubs"}, {"alias": "venues", "title": "Venues & Event Spaces"}], "location": {"display_address": ["705 Main St", "Houston, TX 77002"], "address3": "", "city": "Houston", "state": "TX", "address2": "", "address1": "705 Main St", "zip_code": "77002", "country": "US"}, "review_count": 572, "distance": 540.5474849298, "display_phone": "(713) 228-9472", "price": "$$", "rating": 4.0, "phone": "+17132289472", "id": "flying-saucer-draught-emporium-houston-2", "name": "Flying Saucer Draught Emporium", "transactions": [], "url": "https://www.yelp.com/biz/flying-saucer-draught-emporium-houston-2?adjust_creative=8_C4NSGbL05eUQksKleGYw&utm_campaign=yelp_api_v3&utm_medium=api_v3_business_search&utm_source=8_C4NSGbL05eUQksKleGYw", "is_closed": false, "image_url": "https://s3-media4.fl.yelpcdn.com/bphoto/nrzGfBMgoE-A0qkgptC2bQ/o.jpg"}, {"coordinates": {"longitude": -95.452224, "latitude": 29.689605}, "categories": [{"alias": "tradamerican", "title": "American (Traditional)"}, {"alias": "breakfast_brunch", "title": "Breakfast & Brunch"}, {"alias": "sandwiches", "title": "Sandwiches"}], "location": {"display_address": ["4520 Beechnut St", "Houston, TX 77096"], "address3": "", "city": "Houston", "state": "TX", "address2": "", "address1": "4520 Beechnut St", "zip_code": "77096", "country": "US"}, "review_count": 156, "distance": 12084.400967582, "display_phone": "(832) 582-5333", "price": "$$", "rating": 4.0, "phone": "+18325825333", "id": "tapesters-grill-houston-2", "name": "Tapester's Grill", "transactions": [], "url": "https://www.yelp.com/biz/tapesters-grill-houston-2?adjust_creative=8_C4NSGbL05eUQksKleGYw&utm_campaign=yelp_api_v3&utm_medium=api_v3_business_search&utm_source=8_C4NSGbL05eUQksKleGYw", "is_closed": false, "image_url": "https://s3-media2.fl.yelpcdn.com/bphoto/g8NucXOtvbWdEJCXuAwd7Q/o.jpg"}, {"coordinates": {"longitude": -95.4588606, "latitude": 29.7423569}, "categories": [{"alias": "newamerican", "title": "American (New)"}], "location": {"display_address": ["2400 West Loop S", "Houston, TX 77027"], "address3": "", "city": "Houston", "state": "TX", "address2": "", "address1": "2400 West Loop S", "zip_code": "77027", "country": "US"}, "review_count": 6, "distance": 9820.874557358, "display_phone": "(713) 586-5143", "price": "$$", "rating": 4.5, "phone": "+17135865143", "id": "sage-houston-2", "name": "Sage", "transactions": [], "url": "https://www.yelp.com/biz/sage-houston-2?adjust_creative=8_C4NSGbL05eUQksKleGYw&utm_campaign=yelp_api_v3&utm_medium=api_v3_business_search&utm_source=8_C4NSGbL05eUQksKleGYw", "is_closed": false, "image_url": "https://s3-media2.fl.yelpcdn.com/bphoto/v-FH7E-s8jQ3qOx0WoF9-A/o.jpg"}, {"coordinates": {"longitude": -95.4311263, "latitude": 29.7316976}, "categories": [{"alias": "hotdog", "title": "Hot Dogs"}, {"alias": "burgers", "title": "Burgers"}], "location": {"display_address": ["3 Greenway Plz", "Ste C220", "Houston, TX 77046"], "address3": "", "city": "Houston", "state": "TX", "address2": "Ste C220", "address1": "3 Greenway Plz", "zip_code": "77046", "country": "US"}, "review_count": 59, "distance": 7728.483592459999, "display_phone": "(832) 542-3528", "price": "$", "rating": 4.5, "phone": "+18325423528", "id": "kuma-burgers-houston", "name": "Kuma Burgers", "transactions": [], "url": "https://www.yelp.com/biz/kuma-burgers-houston?adjust_creative=8_C4NSGbL05eUQksKleGYw&utm_campaign=yelp_api_v3&utm_medium=api_v3_business_search&utm_source=8_C4NSGbL05eUQksKleGYw", "is_closed": false, "image_url": "https://s3-media3.fl.yelpcdn.com/bphoto/6Nijh1ZlbhwyNPMAa8rPaw/o.jpg"}, {"coordinates": {"longitude": -95.4159322, "latitude": 29.7173153}, "categories": [{"alias": "greek", "title": "Greek"}, {"alias": "wine_bars", "title": "Wine Bars"}], "location": {"display_address": ["2429 Rice Blvd", "Houston, TX 77005"], "address3": "", "city": "Houston", "state": "TX", "address2": "", "address1": "2429 Rice Blvd", "zip_code": "77005", "country": "US"}, "review_count": 230, "distance": 7438.62053704, "display_phone": "(832) 831-7133", "price": "$$", "rating": 4.0, "phone": "+18328317133", "id": "helen-greek-food-and-wine-houston", "name": "Helen Greek Food and Wine", "transactions": [], "url": "https://www.yelp.com/biz/helen-greek-food-and-wine-houston?adjust_creative=8_C4NSGbL05eUQksKleGYw&utm_campaign=yelp_api_v3&utm_medium=api_v3_business_search&utm_source=8_C4NSGbL05eUQksKleGYw", "is_closed": false, "image_url": "https://s3-media2.fl.yelpcdn.com/bphoto/xokKU0tihuwyiIu71m9big/o.jpg"}, {"coordinates": {"longitude": -95.421385, "latitude": 29.771282}, "categories": [{"alias": "newamerican", "title": "American (New)"}, {"alias": "lounges", "title": "Lounges"}, {"alias": "wine_bars", "title": "Wine Bars"}], "location": {"display_address": ["5922 Washington Ave", "Houston, TX 77007"], "address3": "", "city": "Houston", "state": "TX", "address2": "", "address1": "5922 Washington Ave", "zip_code": "77007", "country": "US"}, "review_count": 792, "distance": 6000.229137992, "display_phone": "(713) 868-1131", "price": "$$", "rating": 4.0, "phone": "+17138681131", "id": "benjys-houston-2", "name": "Benjy's", "transactions": [], "url": "https://www.yelp.com/biz/benjys-houston-2?adjust_creative=8_C4NSGbL05eUQksKleGYw&utm_campaign=yelp_api_v3&utm_medium=api_v3_business_search&utm_source=8_C4NSGbL05eUQksKleGYw", "is_closed": false, "image_url": "https://s3-media2.fl.yelpcdn.com/bphoto/QK7eLzzdzd0CxpV48eL0zg/o.jpg"}, {"coordinates": {"longitude": -95.47851, "latitude": 29.78265}, "categories": [{"alias": "tapas", "title": "Tapas Bars"}, {"alias": "spanish", "title": "Spanish"}], "location": {"display_address": ["7951 Katy Fwy", "Houston, TX 77024"], "address3": "", "city": "Houston", "state": "TX", "address2": "", "address1": "7951 Katy Fwy", "zip_code": "77024", "country": "US"}, "review_count": 85, "distance": 11632.489283278, "display_phone": "(713) 263-1700", "price": "$$", "rating": 4.0, "phone": "+17132631700", "id": "boca2-gastro-bar-and-bites-houston", "name": "Boca2 Gastro Bar & Bites", "transactions": ["pickup"], "url": "https://www.yelp.com/biz/boca2-gastro-bar-and-bites-houston?adjust_creative=8_C4NSGbL05eUQksKleGYw&utm_campaign=yelp_api_v3&utm_medium=api_v3_business_search&utm_source=8_C4NSGbL05eUQksKleGYw", "is_closed": false, "image_url": "https://s3-media1.fl.yelpcdn.com/bphoto/P99qweFv2QsOmRgNzl7tUQ/o.jpg"}, {"coordinates": {"longitude": -95.33488, "latitude": 29.85698}, "categories": [{"alias": "breweries", "title": "Breweries"}, {"alias": "tradamerican", "title": "American (Traditional)"}, {"alias": "breakfast_brunch", "title": "Breakfast & Brunch"}], "location": {"display_address": ["3418 Topping St", "Houston, TX 77093"], "address3": "", "city": "Houston", "state": "TX", "address2": null, "address1": "3418 Topping St", "zip_code": "77093", "country": "US"}, "review_count": 43, "distance": 10719.588432399998, "display_phone": "(832) 377-0237", "price": "$$", "rating": 4.5, "phone": "+18323770237", "id": "city-acre-brewing-houston", "name": "City Acre Brewing", "transactions": [], "url": "https://www.yelp.com/biz/city-acre-brewing-houston?adjust_creative=8_C4NSGbL05eUQksKleGYw&utm_campaign=yelp_api_v3&utm_medium=api_v3_business_search&utm_source=8_C4NSGbL05eUQksKleGYw", "is_closed": false, "image_url": "https://s3-media2.fl.yelpcdn.com/bphoto/pO-CaH8BFUzb_xoxnpiUyQ/o.jpg"}, {"coordinates": {"longitude": -95.5000686645508, "latitude": 29.7454319000244}, "categories": [{"alias": "newamerican", "title": "American (New)"}], "location": {"display_address": ["6565 Del Monte St", "Houston, TX 77057"], "address3": "", "city": "Houston", "state": "TX", "address2": "", "address1": "6565 Del Monte St", "zip_code": "77057", "country": "US"}, "review_count": 87, "distance": 13724.96168078, "display_phone": "(713) 750-9259", "price": "$$", "rating": 4.0, "phone": "+17137509259", "id": "the-del-houston", "name": "The Del", "transactions": [], "url": "https://www.yelp.com/biz/the-del-houston?adjust_creative=8_C4NSGbL05eUQksKleGYw&utm_campaign=yelp_api_v3&utm_medium=api_v3_business_search&utm_source=8_C4NSGbL05eUQksKleGYw", "is_closed": false, "image_url": "https://s3-media2.fl.yelpcdn.com/bphoto/XfNBi53wJR7yeZ2bFlp3qw/o.jpg"}, {"coordinates": {"longitude": -95.19434, "latitude": 29.7935}, "categories": [{"alias": "pizza", "title": "Pizza"}], "location": {"display_address": ["13018 Woodforest Blvd", "Ste D", "Houston, TX 77015"], "address3": null, "city": "Houston", "state": "TX", "address2": "Ste D", "address1": "13018 Woodforest Blvd", "zip_code": "77015", "country": "US"}, "review_count": 11, "distance": 16356.385468079998, "display_phone": "(713) 451-5757", "price": "$$", "rating": 5.0, "phone": "+17134515757", "id": "italian-express-pizzeria-houston", "name": "Italian Express Pizzeria", "transactions": ["delivery", "pickup"], "url": "https://www.yelp.com/biz/italian-express-pizzeria-houston?adjust_creative=8_C4NSGbL05eUQksKleGYw&utm_campaign=yelp_api_v3&utm_medium=api_v3_business_search&utm_source=8_C4NSGbL05eUQksKleGYw", "is_closed": false, "image_url": "https://s3-media3.fl.yelpcdn.com/bphoto/1mfsKW2jY2cGHrvsblGFjw/o.jpg"}, {"coordinates": {"longitude": -95.5409503849888, "latitude": 29.7361709905847}, "categories": [{"alias": "mideastern", "title": "Middle Eastern"}, {"alias": "persian", "title": "Persian/Iranian"}, {"alias": "mediterranean", "title": "Mediterranean"}], "location": {"display_address": ["9741 Westheimer Rd", "Houston, TX 77042"], "address3": "", "city": "Houston", "state": "TX", "address2": "", "address1": "9741 Westheimer Rd", "zip_code": "77042", "country": "US"}, "review_count": 633, "distance": 17726.20578654, "display_phone": "(713) 975-1810", "price": "$$", "rating": 4.5, "phone": "+17139751810", "id": "kasra-persian-grill-houston-2", "name": "Kasra Persian Grill", "transactions": ["pickup"], "url": "https://www.yelp.com/biz/kasra-persian-grill-houston-2?adjust_creative=8_C4NSGbL05eUQksKleGYw&utm_campaign=yelp_api_v3&utm_medium=api_v3_business_search&utm_source=8_C4NSGbL05eUQksKleGYw", "is_closed": false, "image_url": "https://s3-media1.fl.yelpcdn.com/bphoto/TxssLEjugrQV8EBFR1I4fA/o.jpg"}, {"coordinates": {"longitude": -95.4156891256571, "latitude": 29.7167059779167}, "categories": [{"alias": "french", "title": "French"}, {"alias": "brasseries", "title": "Brasseries"}], "location": {"display_address": ["2442 Times Blvd", "Houston, TX 77005"], "address3": "", "city": "Houston", "state": "TX", "address2": "", "address1": "2442 Times Blvd", "zip_code": "77005", "country": "US"}, "review_count": 244, "distance": 7429.367475775999, "display_phone": "(713) 520-8841", "price": "$$", "rating": 4.0, "phone": "+17135208841", "id": "caf\u00e9-rabelais-houston-2", "name": "Caf\u00e9 Rabelais", "transactions": [], "url": "https://www.yelp.com/biz/caf%C3%A9-rabelais-houston-2?adjust_creative=8_C4NSGbL05eUQksKleGYw&utm_campaign=yelp_api_v3&utm_medium=api_v3_business_search&utm_source=8_C4NSGbL05eUQksKleGYw", "is_closed": false, "image_url": "https://s3-media1.fl.yelpcdn.com/bphoto/qcWom9uHUCCo0ct0OrtuzA/o.jpg"}, {"coordinates": {"longitude": -95.2346, "latitude": 29.645436}, "categories": [{"alias": "mexican", "title": "Mexican"}, {"alias": "cajun", "title": "Cajun/Creole"}], "location": {"display_address": ["887 Edgebrook Dr", "Houston, TX 77304"], "address3": "", "city": "Houston", "state": "TX", "address2": "", "address1": "887 Edgebrook Dr", "zip_code": "77304", "country": "US"}, "review_count": 124, "distance": 17820.16388376, "display_phone": "(713) 947-9153", "price": "$", "rating": 4.5, "phone": "+17139479153", "id": "casarez-houston", "name": "Casarez", "transactions": [], "url": "https://www.yelp.com/biz/casarez-houston?adjust_creative=8_C4NSGbL05eUQksKleGYw&utm_campaign=yelp_api_v3&utm_medium=api_v3_business_search&utm_source=8_C4NSGbL05eUQksKleGYw", "is_closed": false, "image_url": "https://s3-media1.fl.yelpcdn.com/bphoto/W-KHtMcXrqBg7kyj6thB2g/o.jpg"}, {"coordinates": {"longitude": -95.2776292, "latitude": 29.7005133}, "categories": [{"alias": "mexican", "title": "Mexican"}], "location": {"display_address": ["2809 Broadway St", "Houston, TX 77017"], "address3": "", "city": "Houston", "state": "TX", "address2": "", "address1": "2809 Broadway St", "zip_code": "77017", "country": "US"}, "review_count": 47, "distance": 10575.775235056, "display_phone": "(713) 641-4300", "price": "$", "rating": 5.0, "phone": "+17136414300", "id": "carniceria-aguascalientes-houston", "name": "Carniceria Aguascalientes", "transactions": [], "url": "https://www.yelp.com/biz/carniceria-aguascalientes-houston?adjust_creative=8_C4NSGbL05eUQksKleGYw&utm_campaign=yelp_api_v3&utm_medium=api_v3_business_search&utm_source=8_C4NSGbL05eUQksKleGYw", "is_closed": false, "image_url": "https://s3-media3.fl.yelpcdn.com/bphoto/eYOEDYtTt10XuiixzIFmrA/o.jpg"}, {"coordinates": {"longitude": -95.3649598360062, "latitude": 29.7577299875209}, "categories": [{"alias": "mediterranean", "title": "Mediterranean"}, {"alias": "mideastern", "title": "Middle Eastern"}, {"alias": "greek", "title": "Greek"}], "location": {"display_address": ["914 Main St", "Ste M", "Houston, TX 77002"], "address3": null, "city": "Houston", "state": "TX", "address2": "Ste M", "address1": "914 Main St", "zip_code": "77002", "country": "US"}, "review_count": 20, "distance": 761.5995876348, "display_phone": "(713) 497-5033", "price": "$", "rating": 4.5, "phone": "+17134975033", "id": "arabella-mediterranean-cuisine-houston", "name": "Arabella Mediterranean Cuisine", "transactions": [], "url": "https://www.yelp.com/biz/arabella-mediterranean-cuisine-houston?adjust_creative=8_C4NSGbL05eUQksKleGYw&utm_campaign=yelp_api_v3&utm_medium=api_v3_business_search&utm_source=8_C4NSGbL05eUQksKleGYw", "is_closed": false, "image_url": "https://s3-media2.fl.yelpcdn.com/bphoto/Y2kKR5zXfmjI1RL5pvii8g/o.jpg"}, {"coordinates": {"longitude": -95.4128305613995, "latitude": 29.8680308461189}, "categories": [{"alias": "soulfood", "title": "Soul Food"}, {"alias": "southern", "title": "Southern"}], "location": {"display_address": ["7413 N Shepherd Dr", "Houston, TX 77091"], "address3": "", "city": "Houston", "state": "TX", "address2": "", "address1": "7413 N Shepherd Dr", "zip_code": "77091", "country": "US"}, "review_count": 27, "distance": 12731.095417303999, "display_phone": "(713) 695-7711", "price": "$", "rating": 4.5, "phone": "+17136957711", "id": "josies-place-houston", "name": "Josie's Place", "transactions": [], "url": "https://www.yelp.com/biz/josies-place-houston?adjust_creative=8_C4NSGbL05eUQksKleGYw&utm_campaign=yelp_api_v3&utm_medium=api_v3_business_search&utm_source=8_C4NSGbL05eUQksKleGYw", "is_closed": false, "image_url": "https://s3-media3.fl.yelpcdn.com/bphoto/eEJZsg2TaRgvi1PUM2Y0aA/o.jpg"}, {"coordinates": {"longitude": -95.3628793166023, "latitude": 29.7555094708505}, "categories": [{"alias": "steak", "title": "Steakhouses"}], "location": {"display_address": ["1200 McKinney St.", "Houston, TX 77010"], "address3": null, "city": "Houston", "state": "TX", "address2": "", "address1": "1200 McKinney St.", "zip_code": "77010", "country": "US"}, "review_count": 101, "distance": 881.9460972083999, "display_phone": "(713) 658-1995", "price": "$$$$", "rating": 4.5, "phone": "+17136581995", "id": "pappas-bros-steakhouse-houston-4", "name": "Pappas Bros Steakhouse", "transactions": [], "url": "https://www.yelp.com/biz/pappas-bros-steakhouse-houston-4?adjust_creative=8_C4NSGbL05eUQksKleGYw&utm_campaign=yelp_api_v3&utm_medium=api_v3_business_search&utm_source=8_C4NSGbL05eUQksKleGYw", "is_closed": false, "image_url": "https://s3-media2.fl.yelpcdn.com/bphoto/0W9L4UbsN8Edbfn0APvFoA/o.jpg"}, {"coordinates": {"longitude": -95.382427, "latitude": 29.721726}, "categories": [{"alias": "chicken_wings", "title": "Chicken Wings"}, {"alias": "korean", "title": "Korean"}, {"alias": "asianfusion", "title": "Asian Fusion"}], "location": {"display_address": ["1801 Binz St", "Ste 120", "Houston, TX 77004"], "address3": "", "city": "Houston", "state": "TX", "address2": "Ste 120", "address1": "1801 Binz St", "zip_code": "77004", "country": "US"}, "review_count": 705, "distance": 5078.89277057, "display_phone": "(713) 528-0280", "price": "$$", "rating": 3.5, "phone": "+17135280280", "id": "dak-and-bop-houston", "name": "Dak & Bop", "transactions": [], "url": "https://www.yelp.com/biz/dak-and-bop-houston?adjust_creative=8_C4NSGbL05eUQksKleGYw&utm_campaign=yelp_api_v3&utm_medium=api_v3_business_search&utm_source=8_C4NSGbL05eUQksKleGYw", "is_closed": false, "image_url": "https://s3-media4.fl.yelpcdn.com/bphoto/GsfYXaeRYxHCA-YIdBraSg/o.jpg"}, {"coordinates": {"longitude": -95.21705, "latitude": 29.7691}, "categories": [{"alias": "seafood", "title": "Seafood"}], "location": {"display_address": ["12420 E Freeway", "Houston, TX 77015"], "address3": "", "city": "Houston", "state": "TX", "address2": "", "address1": "12420 E Freeway", "zip_code": "77015", "country": "US"}, "review_count": 78, "distance": 13759.861828019999, "display_phone": "(713) 860-4001", "price": "$$", "rating": 4.0, "phone": "+17138604001", "id": "pappadeauxs-seafood-kitchen-houston", "name": "Pappadeaux's Seafood Kitchen", "transactions": [], "url": "https://www.yelp.com/biz/pappadeauxs-seafood-kitchen-houston?adjust_creative=8_C4NSGbL05eUQksKleGYw&utm_campaign=yelp_api_v3&utm_medium=api_v3_business_search&utm_source=8_C4NSGbL05eUQksKleGYw", "is_closed": false, "image_url": "https://s3-media4.fl.yelpcdn.com/bphoto/JWYOb_29jNhkgmrTC98ttw/o.jpg"}, {"coordinates": {"longitude": -95.2769567785736, "latitude": 29.6528676727439}, "categories": [{"alias": "cajun", "title": "Cajun/Creole"}, {"alias": "seafood", "title": "Seafood"}], "location": {"display_address": ["7800 Airport Blvd", "Space C11", "Houston, TX 77061"], "address3": "Space C11", "city": "Houston", "state": "TX", "address2": "", "address1": "7800 Airport Blvd", "zip_code": "77061", "country": "US"}, "review_count": 309, "distance": 14638.767463539998, "display_phone": "(713) 847-7622", "price": "$$", "rating": 4.0, "phone": "+17138477622", "id": "pappadeaux-seafood-kitchen-houston-12", "name": "Pappadeaux Seafood Kitchen", "transactions": [], "url": "https://www.yelp.com/biz/pappadeaux-seafood-kitchen-houston-12?adjust_creative=8_C4NSGbL05eUQksKleGYw&utm_campaign=yelp_api_v3&utm_medium=api_v3_business_search&utm_source=8_C4NSGbL05eUQksKleGYw", "is_closed": false, "image_url": "https://s3-media3.fl.yelpcdn.com/bphoto/8XlrR2D3Gqfe3H7qcL_9RA/o.jpg"}, {"coordinates": {"longitude": -95.5623643185241, "latitude": 29.778317118141}, "categories": [{"alias": "tex-mex", "title": "Tex-Mex"}, {"alias": "mexican", "title": "Mexican"}], "location": {"display_address": ["790 W Sam Houston Pkwy", "Ste 112", "Houston, TX 77024"], "address3": "", "city": "Houston", "state": "TX", "address2": "Ste 112", "address1": "790 W Sam Houston Pkwy", "zip_code": "77024", "country": "US"}, "review_count": 174, "distance": 19610.108846580002, "display_phone": "(713) 464-1601", "price": "$$", "rating": 4.5, "phone": "+17134641601", "id": "caliente-houston-4", "name": "Caliente", "transactions": ["delivery", "pickup"], "url": "https://www.yelp.com/biz/caliente-houston-4?adjust_creative=8_C4NSGbL05eUQksKleGYw&utm_campaign=yelp_api_v3&utm_medium=api_v3_business_search&utm_source=8_C4NSGbL05eUQksKleGYw", "is_closed": false, "image_url": "https://s3-media4.fl.yelpcdn.com/bphoto/C9IOU0QHhu1Xldi4NbMheA/o.jpg"}, {"coordinates": {"longitude": -95.33254, "latitude": 29.94426}, "categories": [{"alias": "mexican", "title": "Mexican"}], "location": {"display_address": ["15655 John F Kennedy", "Ste L", "Houston, TX 77032"], "address3": "", "city": "Houston", "state": "TX", "address2": "Ste L", "address1": "15655 John F Kennedy", "zip_code": "77032", "country": "US"}, "review_count": 16, "distance": 20318.11544882, "display_phone": "(281) 741-2571", "price": "$$", "rating": 4.5, "phone": "+12817412571", "id": "haabanero-houston", "name": "Haabanero", "transactions": [], "url": "https://www.yelp.com/biz/haabanero-houston?adjust_creative=8_C4NSGbL05eUQksKleGYw&utm_campaign=yelp_api_v3&utm_medium=api_v3_business_search&utm_source=8_C4NSGbL05eUQksKleGYw", "is_closed": false, "image_url": "https://s3-media1.fl.yelpcdn.com/bphoto/WhzNqzJDPg9Q_c9GF88kCw/o.jpg"}, {"coordinates": {"longitude": -95.4064275, "latitude": 29.7428749}, "categories": [{"alias": "sandwiches", "title": "Sandwiches"}, {"alias": "italian", "title": "Italian"}, {"alias": "coffee", "title": "Coffee & Tea"}], "location": {"display_address": ["1834 Westheimer Rd", "Houston, TX 77098"], "address3": "", "city": "Houston", "state": "TX", "address2": "", "address1": "1834 Westheimer Rd", "zip_code": "77098", "country": "US"}, "review_count": 556, "distance": 4986.056222396, "display_phone": "(713) 807-7271", "price": "$$", "rating": 4.0, "phone": "+17138077271", "id": "paulies-houston", "name": "Paulie's", "transactions": [], "url": "https://www.yelp.com/biz/paulies-houston?adjust_creative=8_C4NSGbL05eUQksKleGYw&utm_campaign=yelp_api_v3&utm_medium=api_v3_business_search&utm_source=8_C4NSGbL05eUQksKleGYw", "is_closed": false, "image_url": "https://s3-media1.fl.yelpcdn.com/bphoto/c6AfNj6NFZtkQz64xp0C8w/o.jpg"}, {"coordinates": {"longitude": -95.3664868883606, "latitude": 29.7620117022974}, "categories": [{"alias": "sushi", "title": "Sushi Bars"}, {"alias": "japanese", "title": "Japanese"}, {"alias": "seafood", "title": "Seafood"}], "location": {"display_address": ["550 Texas St", "Houston, TX 77002"], "address3": "", "city": "Houston", "state": "TX", "address2": "", "address1": "550 Texas St", "zip_code": "77002", "country": "US"}, "review_count": 568, "distance": 640.3762130688, "display_phone": "(713) 225-3474", "price": "$$", "rating": 4.0, "phone": "+17132253474", "id": "the-blue-fish-houston-4", "name": "The Blue Fish", "transactions": [], "url": "https://www.yelp.com/biz/the-blue-fish-houston-4?adjust_creative=8_C4NSGbL05eUQksKleGYw&utm_campaign=yelp_api_v3&utm_medium=api_v3_business_search&utm_source=8_C4NSGbL05eUQksKleGYw", "is_closed": false, "image_url": "https://s3-media2.fl.yelpcdn.com/bphoto/PohNFNxltbA5ya9aZ7isUQ/o.jpg"}, {"coordinates": {"longitude": -95.3282089233398, "latitude": 29.8101501464844}, "categories": [{"alias": "burgers", "title": "Burgers"}], "location": {"display_address": ["5510 Hirsch Rd,", "Houston, TX 77026"], "address3": "", "city": "Houston", "state": "TX", "address2": "", "address1": "5510 Hirsch Rd,", "zip_code": "77026", "country": "US"}, "review_count": 6, "distance": 6058.618085333999, "display_phone": "(832) 649-4372", "price": "$", "rating": 4.5, "phone": "+18326494372", "id": "sparkles-hamburger-spot-houston-3", "name": "Sparkle's Hamburger Spot", "transactions": [], "url": "https://www.yelp.com/biz/sparkles-hamburger-spot-houston-3?adjust_creative=8_C4NSGbL05eUQksKleGYw&utm_campaign=yelp_api_v3&utm_medium=api_v3_business_search&utm_source=8_C4NSGbL05eUQksKleGYw", "is_closed": false, "image_url": "https://s3-media1.fl.yelpcdn.com/bphoto/HLFV4uvjfrRDwm2wP2g98w/o.jpg"}, {"coordinates": {"longitude": -95.3760472423279, "latitude": 29.7528059963474}, "categories": [{"alias": "tradamerican", "title": "American (Traditional)"}, {"alias": "bars", "title": "Bars"}, {"alias": "salad", "title": "Salad"}], "location": {"display_address": ["1910 Bagby St", "Houston, TX 77002"], "address3": null, "city": "Houston", "state": "TX", "address2": "", "address1": "1910 Bagby St", "zip_code": "77002", "country": "US"}, "review_count": 18, "distance": 1924.538412238, "display_phone": "(713) 904-4148", "price": "$$", "rating": 3.5, "phone": "+17139044148", "id": "laurenzos-bar-and-grill-houston", "name": "Laurenzo's Bar & Grill", "transactions": [], "url": "https://www.yelp.com/biz/laurenzos-bar-and-grill-houston?adjust_creative=8_C4NSGbL05eUQksKleGYw&utm_campaign=yelp_api_v3&utm_medium=api_v3_business_search&utm_source=8_C4NSGbL05eUQksKleGYw", "is_closed": false, "image_url": "https://s3-media2.fl.yelpcdn.com/bphoto/D01StwQCoJ0iZu4n1bkZqQ/o.jpg"}, {"coordinates": {"longitude": -95.3042293236263, "latitude": 29.7412209784106}, "categories": [{"alias": "burgers", "title": "Burgers"}], "location": {"display_address": ["210 Wayside Dr", "Houston, TX 77011"], "address3": "", "city": "Houston", "state": "TX", "address2": "", "address1": "210 Wayside Dr", "zip_code": "77011", "country": "US"}, "review_count": 21, "distance": 5900.683734159999, "display_phone": "(713) 921-7403", "price": "$", "rating": 4.5, "phone": "+17139217403", "id": "m-and-m-hamburger-houston", "name": "M&M Hamburger", "transactions": [], "url": "https://www.yelp.com/biz/m-and-m-hamburger-houston?adjust_creative=8_C4NSGbL05eUQksKleGYw&utm_campaign=yelp_api_v3&utm_medium=api_v3_business_search&utm_source=8_C4NSGbL05eUQksKleGYw", "is_closed": false, "image_url": "https://s3-media2.fl.yelpcdn.com/bphoto/yaYqBWDeXgR66YBUbop3ag/o.jpg"}, {"coordinates": {"longitude": -95.504049957286, "latitude": 29.737246562429}, "categories": [{"alias": "tex-mex", "title": "Tex-Mex"}, {"alias": "mexican", "title": "Mexican"}, {"alias": "hotdogs", "title": "Fast Food"}], "location": {"display_address": ["7705 Westheimer Road", "Ste 300", "Houston, TX 77063"], "address3": "", "city": "Houston", "state": "TX", "address2": "Ste 300", "address1": "7705 Westheimer Road", "zip_code": "77063", "country": "US"}, "review_count": 98, "distance": 14203.165796399999, "display_phone": "(713) 334-5330", "price": "$", "rating": 4.5, "phone": "+17133345330", "id": "uberrito-houston-6", "name": "Uberrito", "transactions": [], "url": "https://www.yelp.com/biz/uberrito-houston-6?adjust_creative=8_C4NSGbL05eUQksKleGYw&utm_campaign=yelp_api_v3&utm_medium=api_v3_business_search&utm_source=8_C4NSGbL05eUQksKleGYw", "is_closed": false, "image_url": "https://s3-media1.fl.yelpcdn.com/bphoto/u1aTkCcLYhIAwnWyRHypEg/o.jpg"}, {"coordinates": {"longitude": -95.4387856, "latitude": 29.7324851}, "categories": [{"alias": "tapas", "title": "Tapas Bars"}, {"alias": "wine_bars", "title": "Wine Bars"}, {"alias": "portuguese", "title": "Portuguese"}], "location": {"display_address": ["3833 Richmond Ave", "Houston, TX 77027"], "address3": "", "city": "Houston", "state": "TX", "address2": null, "address1": "3833 Richmond Ave", "zip_code": "77027", "country": "US"}, "review_count": 393, "distance": 8410.32554498, "display_phone": "(713) 621-1114", "price": "$$", "rating": 4.0, "phone": "+17136211114", "id": "oporto-caf\u00e9-houston-2", "name": "Oporto Caf\u00e9", "transactions": ["pickup"], "url": "https://www.yelp.com/biz/oporto-caf%C3%A9-houston-2?adjust_creative=8_C4NSGbL05eUQksKleGYw&utm_campaign=yelp_api_v3&utm_medium=api_v3_business_search&utm_source=8_C4NSGbL05eUQksKleGYw", "is_closed": false, "image_url": "https://s3-media2.fl.yelpcdn.com/bphoto/7Ea8QO1xDPcsanvV7Z-5LQ/o.jpg"}, {"coordinates": {"longitude": -95.4600067, "latitude": 29.6894149}, "categories": [{"alias": "greek", "title": "Greek"}, {"alias": "mediterranean", "title": "Mediterranean"}, {"alias": "mideastern", "title": "Middle Eastern"}], "location": {"display_address": ["4738 Beechnut St", "Houston, TX 77096"], "address3": "", "city": "Houston", "state": "TX", "address2": "", "address1": "4738 Beechnut St", "zip_code": "77096", "country": "US"}, "review_count": 465, "distance": 12665.582404584, "display_phone": "(713) 666-4644", "price": "$$", "rating": 4.5, "phone": "+17136664644", "id": "fadis-meyerland-mediterranean-grill-houston", "name": "Fadi's Meyerland Mediterranean Grill", "transactions": [], "url": "https://www.yelp.com/biz/fadis-meyerland-mediterranean-grill-houston?adjust_creative=8_C4NSGbL05eUQksKleGYw&utm_campaign=yelp_api_v3&utm_medium=api_v3_business_search&utm_source=8_C4NSGbL05eUQksKleGYw", "is_closed": false, "image_url": "https://s3-media3.fl.yelpcdn.com/bphoto/-RcvR-9ip3ZWsMDaYNRPCA/o.jpg"}, {"coordinates": {"longitude": -95.4188848876245, "latitude": 29.7275609954157}, "categories": [{"alias": "sportsbars", "title": "Sports Bars"}, {"alias": "gastropubs", "title": "Gastropubs"}], "location": {"display_address": ["5004 Kirby Dr", "Houston, TX 77098"], "address3": null, "city": "Houston", "state": "TX", "address2": "", "address1": "5004 Kirby Dr", "zip_code": "77098", "country": "US"}, "review_count": 60, "distance": 6922.380797057999, "display_phone": "(713) 526-1414", "price": "$$", "rating": 4.0, "phone": "+17135261414", "id": "on-the-kirb-houston-2", "name": "On The Kirb", "transactions": [], "url": "https://www.yelp.com/biz/on-the-kirb-houston-2?adjust_creative=8_C4NSGbL05eUQksKleGYw&utm_campaign=yelp_api_v3&utm_medium=api_v3_business_search&utm_source=8_C4NSGbL05eUQksKleGYw", "is_closed": false, "image_url": "https://s3-media4.fl.yelpcdn.com/bphoto/0a0JGfNB1NmZuFhHrNGf1g/o.jpg"}, {"coordinates": {"longitude": -95.4239446, "latitude": 29.8213393}, "categories": [{"alias": "tradamerican", "title": "American (Traditional)"}, {"alias": "burgers", "title": "Burgers"}, {"alias": "beergardens", "title": "Beer Gardens"}], "location": {"display_address": ["985 Wakefield Dr", "Houston, TX 77018"], "address3": "", "city": "Houston", "state": "TX", "address2": "", "address1": "985 Wakefield Dr", "zip_code": "77018", "country": "US"}, "review_count": 594, "distance": 8985.586220121999, "display_phone": "(713) 957-2875", "price": "$$", "rating": 4.0, "phone": "+17139572875", "id": "petrol-station-houston", "name": "Petrol Station", "transactions": [], "url": "https://www.yelp.com/biz/petrol-station-houston?adjust_creative=8_C4NSGbL05eUQksKleGYw&utm_campaign=yelp_api_v3&utm_medium=api_v3_business_search&utm_source=8_C4NSGbL05eUQksKleGYw", "is_closed": false, "image_url": "https://s3-media3.fl.yelpcdn.com/bphoto/BaSPZe6GXRhxtlcY6fKMqQ/o.jpg"}, {"coordinates": {"longitude": -95.3610667274475, "latitude": 29.7622012549978}, "categories": [{"alias": "cocktailbars", "title": "Cocktail Bars"}, {"alias": "cafes", "title": "Cafes"}, {"alias": "coffee", "title": "Coffee & Tea"}], "location": {"display_address": ["300 Main St", "Houston, TX 77002"], "address3": "", "city": "Houston", "state": "TX", "address2": "", "address1": "300 Main St", "zip_code": "77002", "country": "US"}, "review_count": 453, "distance": 141.26298889979998, "display_phone": "(281) 846-6995", "price": "$$", "rating": 3.5, "phone": "+12818466995", "id": "the-honeymoon-cafe-and-bar-houston", "name": "The Honeymoon Cafe & Bar", "transactions": [], "url": "https://www.yelp.com/biz/the-honeymoon-cafe-and-bar-houston?adjust_creative=8_C4NSGbL05eUQksKleGYw&utm_campaign=yelp_api_v3&utm_medium=api_v3_business_search&utm_source=8_C4NSGbL05eUQksKleGYw", "is_closed": false, "image_url": "https://s3-media3.fl.yelpcdn.com/bphoto/bj08a3dHKRHhOchG4pGWyQ/o.jpg"}, {"coordinates": {"longitude": -95.46612, "latitude": 29.73512}, "categories": [{"alias": "latin", "title": "Latin American"}, {"alias": "argentine", "title": "Argentine"}, {"alias": "cafes", "title": "Cafes"}], "location": {"display_address": ["3055 Sage Rd", "Ste 130", "Houston, TX 77056"], "address3": "", "city": "Houston", "state": "TX", "address2": "Ste 130", "address1": "3055 Sage Rd", "zip_code": "77056", "country": "US"}, "review_count": 261, "distance": 10708.192052123999, "display_phone": "(713) 622-8877", "price": "$$", "rating": 4.0, "phone": "+17136228877", "id": "argentina-cafe-houston", "name": "Argentina Cafe", "transactions": [], "url": "https://www.yelp.com/biz/argentina-cafe-houston?adjust_creative=8_C4NSGbL05eUQksKleGYw&utm_campaign=yelp_api_v3&utm_medium=api_v3_business_search&utm_source=8_C4NSGbL05eUQksKleGYw", "is_closed": false, "image_url": "https://s3-media2.fl.yelpcdn.com/bphoto/dGOTnAdi4auN2jIkRRn-HQ/o.jpg"}, {"coordinates": {"longitude": -95.3464093, "latitude": 29.7579758}, "categories": [{"alias": "venezuelan", "title": "Venezuelan"}, {"alias": "colombian", "title": "Colombian"}, {"alias": "peruvian", "title": "Peruvian"}], "location": {"display_address": ["2311 Canal St", "Ste 104", "Houston, TX 77003"], "address3": "", "city": "Houston", "state": "TX", "address2": "Ste 104", "address1": "2311 Canal St", "zip_code": "77003", "country": "US"}, "review_count": 241, "distance": 1422.66380203, "display_phone": "(832) 659-0063", "price": "$$", "rating": 4.0, "phone": "+18326590063", "id": "andes-cafe-houston", "name": "Andes Cafe", "transactions": ["pickup"], "url": "https://www.yelp.com/biz/andes-cafe-houston?adjust_creative=8_C4NSGbL05eUQksKleGYw&utm_campaign=yelp_api_v3&utm_medium=api_v3_business_search&utm_source=8_C4NSGbL05eUQksKleGYw", "is_closed": false, "image_url": "https://s3-media3.fl.yelpcdn.com/bphoto/7WzhTQ1TmPiIlyB8Nr4sqQ/o.jpg"}, {"coordinates": {"longitude": -95.4402236938477, "latitude": 29.6730785369873}, "categories": [{"alias": "mexican", "title": "Mexican"}], "location": {"display_address": ["10002 Stella Link Rd", "Houston, TX 77025"], "address3": "", "city": "Houston", "state": "TX", "address2": "", "address1": "10002 Stella Link Rd", "zip_code": "77025", "country": "US"}, "review_count": 83, "distance": 12665.3126792, "display_phone": "(713) 661-2929", "price": "$", "rating": 4.5, "phone": "+17136612929", "id": "super-la-mexicana-houston", "name": "Super La Mexicana", "transactions": [], "url": "https://www.yelp.com/biz/super-la-mexicana-houston?adjust_creative=8_C4NSGbL05eUQksKleGYw&utm_campaign=yelp_api_v3&utm_medium=api_v3_business_search&utm_source=8_C4NSGbL05eUQksKleGYw", "is_closed": false, "image_url": "https://s3-media1.fl.yelpcdn.com/bphoto/Yeo2Zoh-pgREu8dFmKrnIQ/o.jpg"}, {"coordinates": {"longitude": -95.423864390213, "latitude": 29.8176694576682}, "categories": [{"alias": "indpak", "title": "Indian"}, {"alias": "vegetarian", "title": "Vegetarian"}, {"alias": "vegan", "title": "Vegan"}], "location": {"display_address": ["1320 W 34th St", "Houston, TX 77018"], "address3": "", "city": "Houston", "state": "TX", "address2": null, "address1": "1320 W 34th St", "zip_code": "77018", "country": "US"}, "review_count": 115, "distance": 8657.747085919998, "display_phone": "(832) 831-9951", "price": "$$", "rating": 4.5, "phone": "+18328319951", "id": "govindas-vegetarian-cuisine-houston", "name": "Govinda's Vegetarian Cuisine", "transactions": [], "url": "https://www.yelp.com/biz/govindas-vegetarian-cuisine-houston?adjust_creative=8_C4NSGbL05eUQksKleGYw&utm_campaign=yelp_api_v3&utm_medium=api_v3_business_search&utm_source=8_C4NSGbL05eUQksKleGYw", "is_closed": false, "image_url": "https://s3-media4.fl.yelpcdn.com/bphoto/RsBonm0Uyl8CaKexZb78Eg/o.jpg"}, {"coordinates": {"longitude": -95.5482043557297, "latitude": 29.7059011693592}, "categories": [{"alias": "szechuan", "title": "Szechuan"}], "location": {"display_address": ["9348 Bellaire Blvd", "Houston, TX 77036"], "address3": "", "city": "Houston", "state": "TX", "address2": "", "address1": "9348 Bellaire Blvd", "zip_code": "77036", "country": "US"}, "review_count": 495, "distance": 19253.97960732, "display_phone": "(713) 995-1889", "price": "$$", "rating": 4.0, "phone": "+17139951889", "id": "mala-sichuan-bistro-houston", "name": "Mala Sichuan Bistro", "transactions": [], "url": "https://www.yelp.com/biz/mala-sichuan-bistro-houston?adjust_creative=8_C4NSGbL05eUQksKleGYw&utm_campaign=yelp_api_v3&utm_medium=api_v3_business_search&utm_source=8_C4NSGbL05eUQksKleGYw", "is_closed": false, "image_url": "https://s3-media1.fl.yelpcdn.com/bphoto/W0Az4Ew2AZ3xXUFW57IYlw/o.jpg"}, {"coordinates": {"longitude": -95.3579914569855, "latitude": 29.7573085874319}, "categories": [{"alias": "italian", "title": "Italian"}, {"alias": "pizza", "title": "Pizza"}], "location": {"display_address": ["1515 Texas Ave", "Houston, TX 77002"], "address3": null, "city": "Houston", "state": "TX", "address2": "", "address1": "1515 Texas Ave", "zip_code": "77002", "country": "US"}, "review_count": 15, "distance": 663.2066965504, "display_phone": "(713) 221-6666", "price": "$$", "rating": 3.5, "phone": "+17132216666", "id": "osso-and-kristalla-houston-2", "name": "Osso & Kristalla", "transactions": [], "url": "https://www.yelp.com/biz/osso-and-kristalla-houston-2?adjust_creative=8_C4NSGbL05eUQksKleGYw&utm_campaign=yelp_api_v3&utm_medium=api_v3_business_search&utm_source=8_C4NSGbL05eUQksKleGYw", "is_closed": false, "image_url": "https://s3-media1.fl.yelpcdn.com/bphoto/fGVj8i442IPT47fjgUuhGA/o.jpg"}, {"coordinates": {"longitude": -95.167432, "latitude": 29.825018}, "categories": [{"alias": "vietnamese", "title": "Vietnamese"}, {"alias": "coffee", "title": "Coffee & Tea"}], "location": {"display_address": ["6830 E Sam Houston Pkwy N", "Ste 180", "Houston, TX 77049"], "address3": "", "city": "Houston", "state": "TX", "address2": "Ste 180", "address1": "6830 E Sam Houston Pkwy N", "zip_code": "77049", "country": "US"}, "review_count": 120, "distance": 19815.2240576, "display_phone": "(281) 458-8866", "price": "$", "rating": 4.0, "phone": "+12814588866", "id": "bibos-cafe-houston-2", "name": "Bibo's Cafe", "transactions": [], "url": "https://www.yelp.com/biz/bibos-cafe-houston-2?adjust_creative=8_C4NSGbL05eUQksKleGYw&utm_campaign=yelp_api_v3&utm_medium=api_v3_business_search&utm_source=8_C4NSGbL05eUQksKleGYw", "is_closed": false, "image_url": "https://s3-media1.fl.yelpcdn.com/bphoto/NDmG8gDYr9OU1OjEVqdWVA/o.jpg"}, {"coordinates": {"longitude": -95.5479961261153, "latitude": 29.7059025686383}, "categories": [{"alias": "chinese", "title": "Chinese"}, {"alias": "noodles", "title": "Noodles"}], "location": {"display_address": ["9330 Bellaire Blvd", "Houston, TX 77036"], "address3": null, "city": "Houston", "state": "TX", "address2": "", "address1": "9330 Bellaire Blvd", "zip_code": "77036", "country": "US"}, "review_count": 14, "distance": 19235.203437539996, "display_phone": "", "price": "$$", "rating": 4.0, "phone": "", "id": "lets-noodle-houston", "name": "Let's Noodle", "transactions": [], "url": "https://www.yelp.com/biz/lets-noodle-houston?adjust_creative=8_C4NSGbL05eUQksKleGYw&utm_campaign=yelp_api_v3&utm_medium=api_v3_business_search&utm_source=8_C4NSGbL05eUQksKleGYw", "is_closed": false, "image_url": "https://s3-media3.fl.yelpcdn.com/bphoto/2iX18a1CLmohIdKLRUCm9g/o.jpg"}, {"coordinates": {"longitude": -95.3914413452148, "latitude": 29.7460823059082}, "categories": [{"alias": "bbq", "title": "Barbeque"}, {"alias": "southern", "title": "Southern"}], "location": {"display_address": ["1009 Missouri St", "Houston, TX 77006"], "address3": null, "city": "Houston", "state": "TX", "address2": "", "address1": "1009 Missouri St", "zip_code": "77006", "country": "US"}, "review_count": 185, "distance": 3571.1378519180003, "display_phone": "(713) 234-3165", "price": "$$", "rating": 4.5, "phone": "+17132343165", "id": "brookstreet-bar-b-que-houston-2", "name": "Brookstreet Bar-B-Que", "transactions": [], "url": "https://www.yelp.com/biz/brookstreet-bar-b-que-houston-2?adjust_creative=8_C4NSGbL05eUQksKleGYw&utm_campaign=yelp_api_v3&utm_medium=api_v3_business_search&utm_source=8_C4NSGbL05eUQksKleGYw", "is_closed": false, "image_url": "https://s3-media3.fl.yelpcdn.com/bphoto/ZRomhzuo9g4jOZ7EanS-qA/o.jpg"}, {"coordinates": {"longitude": -95.412959, "latitude": 29.929591}, "categories": [{"alias": "seafood", "title": "Seafood"}, {"alias": "cajun", "title": "Cajun/Creole"}], "location": {"display_address": ["11301 I-45 N", "Houston, TX 77037"], "address3": "", "city": "Houston", "state": "TX", "address2": "", "address1": "11301 I-45 N", "zip_code": "77037", "country": "US"}, "review_count": 108, "distance": 19213.63023484, "display_phone": "(281) 999-9928", "price": "$$", "rating": 3.5, "phone": "+12819999928", "id": "pappas-seafood-house-houston-5", "name": "Pappas Seafood House", "transactions": [], "url": "https://www.yelp.com/biz/pappas-seafood-house-houston-5?adjust_creative=8_C4NSGbL05eUQksKleGYw&utm_campaign=yelp_api_v3&utm_medium=api_v3_business_search&utm_source=8_C4NSGbL05eUQksKleGYw", "is_closed": false, "image_url": "https://s3-media4.fl.yelpcdn.com/bphoto/XbENUrlcjnlaD4-cCEhFdA/o.jpg"}, {"coordinates": {"longitude": -95.499397277832, "latitude": 29.7310466766357}, "categories": [{"alias": "hookah_bars", "title": "Hookah Bars"}, {"alias": "mideastern", "title": "Middle Eastern"}, {"alias": "hotdogs", "title": "Fast Food"}], "location": {"display_address": ["6423 Richmond Ave", "Houston, TX 77057"], "address3": "", "city": "Houston", "state": "TX", "address2": "", "address1": "6423 Richmond Ave", "zip_code": "77057", "country": "US"}, "review_count": 106, "distance": 13922.445401519999, "display_phone": "(832) 831-8124", "price": "$", "rating": 4.5, "phone": "+18328318124", "id": "double-apple-grill-houston", "name": "Double Apple Grill", "transactions": [], "url": "https://www.yelp.com/biz/double-apple-grill-houston?adjust_creative=8_C4NSGbL05eUQksKleGYw&utm_campaign=yelp_api_v3&utm_medium=api_v3_business_search&utm_source=8_C4NSGbL05eUQksKleGYw", "is_closed": false, "image_url": "https://s3-media2.fl.yelpcdn.com/bphoto/eXp1yN9yE9aI6XM3399pRA/o.jpg"}, {"coordinates": {"longitude": -95.4316864, "latitude": 29.8013}, "categories": [{"alias": "vietnamese", "title": "Vietnamese"}, {"alias": "asianfusion", "title": "Asian Fusion"}, {"alias": "sandwiches", "title": "Sandwiches"}], "location": {"display_address": ["1802 W 18th St", "Houston, TX 77008"], "address3": "", "city": "Houston", "state": "TX", "address2": null, "address1": "1802 W 18th St", "zip_code": "77008", "country": "US"}, "review_count": 451, "distance": 8144.812769364, "display_phone": "(713) 869-1830", "price": "$$", "rating": 4.0, "phone": "+17138691830", "id": "hughies-houston-2", "name": "Hughie's", "transactions": [], "url": "https://www.yelp.com/biz/hughies-houston-2?adjust_creative=8_C4NSGbL05eUQksKleGYw&utm_campaign=yelp_api_v3&utm_medium=api_v3_business_search&utm_source=8_C4NSGbL05eUQksKleGYw", "is_closed": false, "image_url": "https://s3-media4.fl.yelpcdn.com/bphoto/69dSdq3na-36BWQKRnAOjw/o.jpg"}, {"coordinates": {"longitude": -95.4204254150391, "latitude": 29.7609539031982}, "categories": [{"alias": "salad", "title": "Salad"}, {"alias": "italian", "title": "Italian"}, {"alias": "sandwiches", "title": "Sandwiches"}], "location": {"display_address": ["5801 Memorial Dr", "Ste E", "Houston, TX 77007"], "address3": "", "city": "Houston", "state": "TX", "address2": "Ste E", "address1": "5801 Memorial Dr", "zip_code": "77007", "country": "US"}, "review_count": 180, "distance": 5841.795408616, "display_phone": "(832) 834-6415", "price": "$", "rating": 4.0, "phone": "+18328346415", "id": "piada-italian-street-food-houston-2", "name": "Piada Italian Street Food", "transactions": [], "url": "https://www.yelp.com/biz/piada-italian-street-food-houston-2?adjust_creative=8_C4NSGbL05eUQksKleGYw&utm_campaign=yelp_api_v3&utm_medium=api_v3_business_search&utm_source=8_C4NSGbL05eUQksKleGYw", "is_closed": false, "image_url": "https://s3-media3.fl.yelpcdn.com/bphoto/CRwU6Ezo7AbnX9xMiupkRg/o.jpg"}, {"coordinates": {"longitude": -95.4189620912075, "latitude": 29.7237821167041}, "categories": [{"alias": "tex-mex", "title": "Tex-Mex"}, {"alias": "vegetarian", "title": "Vegetarian"}, {"alias": "mexican", "title": "Mexican"}], "location": {"display_address": ["5404 Kirby Drive", "Houston, TX 77005"], "address3": "", "city": "Houston", "state": "TX", "address2": "", "address1": "5404 Kirby Drive", "zip_code": "77005", "country": "US"}, "review_count": 148, "distance": 7175.980433323999, "display_phone": "(713) 661-0501", "price": "$$", "rating": 4.5, "phone": "+17136610501", "id": "fajitas-a-go-go-houston", "name": "Fajitas A Go Go", "transactions": [], "url": "https://www.yelp.com/biz/fajitas-a-go-go-houston?adjust_creative=8_C4NSGbL05eUQksKleGYw&utm_campaign=yelp_api_v3&utm_medium=api_v3_business_search&utm_source=8_C4NSGbL05eUQksKleGYw", "is_closed": false, "image_url": "https://s3-media1.fl.yelpcdn.com/bphoto/XLqWa070AMvuK4NrDMYerA/o.jpg"}, {"coordinates": {"longitude": -95.3798845184326, "latitude": 29.74287233551}, "categories": [{"alias": "pizza", "title": "Pizza"}, {"alias": "italian", "title": "Italian"}, {"alias": "salad", "title": "Salad"}], "location": {"display_address": ["3201 Louisiana St", "Ste 103", "Houston, TX 77006"], "address3": "", "city": "Houston", "state": "TX", "address2": "Ste 103", "address1": "3201 Louisiana St", "zip_code": "77006", "country": "US"}, "review_count": 463, "distance": 2953.405406704, "display_phone": "(713) 524-8222", "price": "$$", "rating": 4.0, "phone": "+17135248222", "id": "piola-houston", "name": "Piola", "transactions": [], "url": "https://www.yelp.com/biz/piola-houston?adjust_creative=8_C4NSGbL05eUQksKleGYw&utm_campaign=yelp_api_v3&utm_medium=api_v3_business_search&utm_source=8_C4NSGbL05eUQksKleGYw", "is_closed": false, "image_url": "https://s3-media2.fl.yelpcdn.com/bphoto/t8psEMxYVEtjhPyF1k52wg/o.jpg"}], "region": {"center": {"longitude": -95.35995483398438, "latitude": 29.764205376979454}}, "total": 11135}