{"businesses": [{"coordinates": {"longitude": -95.4615188, "latitude": 29.7501227}, "categories": [{"alias": "french", "title": "French"}], "location": {"display_address": ["1700 Post Oak Blvd", "Ste 290", "Houston, TX 77056"], "address3": "", "city": "Houston", "state": "TX", "address2": "Ste 290", "address1": "1700 Post Oak Blvd", "zip_code": "77056", "country": "US"}, "review_count": 102, "distance": 9988.398804658, "display_phone": "(713) 850-7473", "price": "$$", "rating": 4.0, "phone": "+17138507473", "id": "rise-n\u00ba2-houston", "name": "rise n\u00ba2", "transactions": [], "url": "https://www.yelp.com/biz/rise-n%C2%BA2-houston?adjust_creative=8_C4NSGbL05eUQksKleGYw&utm_campaign=yelp_api_v3&utm_medium=api_v3_business_search&utm_source=8_C4NSGbL05eUQksKleGYw", "is_closed": false, "image_url": "https://s3-media3.fl.yelpcdn.com/bphoto/uKOtYgfNbGebV4UxDt4Umg/o.jpg"}, {"coordinates": {"longitude": -95.39833, "latitude": 29.7433}, "categories": [{"alias": "ramen", "title": "Ramen"}], "location": {"display_address": ["1722 California St", "Houston, TX 77006"], "address3": null, "city": "Houston", "state": "TX", "address2": "", "address1": "1722 California St", "zip_code": "77006", "country": "US"}, "review_count": 233, "distance": 4301.8895782459995, "display_phone": "(512) 893-5561", "price": "$$", "rating": 3.5, "phone": "+15128935561", "id": "ramen-tatsu-ya-houston", "name": "Ramen Tatsu-Ya", "transactions": [], "url": "https://www.yelp.com/biz/ramen-tatsu-ya-houston?adjust_creative=8_C4NSGbL05eUQksKleGYw&utm_campaign=yelp_api_v3&utm_medium=api_v3_business_search&utm_source=8_C4NSGbL05eUQksKleGYw", "is_closed": false, "image_url": "https://s3-media2.fl.yelpcdn.com/bphoto/g4lPKLuhX8sDNlZPDEiGxQ/o.jpg"}, {"coordinates": {"longitude": -95.361569, "latitude": 29.7603773}, "categories": [{"alias": "food_court", "title": "Food Court"}, {"alias": "beergardens", "title": "Beer Gardens"}], "location": {"display_address": ["1010 Prairie St", "Houston, TX 77002"], "address3": "", "city": "Houston", "state": "TX", "address2": "", "address1": "1010 Prairie St", "zip_code": "77002", "country": "US"}, "review_count": 156, "distance": 339.1974857738, "display_phone": "(832) 919-8382", "price": "$$", "rating": 4.5, "phone": "+18329198382", "id": "conservatory-houston-2", "name": "Conservatory", "transactions": [], "url": "https://www.yelp.com/biz/conservatory-houston-2?adjust_creative=8_C4NSGbL05eUQksKleGYw&utm_campaign=yelp_api_v3&utm_medium=api_v3_business_search&utm_source=8_C4NSGbL05eUQksKleGYw", "is_closed": false, "image_url": "https://s3-media2.fl.yelpcdn.com/bphoto/zYUe1851lgEliTVOYzLkmQ/o.jpg"}, {"coordinates": {"longitude": -95.412087, "latitude": 29.73824}, "categories": [{"alias": "italian", "title": "Italian"}, {"alias": "pastashops", "title": "Pasta Shops"}], "location": {"display_address": ["2129 W Alabama", "Houston, TX 77098"], "address3": "", "city": "Houston", "state": "TX", "address2": "", "address1": "2129 W Alabama", "zip_code": "77098", "country": "US"}, "review_count": 163, "distance": 5737.959021541999, "display_phone": "(713) 528-1329", "price": "$$", "rating": 5.0, "phone": "+17135281329", "id": "fabios-fresh-pasta-houston-3", "name": "Fabio's Fresh Pasta", "transactions": [], "url": "https://www.yelp.com/biz/fabios-fresh-pasta-houston-3?adjust_creative=8_C4NSGbL05eUQksKleGYw&utm_campaign=yelp_api_v3&utm_medium=api_v3_business_search&utm_source=8_C4NSGbL05eUQksKleGYw", "is_closed": false, "image_url": "https://s3-media1.fl.yelpcdn.com/bphoto/-8G1sHB7qROEcq7qC4bmng/o.jpg"}, {"coordinates": {"longitude": -95.41116, "latitude": 29.779064}, "categories": [{"alias": "cajun", "title": "Cajun/Creole"}], "location": {"display_address": ["2155 Durham Dr", "Ste 105", "Houston, TX 77007"], "address3": "", "city": "Houston", "state": "TX", "address2": "Ste 105", "address1": "2155 Durham Dr", "zip_code": "77007", "country": "US"}, "review_count": 345, "distance": 5254.507491918, "display_phone": "(832) 203-7270", "price": "$", "rating": 4.5, "phone": "+18322037270", "id": "gumbo-jeauxs-houston-2", "name": "Gumbo Jeaux's", "transactions": [], "url": "https://www.yelp.com/biz/gumbo-jeauxs-houston-2?adjust_creative=8_C4NSGbL05eUQksKleGYw&utm_campaign=yelp_api_v3&utm_medium=api_v3_business_search&utm_source=8_C4NSGbL05eUQksKleGYw", "is_closed": false, "image_url": "https://s3-media3.fl.yelpcdn.com/bphoto/5oDGRHGdDAZaP1iBaKNfwQ/o.jpg"}, {"coordinates": {"longitude": -95.4164240674591, "latitude": 29.7195096809181}, "categories": [{"alias": "sandwiches", "title": "Sandwiches"}, {"alias": "vegetarian", "title": "Vegetarian"}, {"alias": "delis", "title": "Delis"}], "location": {"display_address": ["2424 Dunstan Rd", "Houston, TX 77005"], "address3": "", "city": "Houston", "state": "TX", "address2": "", "address1": "2424 Dunstan Rd", "zip_code": "77005", "country": "US"}, "review_count": 1193, "distance": 7289.81452328, "display_phone": "(713) 521-7800", "price": "$$", "rating": 4.5, "phone": "+17135217800", "id": "local-foods-houston", "name": "Local Foods", "transactions": [], "url": "https://www.yelp.com/biz/local-foods-houston?adjust_creative=8_C4NSGbL05eUQksKleGYw&utm_campaign=yelp_api_v3&utm_medium=api_v3_business_search&utm_source=8_C4NSGbL05eUQksKleGYw", "is_closed": false, "image_url": "https://s3-media2.fl.yelpcdn.com/bphoto/PoM7HLrb8U9QODPKHhCEvQ/o.jpg"}, {"coordinates": {"longitude": -95.3329716217995, "latitude": 29.9443690375343}, "categories": [{"alias": "cajun", "title": "Cajun/Creole"}, {"alias": "soup", "title": "Soup"}, {"alias": "sandwiches", "title": "Sandwiches"}], "location": {"display_address": ["15655 John F Kennedy Blvd", "Ste Q", "Houston, TX 77032"], "address3": "", "city": "Houston", "state": "TX", "address2": "Ste Q", "address1": "15655 John F Kennedy Blvd", "zip_code": "77032", "country": "US"}, "review_count": 303, "distance": 20331.64999822, "display_phone": "(281) 227-7138", "price": "$", "rating": 4.5, "phone": "+12812277138", "id": "gumbo-jeauxs-houston", "name": "Gumbo Jeaux's", "transactions": [], "url": "https://www.yelp.com/biz/gumbo-jeauxs-houston?adjust_creative=8_C4NSGbL05eUQksKleGYw&utm_campaign=yelp_api_v3&utm_medium=api_v3_business_search&utm_source=8_C4NSGbL05eUQksKleGYw", "is_closed": false, "image_url": "https://s3-media3.fl.yelpcdn.com/bphoto/K8JvzbT8yM6JuoAgJ1xLhQ/o.jpg"}, {"coordinates": {"longitude": -95.3802139853275, "latitude": 29.7531384239378}, "categories": [{"alias": "tapasmallplates", "title": "Tapas/Small Plates"}, {"alias": "portuguese", "title": "Portuguese"}, {"alias": "wine_bars", "title": "Wine Bars"}], "location": {"display_address": ["125 W Gray Ave", "Ste 500", "Houston, TX 77019"], "address3": "", "city": "Houston", "state": "TX", "address2": "Ste 500", "address1": "125 W Gray Ave", "zip_code": "77019", "country": "US"}, "review_count": 488, "distance": 2243.253071442, "display_phone": "(713) 528-0115", "price": "$$", "rating": 4.5, "phone": "+17135280115", "id": "oporto-fooding-house-and-wine-houston", "name": "Oporto Fooding House & Wine", "transactions": ["pickup"], "url": "https://www.yelp.com/biz/oporto-fooding-house-and-wine-houston?adjust_creative=8_C4NSGbL05eUQksKleGYw&utm_campaign=yelp_api_v3&utm_medium=api_v3_business_search&utm_source=8_C4NSGbL05eUQksKleGYw", "is_closed": false, "image_url": "https://s3-media2.fl.yelpcdn.com/bphoto/T0zPlGJoMG6-if9_rWXRJg/o.jpg"}, {"coordinates": {"longitude": -95.5456522107124, "latitude": 29.8202682331011}, "categories": [{"alias": "japanese", "title": "Japanese"}], "location": {"display_address": ["2659 Gessner Rd", "Houston, TX 77080"], "address3": null, "city": "Houston", "state": "TX", "address2": "", "address1": "2659 Gessner Rd", "zip_code": "77080", "country": "US"}, "review_count": 28, "distance": 19016.7097831, "display_phone": "(713) 239-0654", "price": "$", "rating": 5.0, "phone": "+17132390654", "id": "teriyaki-kitchen-houston", "name": "Teriyaki Kitchen", "transactions": [], "url": "https://www.yelp.com/biz/teriyaki-kitchen-houston?adjust_creative=8_C4NSGbL05eUQksKleGYw&utm_campaign=yelp_api_v3&utm_medium=api_v3_business_search&utm_source=8_C4NSGbL05eUQksKleGYw", "is_closed": false, "image_url": "https://s3-media3.fl.yelpcdn.com/bphoto/QhIhCuVqLGi8zprJT6Nn6g/o.jpg"}, {"coordinates": {"longitude": -95.4291471093893, "latitude": 29.8180621590688}, "categories": [{"alias": "southern", "title": "Southern"}, {"alias": "newamerican", "title": "American (New)"}], "location": {"display_address": ["3452 Ella Blvd", "Houston, TX 77018"], "address3": "", "city": "Houston", "state": "TX", "address2": "", "address1": "3452 Ella Blvd", "zip_code": "77018", "country": "US"}, "review_count": 82, "distance": 9057.217138852, "display_phone": "(713) 681-0022", "price": "$$", "rating": 4.0, "phone": "+17136810022", "id": "the-union-kitchen-houston-5", "name": "The Union Kitchen", "transactions": [], "url": "https://www.yelp.com/biz/the-union-kitchen-houston-5?adjust_creative=8_C4NSGbL05eUQksKleGYw&utm_campaign=yelp_api_v3&utm_medium=api_v3_business_search&utm_source=8_C4NSGbL05eUQksKleGYw", "is_closed": false, "image_url": "https://s3-media4.fl.yelpcdn.com/bphoto/DhjZXerduKDNgpJsEEgXsQ/o.jpg"}, {"coordinates": {"longitude": -95.5134937, "latitude": 29.7850849}, "categories": [{"alias": "southafrican", "title": "South African"}, {"alias": "desserts", "title": "Desserts"}, {"alias": "sandwiches", "title": "Sandwiches"}], "location": {"display_address": ["9090 Katy Fwy", "Ste 140", "Houston, TX 77024"], "address3": "", "city": "Houston", "state": "TX", "address2": "Ste 140", "address1": "9090 Katy Fwy", "zip_code": "77024", "country": "US"}, "review_count": 204, "distance": 15014.020490019999, "display_phone": "(281) 257-9500", "price": "$$", "rating": 4.5, "phone": "+12812579500", "id": "peli-peli-kitchen-houston", "name": "Peli Peli Kitchen", "transactions": ["pickup"], "url": "https://www.yelp.com/biz/peli-peli-kitchen-houston?adjust_creative=8_C4NSGbL05eUQksKleGYw&utm_campaign=yelp_api_v3&utm_medium=api_v3_business_search&utm_source=8_C4NSGbL05eUQksKleGYw", "is_closed": false, "image_url": "https://s3-media3.fl.yelpcdn.com/bphoto/fF89kSRHK0MC2sg11gF4QA/o.jpg"}, {"coordinates": {"longitude": -95.472763, "latitude": 29.843101}, "categories": [{"alias": "burgers", "title": "Burgers"}, {"alias": "sandwiches", "title": "Sandwiches"}], "location": {"display_address": ["5322 Antoine Dr", "Houston, TX 77091"], "address3": "", "city": "Houston", "state": "TX", "address2": "", "address1": "5322 Antoine Dr", "zip_code": "77091", "country": "US"}, "review_count": 101, "distance": 14076.718343259998, "display_phone": "(713) 682-4111", "price": "$", "rating": 4.5, "phone": "+17136824111", "id": "house-of-fries-houston", "name": "House of Fries", "transactions": [], "url": "https://www.yelp.com/biz/house-of-fries-houston?adjust_creative=8_C4NSGbL05eUQksKleGYw&utm_campaign=yelp_api_v3&utm_medium=api_v3_business_search&utm_source=8_C4NSGbL05eUQksKleGYw", "is_closed": false, "image_url": "https://s3-media4.fl.yelpcdn.com/bphoto/nuscG85Mdy15EWePaaKTig/o.jpg"}, {"coordinates": {"longitude": -95.5006698891521, "latitude": 29.7448754909409}, "categories": [{"alias": "steak", "title": "Steakhouses"}, {"alias": "newamerican", "title": "American (New)"}], "location": {"display_address": ["2231 S Voss Rd", "Houston, TX 77057"], "address3": null, "city": "Houston", "state": "TX", "address2": "", "address1": "2231 S Voss Rd", "zip_code": "77057", "country": "US"}, "review_count": 73, "distance": 13733.23368838, "display_phone": "(713) 586-0223", "price": "$$$", "rating": 4.0, "phone": "+17135860223", "id": "killens-stq-houston", "name": "Killen's STQ", "transactions": [], "url": "https://www.yelp.com/biz/killens-stq-houston?adjust_creative=8_C4NSGbL05eUQksKleGYw&utm_campaign=yelp_api_v3&utm_medium=api_v3_business_search&utm_source=8_C4NSGbL05eUQksKleGYw", "is_closed": false, "image_url": "https://s3-media1.fl.yelpcdn.com/bphoto/4fMsX_LpeSu6A1AqN8MKAw/o.jpg"}, {"coordinates": {"longitude": -95.3571757515102, "latitude": 29.7536885262107}, "categories": [{"alias": "italian", "title": "Italian"}, {"alias": "wine_bars", "title": "Wine Bars"}, {"alias": "tapasmallplates", "title": "Tapas/Small Plates"}], "location": {"display_address": ["1001 Avenida De Las Americas", "Ste A", "Houston, TX 77010"], "address3": null, "city": "Houston", "state": "TX", "address2": "Ste A", "address1": "1001 Avenida De Las Americas", "zip_code": "77010", "country": "US"}, "review_count": 49, "distance": 1072.2202000559998, "display_phone": "(713) 658-0752", "price": "$$", "rating": 4.0, "phone": "+17136580752", "id": "grotto-downtown-houston", "name": "Grotto Downtown", "transactions": [], "url": "https://www.yelp.com/biz/grotto-downtown-houston?adjust_creative=8_C4NSGbL05eUQksKleGYw&utm_campaign=yelp_api_v3&utm_medium=api_v3_business_search&utm_source=8_C4NSGbL05eUQksKleGYw", "is_closed": false, "image_url": "https://s3-media3.fl.yelpcdn.com/bphoto/bHIwgXMeThQSWQZSx0OtKA/o.jpg"}, {"coordinates": {"longitude": -95.4185060876135, "latitude": 29.737020211778}, "categories": [{"alias": "tradamerican", "title": "American (Traditional)"}, {"alias": "breakfast_brunch", "title": "Breakfast & Brunch"}, {"alias": "comfortfood", "title": "Comfort Food"}], "location": {"display_address": ["3111 Kirby Dr", "Houston, TX 77098"], "address3": "", "city": "Houston", "state": "TX", "address2": "", "address1": "3111 Kirby Dr", "zip_code": "77098", "country": "US"}, "review_count": 308, "distance": 6348.889108443999, "display_phone": "(713) 728-6410", "price": "$$", "rating": 4.0, "phone": "+17137286410", "id": "graces-houston-3", "name": "Grace's", "transactions": [], "url": "https://www.yelp.com/biz/graces-houston-3?adjust_creative=8_C4NSGbL05eUQksKleGYw&utm_campaign=yelp_api_v3&utm_medium=api_v3_business_search&utm_source=8_C4NSGbL05eUQksKleGYw", "is_closed": false, "image_url": "https://s3-media1.fl.yelpcdn.com/bphoto/L06th0xu5tSRVOZaoUeDTQ/o.jpg"}, {"coordinates": {"longitude": -95.3824234, "latitude": 29.7217197}, "categories": [{"alias": "tradamerican", "title": "American (Traditional)"}, {"alias": "breakfast_brunch", "title": "Breakfast & Brunch"}], "location": {"display_address": ["1801 Binz St", "Ste 110", "Houston, TX 77004"], "address3": "", "city": "Houston", "state": "TX", "address2": "Ste 110", "address1": "1801 Binz St", "zip_code": "77004", "country": "US"}, "review_count": 254, "distance": 5080.250570728, "display_phone": "(713) 874-1454", "price": "$$", "rating": 4.0, "phone": "+17138741454", "id": "barnabys-cafe-houston-12", "name": "Barnaby's Cafe", "transactions": [], "url": "https://www.yelp.com/biz/barnabys-cafe-houston-12?adjust_creative=8_C4NSGbL05eUQksKleGYw&utm_campaign=yelp_api_v3&utm_medium=api_v3_business_search&utm_source=8_C4NSGbL05eUQksKleGYw", "is_closed": false, "image_url": "https://s3-media1.fl.yelpcdn.com/bphoto/6Ou0LG94t5ggJGQfLmTNqw/o.jpg"}, {"coordinates": {"longitude": -95.3619832545519, "latitude": 29.7609231985565}, "categories": [{"alias": "salad", "title": "Salad"}, {"alias": "sandwiches", "title": "Sandwiches"}, {"alias": "delis", "title": "Delis"}], "location": {"display_address": ["420 Main St", "Houston, TX 77002"], "address3": null, "city": "Houston", "state": "TX", "address2": "", "address1": "420 Main St", "zip_code": "77002", "country": "US"}, "review_count": 47, "distance": 304.9590025814, "display_phone": "(713) 227-0531", "price": "$$", "rating": 4.5, "phone": "+17132270531", "id": "local-foods-houston-5", "name": "Local Foods", "transactions": [], "url": "https://www.yelp.com/biz/local-foods-houston-5?adjust_creative=8_C4NSGbL05eUQksKleGYw&utm_campaign=yelp_api_v3&utm_medium=api_v3_business_search&utm_source=8_C4NSGbL05eUQksKleGYw", "is_closed": false, "image_url": "https://s3-media1.fl.yelpcdn.com/bphoto/uCpqXKPevlT_gG-7iatIhg/o.jpg"}, {"coordinates": {"longitude": -95.4181346297265, "latitude": 29.7351499099632}, "categories": [{"alias": "asianfusion", "title": "Asian Fusion"}, {"alias": "ramen", "title": "Ramen"}], "location": {"display_address": ["3419 Kirby Dr", "Houston, TX 77098"], "address3": "", "city": "Houston", "state": "TX", "address2": "", "address1": "3419 Kirby Dr", "zip_code": "77098", "country": "US"}, "review_count": 1098, "distance": 6415.3807608179995, "display_phone": "(713) 677-0341", "price": "$", "rating": 4.0, "phone": "+17136770341", "id": "fat-bao-houston", "name": "Fat Bao", "transactions": [], "url": "https://www.yelp.com/biz/fat-bao-houston?adjust_creative=8_C4NSGbL05eUQksKleGYw&utm_campaign=yelp_api_v3&utm_medium=api_v3_business_search&utm_source=8_C4NSGbL05eUQksKleGYw", "is_closed": false, "image_url": "https://s3-media3.fl.yelpcdn.com/bphoto/her9diIdBnUjX8v7-WvQ_Q/o.jpg"}, {"coordinates": {"longitude": -95.3598718, "latitude": 29.7599199}, "categories": [{"alias": "tradamerican", "title": "American (Traditional)"}, {"alias": "burgers", "title": "Burgers"}, {"alias": "sandwiches", "title": "Sandwiches"}], "location": {"display_address": ["421 San Jacinto St", "Houston, TX 77002"], "address3": "", "city": "Houston", "state": "TX", "address2": "", "address1": "421 San Jacinto St", "zip_code": "77002", "country": "US"}, "review_count": 91, "distance": 367.33586225659997, "display_phone": "(713) 229-7067", "price": "$", "rating": 4.5, "phone": "+17132297067", "id": "rachels-cafe-houston", "name": "Rachels Cafe", "transactions": ["delivery", "pickup"], "url": "https://www.yelp.com/biz/rachels-cafe-houston?adjust_creative=8_C4NSGbL05eUQksKleGYw&utm_campaign=yelp_api_v3&utm_medium=api_v3_business_search&utm_source=8_C4NSGbL05eUQksKleGYw", "is_closed": false, "image_url": "https://s3-media4.fl.yelpcdn.com/bphoto/3fm24C3YcNW6F8e5WCb6Yw/o.jpg"}, {"coordinates": {"longitude": -95.379739, "latitude": 29.7428606}, "categories": [{"alias": "ramen", "title": "Ramen"}], "location": {"display_address": ["3201 Louisiana St", "Ste 105", "Houston, TX 77006"], "address3": "", "city": "Houston", "state": "TX", "address2": "Ste 105", "address1": "3201 Louisiana St", "zip_code": "77006", "country": "US"}, "review_count": 1510, "distance": 2945.2779178359997, "display_phone": "(832) 925-8596", "price": "$$", "rating": 4.0, "phone": "+18329258596", "id": "jinya-ramen-bar-houston-3", "name": "JINYA Ramen Bar", "transactions": [], "url": "https://www.yelp.com/biz/jinya-ramen-bar-houston-3?adjust_creative=8_C4NSGbL05eUQksKleGYw&utm_campaign=yelp_api_v3&utm_medium=api_v3_business_search&utm_source=8_C4NSGbL05eUQksKleGYw", "is_closed": false, "image_url": "https://s3-media4.fl.yelpcdn.com/bphoto/uWVAzPgj7fCYiikz_oht6g/o.jpg"}, {"coordinates": {"longitude": -95.41073, "latitude": 29.76875}, "categories": [{"alias": "burgers", "title": "Burgers"}, {"alias": "desserts", "title": "Desserts"}, {"alias": "halal", "title": "Halal"}], "location": {"display_address": ["The Twisted Palate", "4901 Rose St", "Houston, TX 77007"], "address3": "", "city": "Houston", "state": "TX", "address2": "4901 Rose St", "address1": "The Twisted Palate", "zip_code": "77007", "country": "US"}, "review_count": 17, "distance": 4943.191451496, "display_phone": "(713) 340-9172", "price": "$", "rating": 5.0, "phone": "+17133409172", "id": "rehla-foods-houston", "name": "Rehla Foods", "transactions": [], "url": "https://www.yelp.com/biz/rehla-foods-houston?adjust_creative=8_C4NSGbL05eUQksKleGYw&utm_campaign=yelp_api_v3&utm_medium=api_v3_business_search&utm_source=8_C4NSGbL05eUQksKleGYw", "is_closed": false, "image_url": "https://s3-media1.fl.yelpcdn.com/bphoto/9NG7b4wdqYlkWzQZIPP3Qg/o.jpg"}, {"coordinates": {"longitude": -95.3614426, "latitude": 29.7546482}, "categories": [{"alias": "bars", "title": "Bars"}, {"alias": "newamerican", "title": "American (New)"}, {"alias": "musicvenues", "title": "Music Venues"}], "location": {"display_address": ["1001 Austin St", "Houston, TX 77010"], "address3": "", "city": "Houston", "state": "TX", "address2": "", "address1": "1001 Austin St", "zip_code": "77010", "country": "US"}, "review_count": 364, "distance": 964.8699317457999, "display_phone": "(832) 360-2222", "price": "$$", "rating": 4.0, "phone": "+18323602222", "id": "mkt-bar-houston", "name": "MKT BAR", "transactions": [], "url": "https://www.yelp.com/biz/mkt-bar-houston?adjust_creative=8_C4NSGbL05eUQksKleGYw&utm_campaign=yelp_api_v3&utm_medium=api_v3_business_search&utm_source=8_C4NSGbL05eUQksKleGYw", "is_closed": false, "image_url": "https://s3-media4.fl.yelpcdn.com/bphoto/WjF0v9zq2R1hhgGh6nTkjQ/o.jpg"}, {"coordinates": {"longitude": -95.38753, "latitude": 29.79058}, "categories": [{"alias": "newamerican", "title": "American (New)"}, {"alias": "seafood", "title": "Seafood"}, {"alias": "bars", "title": "Bars"}], "location": {"display_address": ["1050 Studewood St", "Houston, TX 77008"], "address3": "", "city": "Houston", "state": "TX", "address2": "", "address1": "1050 Studewood St", "zip_code": "77008", "country": "US"}, "review_count": 835, "distance": 4049.308976068, "display_phone": "(713) 802-0533", "price": "$$", "rating": 4.0, "phone": "+17138020533", "id": "liberty-kitchen-and-oyster-bar-houston-2", "name": "Liberty Kitchen & Oyster Bar", "transactions": [], "url": "https://www.yelp.com/biz/liberty-kitchen-and-oyster-bar-houston-2?adjust_creative=8_C4NSGbL05eUQksKleGYw&utm_campaign=yelp_api_v3&utm_medium=api_v3_business_search&utm_source=8_C4NSGbL05eUQksKleGYw", "is_closed": false, "image_url": "https://s3-media3.fl.yelpcdn.com/bphoto/tDuPaubFd2N1qglRKkXBHA/o.jpg"}, {"coordinates": {"longitude": -95.3680032891794, "latitude": 29.7552614147644}, "categories": [{"alias": "foodtrucks", "title": "Food Trucks"}, {"alias": "korean", "title": "Korean"}, {"alias": "greek", "title": "Greek"}], "location": {"display_address": ["800 Polk St", "Houston, TX 77002"], "address3": null, "city": "Houston", "state": "TX", "address2": null, "address1": "800 Polk St", "zip_code": "77002", "country": "US"}, "review_count": 79, "distance": 1161.53390297, "display_phone": "(832) 860-6667", "price": "$$", "rating": 4.5, "phone": "+18328606667", "id": "foreign-policy-houston-14", "name": "Foreign Policy", "transactions": [], "url": "https://www.yelp.com/biz/foreign-policy-houston-14?adjust_creative=8_C4NSGbL05eUQksKleGYw&utm_campaign=yelp_api_v3&utm_medium=api_v3_business_search&utm_source=8_C4NSGbL05eUQksKleGYw", "is_closed": false, "image_url": "https://s3-media2.fl.yelpcdn.com/bphoto/qnwMugajcKoB1Xd_FKR6Xg/o.jpg"}, {"coordinates": {"longitude": -95.4929879, "latitude": 29.7844099}, "categories": [{"alias": "argentine", "title": "Argentine"}, {"alias": "seafood", "title": "Seafood"}, {"alias": "steak", "title": "Steakhouses"}], "location": {"display_address": ["8408 Katy Fwy", "Ste 220", "Houston, TX 77024"], "address3": "", "city": "Houston", "state": "TX", "address2": "Ste 220", "address1": "8408 Katy Fwy", "zip_code": "77024", "country": "US"}, "review_count": 153, "distance": 13058.266836339999, "display_phone": "(713) 468-8408", "price": "$$", "rating": 4.5, "phone": "+17134688408", "id": "patagonia-grill-and-cafe-houston-3", "name": "Patagonia Grill & Cafe", "transactions": ["pickup"], "url": "https://www.yelp.com/biz/patagonia-grill-and-cafe-houston-3?adjust_creative=8_C4NSGbL05eUQksKleGYw&utm_campaign=yelp_api_v3&utm_medium=api_v3_business_search&utm_source=8_C4NSGbL05eUQksKleGYw", "is_closed": false, "image_url": "https://s3-media2.fl.yelpcdn.com/bphoto/W8_krv1j2XE67ZpyIQb5dA/o.jpg"}, {"coordinates": {"longitude": -95.4252861972305, "latitude": 29.7424624840221}, "categories": [{"alias": "southern", "title": "Southern"}, {"alias": "newamerican", "title": "American (New)"}, {"alias": "seafood", "title": "Seafood"}], "location": {"display_address": ["3258 Westheimer Rd", "Houston, TX 77098"], "address3": "", "city": "Houston", "state": "TX", "address2": "", "address1": "3258 Westheimer Rd", "zip_code": "77098", "country": "US"}, "review_count": 272, "distance": 6708.47424442, "display_phone": "(832) 942-5080", "price": "$$$", "rating": 4.0, "phone": "+18329425080", "id": "state-of-grace-houston", "name": "State of Grace", "transactions": [], "url": "https://www.yelp.com/biz/state-of-grace-houston?adjust_creative=8_C4NSGbL05eUQksKleGYw&utm_campaign=yelp_api_v3&utm_medium=api_v3_business_search&utm_source=8_C4NSGbL05eUQksKleGYw", "is_closed": false, "image_url": "https://s3-media1.fl.yelpcdn.com/bphoto/lTh-ixGIZtN0Ui7HvsU05Q/o.jpg"}, {"coordinates": {"longitude": -95.404899597168, "latitude": 29.7445678710938}, "categories": [{"alias": "newamerican", "title": "American (New)"}, {"alias": "french", "title": "French"}, {"alias": "ukrainian", "title": "Ukrainian"}], "location": {"display_address": ["1927 Fairview St", "Houston, TX 77019"], "address3": null, "city": "Houston", "state": "TX", "address2": "", "address1": "1927 Fairview St", "zip_code": "77019", "country": "US"}, "review_count": 58, "distance": 4802.029159, "display_phone": "(832) 831-9109", "price": "$$$", "rating": 4.0, "phone": "+18328319109", "id": "riel-houston", "name": "Riel", "transactions": [], "url": "https://www.yelp.com/biz/riel-houston?adjust_creative=8_C4NSGbL05eUQksKleGYw&utm_campaign=yelp_api_v3&utm_medium=api_v3_business_search&utm_source=8_C4NSGbL05eUQksKleGYw", "is_closed": false, "image_url": "https://s3-media4.fl.yelpcdn.com/bphoto/UBey7AdsoxyHi9SNsua6Pw/o.jpg"}, {"coordinates": {"longitude": -95.4150549, "latitude": 29.7163985}, "categories": [{"alias": "burgers", "title": "Burgers"}], "location": {"display_address": ["5510 Morningside Dr", "Ste 100", "Houston, TX 77005"], "address3": null, "city": "Houston", "state": "TX", "address2": "Ste 100", "address1": "5510 Morningside Dr", "zip_code": "77005", "country": "US"}, "review_count": 57, "distance": 7465.992835496, "display_phone": "(281) 557-2337", "price": "$$", "rating": 4.0, "phone": "+12815572337", "id": "hopdoddy-burger-bar-houston-3", "name": "Hopdoddy Burger Bar", "transactions": [], "url": "https://www.yelp.com/biz/hopdoddy-burger-bar-houston-3?adjust_creative=8_C4NSGbL05eUQksKleGYw&utm_campaign=yelp_api_v3&utm_medium=api_v3_business_search&utm_source=8_C4NSGbL05eUQksKleGYw", "is_closed": false, "image_url": "https://s3-media4.fl.yelpcdn.com/bphoto/Xjf3lp5Lmu2ysKrLG9-Bmw/o.jpg"}, {"coordinates": {"longitude": -95.4204282537103, "latitude": 29.8225091635214}, "categories": [{"alias": "newamerican", "title": "American (New)"}, {"alias": "seafood", "title": "Seafood"}], "location": {"display_address": ["3715 Alba Rd", "Houston, TX 77018"], "address3": "", "city": "Houston", "state": "TX", "address2": "", "address1": "3715 Alba Rd", "zip_code": "77018", "country": "US"}, "review_count": 76, "distance": 8820.4545786, "display_phone": "(713) 290-0074", "price": "$$", "rating": 4.0, "phone": "+17132900074", "id": "liberty-kitchen-garden-oaks-houston", "name": "Liberty Kitchen Garden Oaks", "transactions": [], "url": "https://www.yelp.com/biz/liberty-kitchen-garden-oaks-houston?adjust_creative=8_C4NSGbL05eUQksKleGYw&utm_campaign=yelp_api_v3&utm_medium=api_v3_business_search&utm_source=8_C4NSGbL05eUQksKleGYw", "is_closed": false, "image_url": "https://s3-media4.fl.yelpcdn.com/bphoto/mE3nmp-lvUTma8m4Q7vjVw/o.jpg"}, {"coordinates": {"longitude": -95.4392364666781, "latitude": 29.7323230077825}, "categories": [{"alias": "poke", "title": "Poke"}, {"alias": "izakaya", "title": "Izakaya"}, {"alias": "ramen", "title": "Ramen"}], "location": {"display_address": ["3837 Richmond Ave", "Houston, TX 77027"], "address3": null, "city": "Houston", "state": "TX", "address2": "", "address1": "3837 Richmond Ave", "zip_code": "77027", "country": "US"}, "review_count": 76, "distance": 8381.098321239999, "display_phone": "(832) 933-6888", "price": "$$", "rating": 4.0, "phone": "+18329336888", "id": "yokushi-robata-houston", "name": "Yokushi Robata", "transactions": [], "url": "https://www.yelp.com/biz/yokushi-robata-houston?adjust_creative=8_C4NSGbL05eUQksKleGYw&utm_campaign=yelp_api_v3&utm_medium=api_v3_business_search&utm_source=8_C4NSGbL05eUQksKleGYw", "is_closed": false, "image_url": "https://s3-media2.fl.yelpcdn.com/bphoto/efdYAvXq9RKtK4pfhk22kA/o.jpg"}, {"coordinates": {"longitude": -95.4208844, "latitude": 29.7275861}, "categories": [{"alias": "bars", "title": "Bars"}, {"alias": "pizza", "title": "Pizza"}], "location": {"display_address": ["5010 Dincans St", "Houston, TX 77005"], "address3": "", "city": "Houston", "state": "TX", "address2": "", "address1": "5010 Dincans St", "zip_code": "77005", "country": "US"}, "review_count": 99, "distance": 7080.186079164, "display_phone": "(346) 444-5275", "price": "$$", "rating": 4.5, "phone": "+13464445275", "id": "bacco-houston", "name": "Bacco", "transactions": [], "url": "https://www.yelp.com/biz/bacco-houston?adjust_creative=8_C4NSGbL05eUQksKleGYw&utm_campaign=yelp_api_v3&utm_medium=api_v3_business_search&utm_source=8_C4NSGbL05eUQksKleGYw", "is_closed": false, "image_url": "https://s3-media1.fl.yelpcdn.com/bphoto/zoDkFYiVIO8LUasuJ_-lJw/o.jpg"}, {"coordinates": {"longitude": -95.39371, "latitude": 29.7817}, "categories": [{"alias": "italian", "title": "Italian"}, {"alias": "vegetarian", "title": "Vegetarian"}, {"alias": "pizza", "title": "Pizza"}], "location": {"display_address": ["3320 White Oak Dr", "Houston, TX 77007"], "address3": "", "city": "Houston", "state": "TX", "address2": "", "address1": "3320 White Oak Dr", "zip_code": "77007", "country": "US"}, "review_count": 461, "distance": 3863.24963812, "display_phone": "(713) 637-4095", "price": "$$", "rating": 4.0, "phone": "+17136374095", "id": "coltivare-houston", "name": "Coltivare", "transactions": [], "url": "https://www.yelp.com/biz/coltivare-houston?adjust_creative=8_C4NSGbL05eUQksKleGYw&utm_campaign=yelp_api_v3&utm_medium=api_v3_business_search&utm_source=8_C4NSGbL05eUQksKleGYw", "is_closed": false, "image_url": "https://s3-media3.fl.yelpcdn.com/bphoto/92jXl6OGpulEaYhcCFt7Jg/o.jpg"}, {"coordinates": {"longitude": -95.3856405, "latitude": 29.7588183}, "categories": [{"alias": "newamerican", "title": "American (New)"}, {"alias": "bars", "title": "Bars"}], "location": {"display_address": ["807 Taft St", "Houston, TX 77019"], "address3": "", "city": "Houston", "state": "TX", "address2": "", "address1": "807 Taft St", "zip_code": "77019", "country": "US"}, "review_count": 447, "distance": 2523.3981272720002, "display_phone": "(713) 628-9020", "price": "$$", "rating": 4.0, "phone": "+17136289020", "id": "provisions-houston", "name": "Provisions", "transactions": [], "url": "https://www.yelp.com/biz/provisions-houston?adjust_creative=8_C4NSGbL05eUQksKleGYw&utm_campaign=yelp_api_v3&utm_medium=api_v3_business_search&utm_source=8_C4NSGbL05eUQksKleGYw", "is_closed": false, "image_url": "https://s3-media2.fl.yelpcdn.com/bphoto/V9JnHosRmy1dV8mduTulEw/o.jpg"}, {"coordinates": {"longitude": -95.50133, "latitude": 29.80462}, "categories": [{"alias": "mexican", "title": "Mexican"}, {"alias": "sandwiches", "title": "Sandwiches"}, {"alias": "juicebars", "title": "Juice Bars & Smoothies"}], "location": {"display_address": ["1837 Bingle Rd", "Houston, TX 77055"], "address3": "", "city": "Houston", "state": "TX", "address2": "", "address1": "1837 Bingle Rd", "zip_code": "77055", "country": "US"}, "review_count": 163, "distance": 14406.763399799998, "display_phone": "(713) 461-1900", "price": "$", "rating": 5.0, "phone": "+17134611900", "id": "las-tortas-perronas-houston-8", "name": "Las Tortas Perronas", "transactions": [], "url": "https://www.yelp.com/biz/las-tortas-perronas-houston-8?adjust_creative=8_C4NSGbL05eUQksKleGYw&utm_campaign=yelp_api_v3&utm_medium=api_v3_business_search&utm_source=8_C4NSGbL05eUQksKleGYw", "is_closed": false, "image_url": "https://s3-media2.fl.yelpcdn.com/bphoto/eEc5388MicPwAbO3-9jtyw/o.jpg"}, {"coordinates": {"longitude": -95.3603514211737, "latitude": 29.7526501477753}, "categories": [{"alias": "newamerican", "title": "American (New)"}], "location": {"display_address": ["1611 Lamar St", "Houston, TX 77010"], "address3": "", "city": "Houston", "state": "TX", "address2": "", "address1": "1611 Lamar St", "zip_code": "77010", "country": "US"}, "review_count": 540, "distance": 1154.3901231769999, "display_phone": "(713) 337-7321", "price": "$$", "rating": 3.5, "phone": "+17133377321", "id": "the-grove-houston", "name": "The Grove", "transactions": [], "url": "https://www.yelp.com/biz/the-grove-houston?adjust_creative=8_C4NSGbL05eUQksKleGYw&utm_campaign=yelp_api_v3&utm_medium=api_v3_business_search&utm_source=8_C4NSGbL05eUQksKleGYw", "is_closed": false, "image_url": "https://s3-media2.fl.yelpcdn.com/bphoto/2LGpckxRfDqsmBLiTUbaBw/o.jpg"}, {"coordinates": {"longitude": -95.3909225463867, "latitude": 29.7439479827881}, "categories": [{"alias": "breakfast_brunch", "title": "Breakfast & Brunch"}], "location": {"display_address": ["3217 Montrose Blvd", "Ste 100", "Houston, TX 77006"], "address3": "", "city": "Houston", "state": "TX", "address2": "Ste 100", "address1": "3217 Montrose Blvd", "zip_code": "77006", "country": "US"}, "review_count": 697, "distance": 3666.6169363719996, "display_phone": "(713) 574-6655", "price": "$$", "rating": 4.0, "phone": "+17135746655", "id": "snooze-an-a-m-eatery-houston", "name": "Snooze, an A.M Eatery", "transactions": [], "url": "https://www.yelp.com/biz/snooze-an-a-m-eatery-houston?adjust_creative=8_C4NSGbL05eUQksKleGYw&utm_campaign=yelp_api_v3&utm_medium=api_v3_business_search&utm_source=8_C4NSGbL05eUQksKleGYw", "is_closed": false, "image_url": "https://s3-media1.fl.yelpcdn.com/bphoto/9sErRpxQTW4cgPnzpdThdQ/o.jpg"}, {"coordinates": {"longitude": -95.3804111, "latitude": 29.7387648}, "categories": [{"alias": "breakfast_brunch", "title": "Breakfast & Brunch"}, {"alias": "southern", "title": "Southern"}, {"alias": "soulfood", "title": "Soul Food"}], "location": {"display_address": ["3711 Travis St", "Houston, TX 77002"], "address3": "", "city": "Houston", "state": "TX", "address2": "", "address1": "3711 Travis St", "zip_code": "77002", "country": "US"}, "review_count": 2633, "distance": 3371.0828886599998, "display_phone": "(713) 528-8561", "price": "$$", "rating": 4.5, "phone": "+17135288561", "id": "the-breakfast-klub-houston-2", "name": "The Breakfast Klub", "transactions": [], "url": "https://www.yelp.com/biz/the-breakfast-klub-houston-2?adjust_creative=8_C4NSGbL05eUQksKleGYw&utm_campaign=yelp_api_v3&utm_medium=api_v3_business_search&utm_source=8_C4NSGbL05eUQksKleGYw", "is_closed": false, "image_url": "https://s3-media4.fl.yelpcdn.com/bphoto/BTEgbR16SrcnPJ6yFyAMwg/o.jpg"}, {"coordinates": {"longitude": -95.4101257324219, "latitude": 29.7700614929199}, "categories": [{"alias": "mexican", "title": "Mexican"}], "location": {"display_address": ["4819 Washington Ave", "Houston, TX 77077"], "address3": "", "city": "Houston", "state": "TX", "address2": "", "address1": "4819 Washington Ave", "zip_code": "77077", "country": "US"}, "review_count": 1187, "distance": 4905.666309781999, "display_phone": "(832) 834-5908", "price": "$", "rating": 4.0, "phone": "+18328345908", "id": "velvet-taco-houston", "name": "Velvet Taco", "transactions": [], "url": "https://www.yelp.com/biz/velvet-taco-houston?adjust_creative=8_C4NSGbL05eUQksKleGYw&utm_campaign=yelp_api_v3&utm_medium=api_v3_business_search&utm_source=8_C4NSGbL05eUQksKleGYw", "is_closed": false, "image_url": "https://s3-media2.fl.yelpcdn.com/bphoto/_wgl8BpUo3Gj2FnNopcIqw/o.jpg"}, {"coordinates": {"longitude": -95.3759069368243, "latitude": 29.7505739263773}, "categories": [{"alias": "panasian", "title": "Pan Asian"}], "location": {"display_address": ["510 Gray St", "Ste D", "Houston, TX 77002"], "address3": "", "city": "Houston", "state": "TX", "address2": "Ste D", "address1": "510 Gray St", "zip_code": "77002", "country": "US"}, "review_count": 49, "distance": 2070.852363008, "display_phone": "(832) 834-6157", "price": "$$", "rating": 4.5, "phone": "+18328346157", "id": "maba-pan-asian-diner-houston", "name": "Maba Pan-Asian Diner", "transactions": [], "url": "https://www.yelp.com/biz/maba-pan-asian-diner-houston?adjust_creative=8_C4NSGbL05eUQksKleGYw&utm_campaign=yelp_api_v3&utm_medium=api_v3_business_search&utm_source=8_C4NSGbL05eUQksKleGYw", "is_closed": false, "image_url": "https://s3-media2.fl.yelpcdn.com/bphoto/gxFE5pqIBavNNIhHF-ukoQ/o.jpg"}, {"coordinates": {"longitude": -95.25077, "latitude": 29.64977}, "categories": [{"alias": "mexican", "title": "Mexican"}, {"alias": "cocktailbars", "title": "Cocktail Bars"}], "location": {"display_address": ["9902 Gulf Fwy", "Houston, TX 77034"], "address3": "", "city": "Houston", "state": "TX", "address2": "", "address1": "9902 Gulf Fwy", "zip_code": "77034", "country": "US"}, "review_count": 292, "distance": 16437.99349014, "display_phone": "(832) 547-1240", "price": "$$", "rating": 4.0, "phone": "+18325471240", "id": "habanera-and-the-guero-houston-2", "name": "Habanera And The Guero", "transactions": ["pickup"], "url": "https://www.yelp.com/biz/habanera-and-the-guero-houston-2?adjust_creative=8_C4NSGbL05eUQksKleGYw&utm_campaign=yelp_api_v3&utm_medium=api_v3_business_search&utm_source=8_C4NSGbL05eUQksKleGYw", "is_closed": false, "image_url": "https://s3-media1.fl.yelpcdn.com/bphoto/_StLEnWJLEj0BN9U_0yZVw/o.jpg"}, {"coordinates": {"longitude": -95.36313, "latitude": 29.75862}, "categories": [{"alias": "southafrican", "title": "South African"}, {"alias": "gastropubs", "title": "Gastropubs"}, {"alias": "cocktailbars", "title": "Cocktail Bars"}], "location": {"display_address": ["711 Main St", "Unit 1", "Houston, TX 77002"], "address3": "", "city": "Houston", "state": "TX", "address2": "Unit 1", "address1": "711 Main St", "zip_code": "77002", "country": "US"}, "review_count": 310, "distance": 577.3187635075999, "display_phone": "(832) 767-5574", "price": "$$", "rating": 4.0, "phone": "+18327675574", "id": "the-springbok-houston", "name": "The Springbok", "transactions": ["pickup"], "url": "https://www.yelp.com/biz/the-springbok-houston?adjust_creative=8_C4NSGbL05eUQksKleGYw&utm_campaign=yelp_api_v3&utm_medium=api_v3_business_search&utm_source=8_C4NSGbL05eUQksKleGYw", "is_closed": false, "image_url": "https://s3-media1.fl.yelpcdn.com/bphoto/e2kn17Gfa-VCxXsTAgbZ9w/o.jpg"}, {"coordinates": {"longitude": -95.3621543826332, "latitude": 29.7634727117342}, "categories": [{"alias": "seafood", "title": "Seafood"}, {"alias": "mexican", "title": "Mexican"}, {"alias": "salad", "title": "Salad"}], "location": {"display_address": ["213 Milam St", "Houston, TX 77002"], "address3": "", "city": "Houston", "state": "TX", "address2": "", "address1": "213 Milam St", "zip_code": "77002", "country": "US"}, "review_count": 174, "distance": 217.8715801564, "display_phone": "(713) 802-1712", "price": "$$", "rating": 4.5, "phone": "+17138021712", "id": "la-fisheria-houston-4", "name": "La Fisheria", "transactions": ["pickup"], "url": "https://www.yelp.com/biz/la-fisheria-houston-4?adjust_creative=8_C4NSGbL05eUQksKleGYw&utm_campaign=yelp_api_v3&utm_medium=api_v3_business_search&utm_source=8_C4NSGbL05eUQksKleGYw", "is_closed": false, "image_url": "https://s3-media2.fl.yelpcdn.com/bphoto/bBgg957MiEG83gnC9j62_g/o.jpg"}, {"coordinates": {"longitude": -95.4640101607907, "latitude": 29.7397965769971}, "categories": [{"alias": "southafrican", "title": "South African"}, {"alias": "newamerican", "title": "American (New)"}, {"alias": "seafood", "title": "Seafood"}], "location": {"display_address": ["5085 Westheimer Rd", "Ste B2515", "Houston, TX 77056"], "address3": "", "city": "Houston", "state": "TX", "address2": "Ste B2515", "address1": "5085 Westheimer Rd", "zip_code": "77056", "country": "US"}, "review_count": 857, "distance": 10372.23975218, "display_phone": "(281) 257-9500", "price": "$$$", "rating": 4.5, "phone": "+12812579500", "id": "peli-peli-houston-5", "name": "Peli Peli", "transactions": ["pickup"], "url": "https://www.yelp.com/biz/peli-peli-houston-5?adjust_creative=8_C4NSGbL05eUQksKleGYw&utm_campaign=yelp_api_v3&utm_medium=api_v3_business_search&utm_source=8_C4NSGbL05eUQksKleGYw", "is_closed": false, "image_url": "https://s3-media1.fl.yelpcdn.com/bphoto/T5tU-aK5PzzVZLmVIgr05Q/o.jpg"}, {"coordinates": {"longitude": -95.4620253208921, "latitude": 29.7485868638914}, "categories": [{"alias": "pizza", "title": "Pizza"}, {"alias": "italian", "title": "Italian"}], "location": {"display_address": ["1700 Post Oak Blvd", "Ste 190", "Houston, TX 77056"], "address3": "", "city": "Houston", "state": "TX", "address2": "Ste 190", "address1": "1700 Post Oak Blvd", "zip_code": "77056", "country": "US"}, "review_count": 671, "distance": 9983.47953508, "display_phone": "(281) 605-4030", "price": "$$", "rating": 4.0, "phone": "+12816054030", "id": "north-italia-houston", "name": "North Italia", "transactions": [], "url": "https://www.yelp.com/biz/north-italia-houston?adjust_creative=8_C4NSGbL05eUQksKleGYw&utm_campaign=yelp_api_v3&utm_medium=api_v3_business_search&utm_source=8_C4NSGbL05eUQksKleGYw", "is_closed": false, "image_url": "https://s3-media1.fl.yelpcdn.com/bphoto/Yq5EtffmXXEdyyZehWnHPw/o.jpg"}, {"coordinates": {"longitude": -95.372068, "latitude": 29.770945}, "categories": [{"alias": "burgers", "title": "Burgers"}, {"alias": "tradamerican", "title": "American (Traditional)"}, {"alias": "bars", "title": "Bars"}], "location": {"display_address": ["1420 Edwards St", "Houston, TX 77007"], "address3": "", "city": "Houston", "state": "TX", "address2": "", "address1": "1420 Edwards St", "zip_code": "77007", "country": "US"}, "review_count": 796, "distance": 1463.890747612, "display_phone": "(713) 227-4893", "price": "$", "rating": 4.0, "phone": "+17132274893", "id": "stantons-city-bites-houston", "name": "Stanton's City Bites", "transactions": [], "url": "https://www.yelp.com/biz/stantons-city-bites-houston?adjust_creative=8_C4NSGbL05eUQksKleGYw&utm_campaign=yelp_api_v3&utm_medium=api_v3_business_search&utm_source=8_C4NSGbL05eUQksKleGYw", "is_closed": false, "image_url": "https://s3-media2.fl.yelpcdn.com/bphoto/54W-Qpa2mGPVoVX17GM5QA/o.jpg"}, {"coordinates": {"longitude": -95.38634, "latitude": 29.74799}, "categories": [{"alias": "szechuan", "title": "Szechuan"}], "location": {"display_address": ["315 Fairview St", "Houston, TX 77006"], "address3": "", "city": "Houston", "state": "TX", "address2": null, "address1": "315 Fairview St", "zip_code": "77006", "country": "US"}, "review_count": 446, "distance": 3047.15251945, "display_phone": "(832) 649-7175", "price": "$$", "rating": 4.0, "phone": "+18326497175", "id": "pepper-twins-houston-4", "name": "Pepper Twins", "transactions": ["pickup"], "url": "https://www.yelp.com/biz/pepper-twins-houston-4?adjust_creative=8_C4NSGbL05eUQksKleGYw&utm_campaign=yelp_api_v3&utm_medium=api_v3_business_search&utm_source=8_C4NSGbL05eUQksKleGYw", "is_closed": false, "image_url": "https://s3-media1.fl.yelpcdn.com/bphoto/CMN5hBBDJH04gqoFj-kySQ/o.jpg"}, {"coordinates": {"longitude": -95.3391623497009, "latitude": 29.7183427959681}, "categories": [{"alias": "asianfusion", "title": "Asian Fusion"}, {"alias": "sandwiches", "title": "Sandwiches"}], "location": {"display_address": ["4835 Calhoun Rd", "Ste E", "Houston, TX 77004"], "address3": "", "city": "Houston", "state": "TX", "address2": "Ste E", "address1": "4835 Calhoun Rd", "zip_code": "77004", "country": "US"}, "review_count": 10, "distance": 5337.3442450679995, "display_phone": "(713) 360-7748", "price": "$", "rating": 4.0, "phone": "+17133607748", "id": "fat-bao-houston-4", "name": "Fat Bao", "transactions": [], "url": "https://www.yelp.com/biz/fat-bao-houston-4?adjust_creative=8_C4NSGbL05eUQksKleGYw&utm_campaign=yelp_api_v3&utm_medium=api_v3_business_search&utm_source=8_C4NSGbL05eUQksKleGYw", "is_closed": false, "image_url": "https://s3-media2.fl.yelpcdn.com/bphoto/_ox-JrrrXlKe1ugPtZH-Lw/o.jpg"}, {"coordinates": {"longitude": -95.4091979996731, "latitude": 29.7902465650345}, "categories": [{"alias": "korean", "title": "Korean"}, {"alias": "gastropubs", "title": "Gastropubs"}, {"alias": "cocktailbars", "title": "Cocktail Bars"}], "location": {"display_address": ["1221 W 11th St", "Houston, TX 77008"], "address3": "", "city": "Houston", "state": "TX", "address2": null, "address1": "1221 W 11th St", "zip_code": "77008", "country": "US"}, "review_count": 232, "distance": 5634.43774324, "display_phone": "(832) 649-3601", "price": "$$", "rating": 4.0, "phone": "+18326493601", "id": "republic-diner-sojubang-houston-4", "name": "Republic Diner + Sojubang", "transactions": [], "url": "https://www.yelp.com/biz/republic-diner-sojubang-houston-4?adjust_creative=8_C4NSGbL05eUQksKleGYw&utm_campaign=yelp_api_v3&utm_medium=api_v3_business_search&utm_source=8_C4NSGbL05eUQksKleGYw", "is_closed": false, "image_url": "https://s3-media2.fl.yelpcdn.com/bphoto/A69_dM3bQq-GBvZCHANMqA/o.jpg"}, {"coordinates": {"longitude": -95.5451280889549, "latitude": 29.7956689067855}, "categories": [{"alias": "vietnamese", "title": "Vietnamese"}, {"alias": "sandwiches", "title": "Sandwiches"}, {"alias": "vegetarian", "title": "Vegetarian"}], "location": {"display_address": ["1411 Gessner Rd", "Ste I", "Houston, TX 77080"], "address3": "", "city": "Houston", "state": "TX", "address2": "Ste I", "address1": "1411 Gessner Rd", "zip_code": "77080", "country": "US"}, "review_count": 811, "distance": 18236.12838422, "display_phone": "(832) 649-8955", "price": "$", "rating": 4.5, "phone": "+18326498955", "id": "roostar-vietnamese-grill-houston-2", "name": "Roostar Vietnamese Grill", "transactions": ["delivery", "pickup"], "url": "https://www.yelp.com/biz/roostar-vietnamese-grill-houston-2?adjust_creative=8_C4NSGbL05eUQksKleGYw&utm_campaign=yelp_api_v3&utm_medium=api_v3_business_search&utm_source=8_C4NSGbL05eUQksKleGYw", "is_closed": false, "image_url": "https://s3-media4.fl.yelpcdn.com/bphoto/yihMPzM9cJTZXBqmBSV1rg/o.jpg"}, {"coordinates": {"longitude": -95.4018420158691, "latitude": 29.7610702114268}, "categories": [{"alias": "newamerican", "title": "American (New)"}, {"alias": "breakfast_brunch", "title": "Breakfast & Brunch"}, {"alias": "sandwiches", "title": "Sandwiches"}], "location": {"display_address": ["3422 Allen Pkwy", "Houston, TX 77019"], "address3": "", "city": "Houston", "state": "TX", "address2": "", "address1": "3422 Allen Pkwy", "zip_code": "77019", "country": "US"}, "review_count": 307, "distance": 4048.9344826499996, "display_phone": "(713) 360-6477", "price": "$$", "rating": 4.0, "phone": "+17133606477", "id": "the-kitchen-at-the-dunlavy-houston-3", "name": "The Kitchen at The Dunlavy", "transactions": [], "url": "https://www.yelp.com/biz/the-kitchen-at-the-dunlavy-houston-3?adjust_creative=8_C4NSGbL05eUQksKleGYw&utm_campaign=yelp_api_v3&utm_medium=api_v3_business_search&utm_source=8_C4NSGbL05eUQksKleGYw", "is_closed": false, "image_url": "https://s3-media4.fl.yelpcdn.com/bphoto/f1XQoP08mBNQJ_kKnykAFA/o.jpg"}], "region": {"center": {"longitude": -95.35995483398438, "latitude": 29.764287495746604}}, "total": 11135}