{"businesses": [{"coordinates": {"longitude": -95.4185060876135, "latitude": 29.737020211778}, "categories": [{"alias": "tradamerican", "title": "American (Traditional)"}, {"alias": "breakfast_brunch", "title": "Breakfast & Brunch"}, {"alias": "comfortfood", "title": "Comfort Food"}], "location": {"display_address": ["3111 Kirby Dr", "Houston, TX 77098"], "address3": "", "city": "Houston", "state": "TX", "address2": "", "address1": "3111 Kirby Dr", "zip_code": "77098", "country": "US"}, "review_count": 308, "distance": 6348.889108443999, "display_phone": "(713) 728-6410", "price": "$$", "rating": 4.0, "phone": "+17137286410", "id": "graces-houston-3", "name": "Grace's", "transactions": [], "url": "https://www.yelp.com/biz/graces-houston-3?adjust_creative=8_C4NSGbL05eUQksKleGYw&utm_campaign=yelp_api_v3&utm_medium=api_v3_business_search&utm_source=8_C4NSGbL05eUQksKleGYw", "is_closed": false, "image_url": "https://s3-media1.fl.yelpcdn.com/bphoto/L06th0xu5tSRVOZaoUeDTQ/o.jpg"}, {"coordinates": {"longitude": -95.3824234, "latitude": 29.7217197}, "categories": [{"alias": "tradamerican", "title": "American (Traditional)"}, {"alias": "breakfast_brunch", "title": "Breakfast & Brunch"}], "location": {"display_address": ["1801 Binz St", "Ste 110", "Houston, TX 77004"], "address3": "", "city": "Houston", "state": "TX", "address2": "Ste 110", "address1": "1801 Binz St", "zip_code": "77004", "country": "US"}, "review_count": 254, "distance": 5080.250570728, "display_phone": "(713) 874-1454", "price": "$$", "rating": 4.0, "phone": "+17138741454", "id": "barnabys-cafe-houston-12", "name": "Barnaby's Cafe", "transactions": [], "url": "https://www.yelp.com/biz/barnabys-cafe-houston-12?adjust_creative=8_C4NSGbL05eUQksKleGYw&utm_campaign=yelp_api_v3&utm_medium=api_v3_business_search&utm_source=8_C4NSGbL05eUQksKleGYw", "is_closed": false, "image_url": "https://s3-media1.fl.yelpcdn.com/bphoto/6Ou0LG94t5ggJGQfLmTNqw/o.jpg"}, {"coordinates": {"longitude": -95.3619832545519, "latitude": 29.7609231985565}, "categories": [{"alias": "salad", "title": "Salad"}, {"alias": "sandwiches", "title": "Sandwiches"}, {"alias": "delis", "title": "Delis"}], "location": {"display_address": ["420 Main St", "Houston, TX 77002"], "address3": null, "city": "Houston", "state": "TX", "address2": "", "address1": "420 Main St", "zip_code": "77002", "country": "US"}, "review_count": 47, "distance": 304.9590025814, "display_phone": "(713) 227-0531", "price": "$$", "rating": 4.5, "phone": "+17132270531", "id": "local-foods-houston-5", "name": "Local Foods", "transactions": [], "url": "https://www.yelp.com/biz/local-foods-houston-5?adjust_creative=8_C4NSGbL05eUQksKleGYw&utm_campaign=yelp_api_v3&utm_medium=api_v3_business_search&utm_source=8_C4NSGbL05eUQksKleGYw", "is_closed": false, "image_url": "https://s3-media1.fl.yelpcdn.com/bphoto/uCpqXKPevlT_gG-7iatIhg/o.jpg"}, {"coordinates": {"longitude": -95.4181346297265, "latitude": 29.7351499099632}, "categories": [{"alias": "asianfusion", "title": "Asian Fusion"}, {"alias": "ramen", "title": "Ramen"}], "location": {"display_address": ["3419 Kirby Dr", "Houston, TX 77098"], "address3": "", "city": "Houston", "state": "TX", "address2": "", "address1": "3419 Kirby Dr", "zip_code": "77098", "country": "US"}, "review_count": 1098, "distance": 6415.3807608179995, "display_phone": "(713) 677-0341", "price": "$", "rating": 4.0, "phone": "+17136770341", "id": "fat-bao-houston", "name": "Fat Bao", "transactions": [], "url": "https://www.yelp.com/biz/fat-bao-houston?adjust_creative=8_C4NSGbL05eUQksKleGYw&utm_campaign=yelp_api_v3&utm_medium=api_v3_business_search&utm_source=8_C4NSGbL05eUQksKleGYw", "is_closed": false, "image_url": "https://s3-media3.fl.yelpcdn.com/bphoto/her9diIdBnUjX8v7-WvQ_Q/o.jpg"}, {"coordinates": {"longitude": -95.3598718, "latitude": 29.7599199}, "categories": [{"alias": "tradamerican", "title": "American (Traditional)"}, {"alias": "burgers", "title": "Burgers"}, {"alias": "sandwiches", "title": "Sandwiches"}], "location": {"display_address": ["421 San Jacinto St", "Houston, TX 77002"], "address3": "", "city": "Houston", "state": "TX", "address2": "", "address1": "421 San Jacinto St", "zip_code": "77002", "country": "US"}, "review_count": 91, "distance": 367.33586225659997, "display_phone": "(713) 229-7067", "price": "$", "rating": 4.5, "phone": "+17132297067", "id": "rachels-cafe-houston", "name": "Rachels Cafe", "transactions": ["delivery", "pickup"], "url": "https://www.yelp.com/biz/rachels-cafe-houston?adjust_creative=8_C4NSGbL05eUQksKleGYw&utm_campaign=yelp_api_v3&utm_medium=api_v3_business_search&utm_source=8_C4NSGbL05eUQksKleGYw", "is_closed": false, "image_url": "https://s3-media4.fl.yelpcdn.com/bphoto/3fm24C3YcNW6F8e5WCb6Yw/o.jpg"}, {"coordinates": {"longitude": -95.379739, "latitude": 29.7428606}, "categories": [{"alias": "ramen", "title": "Ramen"}], "location": {"display_address": ["3201 Louisiana St", "Ste 105", "Houston, TX 77006"], "address3": "", "city": "Houston", "state": "TX", "address2": "Ste 105", "address1": "3201 Louisiana St", "zip_code": "77006", "country": "US"}, "review_count": 1510, "distance": 2945.2779178359997, "display_phone": "(832) 925-8596", "price": "$$", "rating": 4.0, "phone": "+18329258596", "id": "jinya-ramen-bar-houston-3", "name": "JINYA Ramen Bar", "transactions": [], "url": "https://www.yelp.com/biz/jinya-ramen-bar-houston-3?adjust_creative=8_C4NSGbL05eUQksKleGYw&utm_campaign=yelp_api_v3&utm_medium=api_v3_business_search&utm_source=8_C4NSGbL05eUQksKleGYw", "is_closed": false, "image_url": "https://s3-media4.fl.yelpcdn.com/bphoto/uWVAzPgj7fCYiikz_oht6g/o.jpg"}, {"coordinates": {"longitude": -95.41073, "latitude": 29.76875}, "categories": [{"alias": "burgers", "title": "Burgers"}, {"alias": "desserts", "title": "Desserts"}, {"alias": "halal", "title": "Halal"}], "location": {"display_address": ["The Twisted Palate", "4901 Rose St", "Houston, TX 77007"], "address3": "", "city": "Houston", "state": "TX", "address2": "4901 Rose St", "address1": "The Twisted Palate", "zip_code": "77007", "country": "US"}, "review_count": 17, "distance": 4943.191451496, "display_phone": "(713) 340-9172", "price": "$", "rating": 5.0, "phone": "+17133409172", "id": "rehla-foods-houston", "name": "Rehla Foods", "transactions": [], "url": "https://www.yelp.com/biz/rehla-foods-houston?adjust_creative=8_C4NSGbL05eUQksKleGYw&utm_campaign=yelp_api_v3&utm_medium=api_v3_business_search&utm_source=8_C4NSGbL05eUQksKleGYw", "is_closed": false, "image_url": "https://s3-media1.fl.yelpcdn.com/bphoto/9NG7b4wdqYlkWzQZIPP3Qg/o.jpg"}, {"coordinates": {"longitude": -95.3614426, "latitude": 29.7546482}, "categories": [{"alias": "bars", "title": "Bars"}, {"alias": "newamerican", "title": "American (New)"}, {"alias": "musicvenues", "title": "Music Venues"}], "location": {"display_address": ["1001 Austin St", "Houston, TX 77010"], "address3": "", "city": "Houston", "state": "TX", "address2": "", "address1": "1001 Austin St", "zip_code": "77010", "country": "US"}, "review_count": 364, "distance": 964.8699317457999, "display_phone": "(832) 360-2222", "price": "$$", "rating": 4.0, "phone": "+18323602222", "id": "mkt-bar-houston", "name": "MKT BAR", "transactions": [], "url": "https://www.yelp.com/biz/mkt-bar-houston?adjust_creative=8_C4NSGbL05eUQksKleGYw&utm_campaign=yelp_api_v3&utm_medium=api_v3_business_search&utm_source=8_C4NSGbL05eUQksKleGYw", "is_closed": false, "image_url": "https://s3-media4.fl.yelpcdn.com/bphoto/WjF0v9zq2R1hhgGh6nTkjQ/o.jpg"}, {"coordinates": {"longitude": -95.38753, "latitude": 29.79058}, "categories": [{"alias": "newamerican", "title": "American (New)"}, {"alias": "seafood", "title": "Seafood"}, {"alias": "bars", "title": "Bars"}], "location": {"display_address": ["1050 Studewood St", "Houston, TX 77008"], "address3": "", "city": "Houston", "state": "TX", "address2": "", "address1": "1050 Studewood St", "zip_code": "77008", "country": "US"}, "review_count": 835, "distance": 4049.308976068, "display_phone": "(713) 802-0533", "price": "$$", "rating": 4.0, "phone": "+17138020533", "id": "liberty-kitchen-and-oyster-bar-houston-2", "name": "Liberty Kitchen & Oyster Bar", "transactions": [], "url": "https://www.yelp.com/biz/liberty-kitchen-and-oyster-bar-houston-2?adjust_creative=8_C4NSGbL05eUQksKleGYw&utm_campaign=yelp_api_v3&utm_medium=api_v3_business_search&utm_source=8_C4NSGbL05eUQksKleGYw", "is_closed": false, "image_url": "https://s3-media3.fl.yelpcdn.com/bphoto/tDuPaubFd2N1qglRKkXBHA/o.jpg"}, {"coordinates": {"longitude": -95.3680032891794, "latitude": 29.7552614147644}, "categories": [{"alias": "foodtrucks", "title": "Food Trucks"}, {"alias": "korean", "title": "Korean"}, {"alias": "greek", "title": "Greek"}], "location": {"display_address": ["800 Polk St", "Houston, TX 77002"], "address3": null, "city": "Houston", "state": "TX", "address2": null, "address1": "800 Polk St", "zip_code": "77002", "country": "US"}, "review_count": 79, "distance": 1161.53390297, "display_phone": "(832) 860-6667", "price": "$$", "rating": 4.5, "phone": "+18328606667", "id": "foreign-policy-houston-14", "name": "Foreign Policy", "transactions": [], "url": "https://www.yelp.com/biz/foreign-policy-houston-14?adjust_creative=8_C4NSGbL05eUQksKleGYw&utm_campaign=yelp_api_v3&utm_medium=api_v3_business_search&utm_source=8_C4NSGbL05eUQksKleGYw", "is_closed": false, "image_url": "https://s3-media2.fl.yelpcdn.com/bphoto/qnwMugajcKoB1Xd_FKR6Xg/o.jpg"}, {"coordinates": {"longitude": -95.4929879, "latitude": 29.7844099}, "categories": [{"alias": "argentine", "title": "Argentine"}, {"alias": "seafood", "title": "Seafood"}, {"alias": "steak", "title": "Steakhouses"}], "location": {"display_address": ["8408 Katy Fwy", "Ste 220", "Houston, TX 77024"], "address3": "", "city": "Houston", "state": "TX", "address2": "Ste 220", "address1": "8408 Katy Fwy", "zip_code": "77024", "country": "US"}, "review_count": 153, "distance": 13058.266836339999, "display_phone": "(713) 468-8408", "price": "$$", "rating": 4.5, "phone": "+17134688408", "id": "patagonia-grill-and-cafe-houston-3", "name": "Patagonia Grill & Cafe", "transactions": ["pickup"], "url": "https://www.yelp.com/biz/patagonia-grill-and-cafe-houston-3?adjust_creative=8_C4NSGbL05eUQksKleGYw&utm_campaign=yelp_api_v3&utm_medium=api_v3_business_search&utm_source=8_C4NSGbL05eUQksKleGYw", "is_closed": false, "image_url": "https://s3-media2.fl.yelpcdn.com/bphoto/W8_krv1j2XE67ZpyIQb5dA/o.jpg"}, {"coordinates": {"longitude": -95.4252861972305, "latitude": 29.7424624840221}, "categories": [{"alias": "southern", "title": "Southern"}, {"alias": "newamerican", "title": "American (New)"}, {"alias": "seafood", "title": "Seafood"}], "location": {"display_address": ["3258 Westheimer Rd", "Houston, TX 77098"], "address3": "", "city": "Houston", "state": "TX", "address2": "", "address1": "3258 Westheimer Rd", "zip_code": "77098", "country": "US"}, "review_count": 272, "distance": 6708.47424442, "display_phone": "(832) 942-5080", "price": "$$$", "rating": 4.0, "phone": "+18329425080", "id": "state-of-grace-houston", "name": "State of Grace", "transactions": [], "url": "https://www.yelp.com/biz/state-of-grace-houston?adjust_creative=8_C4NSGbL05eUQksKleGYw&utm_campaign=yelp_api_v3&utm_medium=api_v3_business_search&utm_source=8_C4NSGbL05eUQksKleGYw", "is_closed": false, "image_url": "https://s3-media1.fl.yelpcdn.com/bphoto/lTh-ixGIZtN0Ui7HvsU05Q/o.jpg"}, {"coordinates": {"longitude": -95.404899597168, "latitude": 29.7445678710938}, "categories": [{"alias": "newamerican", "title": "American (New)"}, {"alias": "french", "title": "French"}, {"alias": "ukrainian", "title": "Ukrainian"}], "location": {"display_address": ["1927 Fairview St", "Houston, TX 77019"], "address3": null, "city": "Houston", "state": "TX", "address2": "", "address1": "1927 Fairview St", "zip_code": "77019", "country": "US"}, "review_count": 58, "distance": 4802.029159, "display_phone": "(832) 831-9109", "price": "$$$", "rating": 4.0, "phone": "+18328319109", "id": "riel-houston", "name": "Riel", "transactions": [], "url": "https://www.yelp.com/biz/riel-houston?adjust_creative=8_C4NSGbL05eUQksKleGYw&utm_campaign=yelp_api_v3&utm_medium=api_v3_business_search&utm_source=8_C4NSGbL05eUQksKleGYw", "is_closed": false, "image_url": "https://s3-media4.fl.yelpcdn.com/bphoto/UBey7AdsoxyHi9SNsua6Pw/o.jpg"}, {"coordinates": {"longitude": -95.4150549, "latitude": 29.7163985}, "categories": [{"alias": "burgers", "title": "Burgers"}], "location": {"display_address": ["5510 Morningside Dr", "Ste 100", "Houston, TX 77005"], "address3": null, "city": "Houston", "state": "TX", "address2": "Ste 100", "address1": "5510 Morningside Dr", "zip_code": "77005", "country": "US"}, "review_count": 57, "distance": 7465.992835496, "display_phone": "(281) 557-2337", "price": "$$", "rating": 4.0, "phone": "+12815572337", "id": "hopdoddy-burger-bar-houston-3", "name": "Hopdoddy Burger Bar", "transactions": [], "url": "https://www.yelp.com/biz/hopdoddy-burger-bar-houston-3?adjust_creative=8_C4NSGbL05eUQksKleGYw&utm_campaign=yelp_api_v3&utm_medium=api_v3_business_search&utm_source=8_C4NSGbL05eUQksKleGYw", "is_closed": false, "image_url": "https://s3-media4.fl.yelpcdn.com/bphoto/Xjf3lp5Lmu2ysKrLG9-Bmw/o.jpg"}, {"coordinates": {"longitude": -95.4204282537103, "latitude": 29.8225091635214}, "categories": [{"alias": "newamerican", "title": "American (New)"}, {"alias": "seafood", "title": "Seafood"}], "location": {"display_address": ["3715 Alba Rd", "Houston, TX 77018"], "address3": "", "city": "Houston", "state": "TX", "address2": "", "address1": "3715 Alba Rd", "zip_code": "77018", "country": "US"}, "review_count": 76, "distance": 8820.4545786, "display_phone": "(713) 290-0074", "price": "$$", "rating": 4.0, "phone": "+17132900074", "id": "liberty-kitchen-garden-oaks-houston", "name": "Liberty Kitchen Garden Oaks", "transactions": [], "url": "https://www.yelp.com/biz/liberty-kitchen-garden-oaks-houston?adjust_creative=8_C4NSGbL05eUQksKleGYw&utm_campaign=yelp_api_v3&utm_medium=api_v3_business_search&utm_source=8_C4NSGbL05eUQksKleGYw", "is_closed": false, "image_url": "https://s3-media4.fl.yelpcdn.com/bphoto/mE3nmp-lvUTma8m4Q7vjVw/o.jpg"}, {"coordinates": {"longitude": -95.4392364666781, "latitude": 29.7323230077825}, "categories": [{"alias": "poke", "title": "Poke"}, {"alias": "izakaya", "title": "Izakaya"}, {"alias": "ramen", "title": "Ramen"}], "location": {"display_address": ["3837 Richmond Ave", "Houston, TX 77027"], "address3": null, "city": "Houston", "state": "TX", "address2": "", "address1": "3837 Richmond Ave", "zip_code": "77027", "country": "US"}, "review_count": 76, "distance": 8381.098321239999, "display_phone": "(832) 933-6888", "price": "$$", "rating": 4.0, "phone": "+18329336888", "id": "yokushi-robata-houston", "name": "Yokushi Robata", "transactions": [], "url": "https://www.yelp.com/biz/yokushi-robata-houston?adjust_creative=8_C4NSGbL05eUQksKleGYw&utm_campaign=yelp_api_v3&utm_medium=api_v3_business_search&utm_source=8_C4NSGbL05eUQksKleGYw", "is_closed": false, "image_url": "https://s3-media2.fl.yelpcdn.com/bphoto/efdYAvXq9RKtK4pfhk22kA/o.jpg"}, {"coordinates": {"longitude": -95.4208844, "latitude": 29.7275861}, "categories": [{"alias": "bars", "title": "Bars"}, {"alias": "pizza", "title": "Pizza"}], "location": {"display_address": ["5010 Dincans St", "Houston, TX 77005"], "address3": "", "city": "Houston", "state": "TX", "address2": "", "address1": "5010 Dincans St", "zip_code": "77005", "country": "US"}, "review_count": 99, "distance": 7080.186079164, "display_phone": "(346) 444-5275", "price": "$$", "rating": 4.5, "phone": "+13464445275", "id": "bacco-houston", "name": "Bacco", "transactions": [], "url": "https://www.yelp.com/biz/bacco-houston?adjust_creative=8_C4NSGbL05eUQksKleGYw&utm_campaign=yelp_api_v3&utm_medium=api_v3_business_search&utm_source=8_C4NSGbL05eUQksKleGYw", "is_closed": false, "image_url": "https://s3-media1.fl.yelpcdn.com/bphoto/zoDkFYiVIO8LUasuJ_-lJw/o.jpg"}, {"coordinates": {"longitude": -95.39371, "latitude": 29.7817}, "categories": [{"alias": "italian", "title": "Italian"}, {"alias": "vegetarian", "title": "Vegetarian"}, {"alias": "pizza", "title": "Pizza"}], "location": {"display_address": ["3320 White Oak Dr", "Houston, TX 77007"], "address3": "", "city": "Houston", "state": "TX", "address2": "", "address1": "3320 White Oak Dr", "zip_code": "77007", "country": "US"}, "review_count": 461, "distance": 3863.24963812, "display_phone": "(713) 637-4095", "price": "$$", "rating": 4.0, "phone": "+17136374095", "id": "coltivare-houston", "name": "Coltivare", "transactions": [], "url": "https://www.yelp.com/biz/coltivare-houston?adjust_creative=8_C4NSGbL05eUQksKleGYw&utm_campaign=yelp_api_v3&utm_medium=api_v3_business_search&utm_source=8_C4NSGbL05eUQksKleGYw", "is_closed": false, "image_url": "https://s3-media3.fl.yelpcdn.com/bphoto/92jXl6OGpulEaYhcCFt7Jg/o.jpg"}, {"coordinates": {"longitude": -95.3856405, "latitude": 29.7588183}, "categories": [{"alias": "newamerican", "title": "American (New)"}, {"alias": "bars", "title": "Bars"}], "location": {"display_address": ["807 Taft St", "Houston, TX 77019"], "address3": "", "city": "Houston", "state": "TX", "address2": "", "address1": "807 Taft St", "zip_code": "77019", "country": "US"}, "review_count": 447, "distance": 2523.3981272720002, "display_phone": "(713) 628-9020", "price": "$$", "rating": 4.0, "phone": "+17136289020", "id": "provisions-houston", "name": "Provisions", "transactions": [], "url": "https://www.yelp.com/biz/provisions-houston?adjust_creative=8_C4NSGbL05eUQksKleGYw&utm_campaign=yelp_api_v3&utm_medium=api_v3_business_search&utm_source=8_C4NSGbL05eUQksKleGYw", "is_closed": false, "image_url": "https://s3-media2.fl.yelpcdn.com/bphoto/V9JnHosRmy1dV8mduTulEw/o.jpg"}, {"coordinates": {"longitude": -95.50133, "latitude": 29.80462}, "categories": [{"alias": "mexican", "title": "Mexican"}, {"alias": "sandwiches", "title": "Sandwiches"}, {"alias": "juicebars", "title": "Juice Bars & Smoothies"}], "location": {"display_address": ["1837 Bingle Rd", "Houston, TX 77055"], "address3": "", "city": "Houston", "state": "TX", "address2": "", "address1": "1837 Bingle Rd", "zip_code": "77055", "country": "US"}, "review_count": 163, "distance": 14406.763399799998, "display_phone": "(713) 461-1900", "price": "$", "rating": 5.0, "phone": "+17134611900", "id": "las-tortas-perronas-houston-8", "name": "Las Tortas Perronas", "transactions": [], "url": "https://www.yelp.com/biz/las-tortas-perronas-houston-8?adjust_creative=8_C4NSGbL05eUQksKleGYw&utm_campaign=yelp_api_v3&utm_medium=api_v3_business_search&utm_source=8_C4NSGbL05eUQksKleGYw", "is_closed": false, "image_url": "https://s3-media2.fl.yelpcdn.com/bphoto/eEc5388MicPwAbO3-9jtyw/o.jpg"}, {"coordinates": {"longitude": -95.3603514211737, "latitude": 29.7526501477753}, "categories": [{"alias": "newamerican", "title": "American (New)"}], "location": {"display_address": ["1611 Lamar St", "Houston, TX 77010"], "address3": "", "city": "Houston", "state": "TX", "address2": "", "address1": "1611 Lamar St", "zip_code": "77010", "country": "US"}, "review_count": 540, "distance": 1154.3901231769999, "display_phone": "(713) 337-7321", "price": "$$", "rating": 3.5, "phone": "+17133377321", "id": "the-grove-houston", "name": "The Grove", "transactions": [], "url": "https://www.yelp.com/biz/the-grove-houston?adjust_creative=8_C4NSGbL05eUQksKleGYw&utm_campaign=yelp_api_v3&utm_medium=api_v3_business_search&utm_source=8_C4NSGbL05eUQksKleGYw", "is_closed": false, "image_url": "https://s3-media2.fl.yelpcdn.com/bphoto/2LGpckxRfDqsmBLiTUbaBw/o.jpg"}, {"coordinates": {"longitude": -95.3909225463867, "latitude": 29.7439479827881}, "categories": [{"alias": "breakfast_brunch", "title": "Breakfast & Brunch"}], "location": {"display_address": ["3217 Montrose Blvd", "Ste 100", "Houston, TX 77006"], "address3": "", "city": "Houston", "state": "TX", "address2": "Ste 100", "address1": "3217 Montrose Blvd", "zip_code": "77006", "country": "US"}, "review_count": 697, "distance": 3666.6169363719996, "display_phone": "(713) 574-6655", "price": "$$", "rating": 4.0, "phone": "+17135746655", "id": "snooze-an-a-m-eatery-houston", "name": "Snooze, an A.M Eatery", "transactions": [], "url": "https://www.yelp.com/biz/snooze-an-a-m-eatery-houston?adjust_creative=8_C4NSGbL05eUQksKleGYw&utm_campaign=yelp_api_v3&utm_medium=api_v3_business_search&utm_source=8_C4NSGbL05eUQksKleGYw", "is_closed": false, "image_url": "https://s3-media1.fl.yelpcdn.com/bphoto/9sErRpxQTW4cgPnzpdThdQ/o.jpg"}, {"coordinates": {"longitude": -95.3804111, "latitude": 29.7387648}, "categories": [{"alias": "breakfast_brunch", "title": "Breakfast & Brunch"}, {"alias": "southern", "title": "Southern"}, {"alias": "soulfood", "title": "Soul Food"}], "location": {"display_address": ["3711 Travis St", "Houston, TX 77002"], "address3": "", "city": "Houston", "state": "TX", "address2": "", "address1": "3711 Travis St", "zip_code": "77002", "country": "US"}, "review_count": 2633, "distance": 3371.0828886599998, "display_phone": "(713) 528-8561", "price": "$$", "rating": 4.5, "phone": "+17135288561", "id": "the-breakfast-klub-houston-2", "name": "The Breakfast Klub", "transactions": [], "url": "https://www.yelp.com/biz/the-breakfast-klub-houston-2?adjust_creative=8_C4NSGbL05eUQksKleGYw&utm_campaign=yelp_api_v3&utm_medium=api_v3_business_search&utm_source=8_C4NSGbL05eUQksKleGYw", "is_closed": false, "image_url": "https://s3-media4.fl.yelpcdn.com/bphoto/BTEgbR16SrcnPJ6yFyAMwg/o.jpg"}, {"coordinates": {"longitude": -95.4101257324219, "latitude": 29.7700614929199}, "categories": [{"alias": "mexican", "title": "Mexican"}], "location": {"display_address": ["4819 Washington Ave", "Houston, TX 77077"], "address3": "", "city": "Houston", "state": "TX", "address2": "", "address1": "4819 Washington Ave", "zip_code": "77077", "country": "US"}, "review_count": 1187, "distance": 4905.666309781999, "display_phone": "(832) 834-5908", "price": "$", "rating": 4.0, "phone": "+18328345908", "id": "velvet-taco-houston", "name": "Velvet Taco", "transactions": [], "url": "https://www.yelp.com/biz/velvet-taco-houston?adjust_creative=8_C4NSGbL05eUQksKleGYw&utm_campaign=yelp_api_v3&utm_medium=api_v3_business_search&utm_source=8_C4NSGbL05eUQksKleGYw", "is_closed": false, "image_url": "https://s3-media2.fl.yelpcdn.com/bphoto/_wgl8BpUo3Gj2FnNopcIqw/o.jpg"}, {"coordinates": {"longitude": -95.3759069368243, "latitude": 29.7505739263773}, "categories": [{"alias": "panasian", "title": "Pan Asian"}], "location": {"display_address": ["510 Gray St", "Ste D", "Houston, TX 77002"], "address3": "", "city": "Houston", "state": "TX", "address2": "Ste D", "address1": "510 Gray St", "zip_code": "77002", "country": "US"}, "review_count": 49, "distance": 2070.852363008, "display_phone": "(832) 834-6157", "price": "$$", "rating": 4.5, "phone": "+18328346157", "id": "maba-pan-asian-diner-houston", "name": "Maba Pan-Asian Diner", "transactions": [], "url": "https://www.yelp.com/biz/maba-pan-asian-diner-houston?adjust_creative=8_C4NSGbL05eUQksKleGYw&utm_campaign=yelp_api_v3&utm_medium=api_v3_business_search&utm_source=8_C4NSGbL05eUQksKleGYw", "is_closed": false, "image_url": "https://s3-media2.fl.yelpcdn.com/bphoto/gxFE5pqIBavNNIhHF-ukoQ/o.jpg"}, {"coordinates": {"longitude": -95.25077, "latitude": 29.64977}, "categories": [{"alias": "mexican", "title": "Mexican"}, {"alias": "cocktailbars", "title": "Cocktail Bars"}], "location": {"display_address": ["9902 Gulf Fwy", "Houston, TX 77034"], "address3": "", "city": "Houston", "state": "TX", "address2": "", "address1": "9902 Gulf Fwy", "zip_code": "77034", "country": "US"}, "review_count": 292, "distance": 16437.99349014, "display_phone": "(832) 547-1240", "price": "$$", "rating": 4.0, "phone": "+18325471240", "id": "habanera-and-the-guero-houston-2", "name": "Habanera And The Guero", "transactions": ["pickup"], "url": "https://www.yelp.com/biz/habanera-and-the-guero-houston-2?adjust_creative=8_C4NSGbL05eUQksKleGYw&utm_campaign=yelp_api_v3&utm_medium=api_v3_business_search&utm_source=8_C4NSGbL05eUQksKleGYw", "is_closed": false, "image_url": "https://s3-media1.fl.yelpcdn.com/bphoto/_StLEnWJLEj0BN9U_0yZVw/o.jpg"}, {"coordinates": {"longitude": -95.36313, "latitude": 29.75862}, "categories": [{"alias": "southafrican", "title": "South African"}, {"alias": "gastropubs", "title": "Gastropubs"}, {"alias": "cocktailbars", "title": "Cocktail Bars"}], "location": {"display_address": ["711 Main St", "Unit 1", "Houston, TX 77002"], "address3": "", "city": "Houston", "state": "TX", "address2": "Unit 1", "address1": "711 Main St", "zip_code": "77002", "country": "US"}, "review_count": 310, "distance": 577.3187635075999, "display_phone": "(832) 767-5574", "price": "$$", "rating": 4.0, "phone": "+18327675574", "id": "the-springbok-houston", "name": "The Springbok", "transactions": ["pickup"], "url": "https://www.yelp.com/biz/the-springbok-houston?adjust_creative=8_C4NSGbL05eUQksKleGYw&utm_campaign=yelp_api_v3&utm_medium=api_v3_business_search&utm_source=8_C4NSGbL05eUQksKleGYw", "is_closed": false, "image_url": "https://s3-media1.fl.yelpcdn.com/bphoto/e2kn17Gfa-VCxXsTAgbZ9w/o.jpg"}, {"coordinates": {"longitude": -95.3621543826332, "latitude": 29.7634727117342}, "categories": [{"alias": "seafood", "title": "Seafood"}, {"alias": "mexican", "title": "Mexican"}, {"alias": "salad", "title": "Salad"}], "location": {"display_address": ["213 Milam St", "Houston, TX 77002"], "address3": "", "city": "Houston", "state": "TX", "address2": "", "address1": "213 Milam St", "zip_code": "77002", "country": "US"}, "review_count": 174, "distance": 217.8715801564, "display_phone": "(713) 802-1712", "price": "$$", "rating": 4.5, "phone": "+17138021712", "id": "la-fisheria-houston-4", "name": "La Fisheria", "transactions": ["pickup"], "url": "https://www.yelp.com/biz/la-fisheria-houston-4?adjust_creative=8_C4NSGbL05eUQksKleGYw&utm_campaign=yelp_api_v3&utm_medium=api_v3_business_search&utm_source=8_C4NSGbL05eUQksKleGYw", "is_closed": false, "image_url": "https://s3-media2.fl.yelpcdn.com/bphoto/bBgg957MiEG83gnC9j62_g/o.jpg"}, {"coordinates": {"longitude": -95.4640101607907, "latitude": 29.7397965769971}, "categories": [{"alias": "southafrican", "title": "South African"}, {"alias": "newamerican", "title": "American (New)"}, {"alias": "seafood", "title": "Seafood"}], "location": {"display_address": ["5085 Westheimer Rd", "Ste B2515", "Houston, TX 77056"], "address3": "", "city": "Houston", "state": "TX", "address2": "Ste B2515", "address1": "5085 Westheimer Rd", "zip_code": "77056", "country": "US"}, "review_count": 857, "distance": 10372.23975218, "display_phone": "(281) 257-9500", "price": "$$$", "rating": 4.5, "phone": "+12812579500", "id": "peli-peli-houston-5", "name": "Peli Peli", "transactions": ["pickup"], "url": "https://www.yelp.com/biz/peli-peli-houston-5?adjust_creative=8_C4NSGbL05eUQksKleGYw&utm_campaign=yelp_api_v3&utm_medium=api_v3_business_search&utm_source=8_C4NSGbL05eUQksKleGYw", "is_closed": false, "image_url": "https://s3-media1.fl.yelpcdn.com/bphoto/T5tU-aK5PzzVZLmVIgr05Q/o.jpg"}, {"coordinates": {"longitude": -95.4620253208921, "latitude": 29.7485868638914}, "categories": [{"alias": "pizza", "title": "Pizza"}, {"alias": "italian", "title": "Italian"}], "location": {"display_address": ["1700 Post Oak Blvd", "Ste 190", "Houston, TX 77056"], "address3": "", "city": "Houston", "state": "TX", "address2": "Ste 190", "address1": "1700 Post Oak Blvd", "zip_code": "77056", "country": "US"}, "review_count": 671, "distance": 9983.47953508, "display_phone": "(281) 605-4030", "price": "$$", "rating": 4.0, "phone": "+12816054030", "id": "north-italia-houston", "name": "North Italia", "transactions": [], "url": "https://www.yelp.com/biz/north-italia-houston?adjust_creative=8_C4NSGbL05eUQksKleGYw&utm_campaign=yelp_api_v3&utm_medium=api_v3_business_search&utm_source=8_C4NSGbL05eUQksKleGYw", "is_closed": false, "image_url": "https://s3-media1.fl.yelpcdn.com/bphoto/Yq5EtffmXXEdyyZehWnHPw/o.jpg"}, {"coordinates": {"longitude": -95.372068, "latitude": 29.770945}, "categories": [{"alias": "burgers", "title": "Burgers"}, {"alias": "tradamerican", "title": "American (Traditional)"}, {"alias": "bars", "title": "Bars"}], "location": {"display_address": ["1420 Edwards St", "Houston, TX 77007"], "address3": "", "city": "Houston", "state": "TX", "address2": "", "address1": "1420 Edwards St", "zip_code": "77007", "country": "US"}, "review_count": 796, "distance": 1463.890747612, "display_phone": "(713) 227-4893", "price": "$", "rating": 4.0, "phone": "+17132274893", "id": "stantons-city-bites-houston", "name": "Stanton's City Bites", "transactions": [], "url": "https://www.yelp.com/biz/stantons-city-bites-houston?adjust_creative=8_C4NSGbL05eUQksKleGYw&utm_campaign=yelp_api_v3&utm_medium=api_v3_business_search&utm_source=8_C4NSGbL05eUQksKleGYw", "is_closed": false, "image_url": "https://s3-media2.fl.yelpcdn.com/bphoto/54W-Qpa2mGPVoVX17GM5QA/o.jpg"}, {"coordinates": {"longitude": -95.38634, "latitude": 29.74799}, "categories": [{"alias": "szechuan", "title": "Szechuan"}], "location": {"display_address": ["315 Fairview St", "Houston, TX 77006"], "address3": "", "city": "Houston", "state": "TX", "address2": null, "address1": "315 Fairview St", "zip_code": "77006", "country": "US"}, "review_count": 446, "distance": 3047.15251945, "display_phone": "(832) 649-7175", "price": "$$", "rating": 4.0, "phone": "+18326497175", "id": "pepper-twins-houston-4", "name": "Pepper Twins", "transactions": ["pickup"], "url": "https://www.yelp.com/biz/pepper-twins-houston-4?adjust_creative=8_C4NSGbL05eUQksKleGYw&utm_campaign=yelp_api_v3&utm_medium=api_v3_business_search&utm_source=8_C4NSGbL05eUQksKleGYw", "is_closed": false, "image_url": "https://s3-media1.fl.yelpcdn.com/bphoto/CMN5hBBDJH04gqoFj-kySQ/o.jpg"}, {"coordinates": {"longitude": -95.3391623497009, "latitude": 29.7183427959681}, "categories": [{"alias": "asianfusion", "title": "Asian Fusion"}, {"alias": "sandwiches", "title": "Sandwiches"}], "location": {"display_address": ["4835 Calhoun Rd", "Ste E", "Houston, TX 77004"], "address3": "", "city": "Houston", "state": "TX", "address2": "Ste E", "address1": "4835 Calhoun Rd", "zip_code": "77004", "country": "US"}, "review_count": 10, "distance": 5337.3442450679995, "display_phone": "(713) 360-7748", "price": "$", "rating": 4.0, "phone": "+17133607748", "id": "fat-bao-houston-4", "name": "Fat Bao", "transactions": [], "url": "https://www.yelp.com/biz/fat-bao-houston-4?adjust_creative=8_C4NSGbL05eUQksKleGYw&utm_campaign=yelp_api_v3&utm_medium=api_v3_business_search&utm_source=8_C4NSGbL05eUQksKleGYw", "is_closed": false, "image_url": "https://s3-media2.fl.yelpcdn.com/bphoto/_ox-JrrrXlKe1ugPtZH-Lw/o.jpg"}, {"coordinates": {"longitude": -95.4091979996731, "latitude": 29.7902465650345}, "categories": [{"alias": "korean", "title": "Korean"}, {"alias": "gastropubs", "title": "Gastropubs"}, {"alias": "cocktailbars", "title": "Cocktail Bars"}], "location": {"display_address": ["1221 W 11th St", "Houston, TX 77008"], "address3": "", "city": "Houston", "state": "TX", "address2": null, "address1": "1221 W 11th St", "zip_code": "77008", "country": "US"}, "review_count": 232, "distance": 5634.43774324, "display_phone": "(832) 649-3601", "price": "$$", "rating": 4.0, "phone": "+18326493601", "id": "republic-diner-sojubang-houston-4", "name": "Republic Diner + Sojubang", "transactions": [], "url": "https://www.yelp.com/biz/republic-diner-sojubang-houston-4?adjust_creative=8_C4NSGbL05eUQksKleGYw&utm_campaign=yelp_api_v3&utm_medium=api_v3_business_search&utm_source=8_C4NSGbL05eUQksKleGYw", "is_closed": false, "image_url": "https://s3-media2.fl.yelpcdn.com/bphoto/A69_dM3bQq-GBvZCHANMqA/o.jpg"}, {"coordinates": {"longitude": -95.5451280889549, "latitude": 29.7956689067855}, "categories": [{"alias": "vietnamese", "title": "Vietnamese"}, {"alias": "sandwiches", "title": "Sandwiches"}, {"alias": "vegetarian", "title": "Vegetarian"}], "location": {"display_address": ["1411 Gessner Rd", "Ste I", "Houston, TX 77080"], "address3": "", "city": "Houston", "state": "TX", "address2": "Ste I", "address1": "1411 Gessner Rd", "zip_code": "77080", "country": "US"}, "review_count": 811, "distance": 18236.12838422, "display_phone": "(832) 649-8955", "price": "$", "rating": 4.5, "phone": "+18326498955", "id": "roostar-vietnamese-grill-houston-2", "name": "Roostar Vietnamese Grill", "transactions": ["delivery", "pickup"], "url": "https://www.yelp.com/biz/roostar-vietnamese-grill-houston-2?adjust_creative=8_C4NSGbL05eUQksKleGYw&utm_campaign=yelp_api_v3&utm_medium=api_v3_business_search&utm_source=8_C4NSGbL05eUQksKleGYw", "is_closed": false, "image_url": "https://s3-media4.fl.yelpcdn.com/bphoto/yihMPzM9cJTZXBqmBSV1rg/o.jpg"}, {"coordinates": {"longitude": -95.4018420158691, "latitude": 29.7610702114268}, "categories": [{"alias": "newamerican", "title": "American (New)"}, {"alias": "breakfast_brunch", "title": "Breakfast & Brunch"}, {"alias": "sandwiches", "title": "Sandwiches"}], "location": {"display_address": ["3422 Allen Pkwy", "Houston, TX 77019"], "address3": "", "city": "Houston", "state": "TX", "address2": "", "address1": "3422 Allen Pkwy", "zip_code": "77019", "country": "US"}, "review_count": 307, "distance": 4048.9344826499996, "display_phone": "(713) 360-6477", "price": "$$", "rating": 4.0, "phone": "+17133606477", "id": "the-kitchen-at-the-dunlavy-houston-3", "name": "The Kitchen at The Dunlavy", "transactions": [], "url": "https://www.yelp.com/biz/the-kitchen-at-the-dunlavy-houston-3?adjust_creative=8_C4NSGbL05eUQksKleGYw&utm_campaign=yelp_api_v3&utm_medium=api_v3_business_search&utm_source=8_C4NSGbL05eUQksKleGYw", "is_closed": false, "image_url": "https://s3-media4.fl.yelpcdn.com/bphoto/f1XQoP08mBNQJ_kKnykAFA/o.jpg"}, {"coordinates": {"longitude": -95.4623664952454, "latitude": 29.7498408390785}, "categories": [{"alias": "newamerican", "title": "American (New)"}, {"alias": "vegan", "title": "Vegan"}, {"alias": "vegetarian", "title": "Vegetarian"}], "location": {"display_address": ["1700 Post Oak Blvd", "Ste 180", "Houston, TX 77056"], "address3": "", "city": "Houston", "state": "TX", "address2": "Ste 180", "address1": "1700 Post Oak Blvd", "zip_code": "77056", "country": "US"}, "review_count": 540, "distance": 9993.98208792, "display_phone": "(281) 605-2505", "price": "$$", "rating": 4.0, "phone": "+12816052505", "id": "true-food-kitchen-houston", "name": "True Food Kitchen", "transactions": [], "url": "https://www.yelp.com/biz/true-food-kitchen-houston?adjust_creative=8_C4NSGbL05eUQksKleGYw&utm_campaign=yelp_api_v3&utm_medium=api_v3_business_search&utm_source=8_C4NSGbL05eUQksKleGYw", "is_closed": false, "image_url": "https://s3-media2.fl.yelpcdn.com/bphoto/VbxWooQaH7NiGTDrz6oXiQ/o.jpg"}, {"coordinates": {"longitude": -95.409874, "latitude": 29.73196}, "categories": [{"alias": "tapasmallplates", "title": "Tapas/Small Plates"}, {"alias": "asianfusion", "title": "Asian Fusion"}], "location": {"display_address": ["2003 Lexington St", "Houston, TX 77098"], "address3": "", "city": "Houston", "state": "TX", "address2": "", "address1": "2003 Lexington St", "zip_code": "77098", "country": "US"}, "review_count": 557, "distance": 5929.362172959999, "display_phone": "(832) 649-4636", "price": "$$", "rating": 4.0, "phone": "+18326494636", "id": "ambrosia-houston", "name": "Ambrosia", "transactions": [], "url": "https://www.yelp.com/biz/ambrosia-houston?adjust_creative=8_C4NSGbL05eUQksKleGYw&utm_campaign=yelp_api_v3&utm_medium=api_v3_business_search&utm_source=8_C4NSGbL05eUQksKleGYw", "is_closed": false, "image_url": "https://s3-media4.fl.yelpcdn.com/bphoto/5rYmD56X6bU0FEUs7tYynw/o.jpg"}, {"coordinates": {"longitude": -95.4103317260742, "latitude": 29.8019371032715}, "categories": [{"alias": "southern", "title": "Southern"}, {"alias": "seafood", "title": "Seafood"}, {"alias": "cajun", "title": "Cajun/Creole"}], "location": {"display_address": ["1801 N Shepherd Dr", "Ste A", "Houston, TX 77008"], "address3": "", "city": "Houston", "state": "TX", "address2": "Ste A", "address1": "1801 N Shepherd Dr", "zip_code": "77008", "country": "US"}, "review_count": 186, "distance": 6508.296488519999, "display_phone": "(713) 864-2565", "price": "$$$", "rating": 3.5, "phone": "+17138642565", "id": "bernadines-houston", "name": "Bernadine's", "transactions": [], "url": "https://www.yelp.com/biz/bernadines-houston?adjust_creative=8_C4NSGbL05eUQksKleGYw&utm_campaign=yelp_api_v3&utm_medium=api_v3_business_search&utm_source=8_C4NSGbL05eUQksKleGYw", "is_closed": false, "image_url": "https://s3-media2.fl.yelpcdn.com/bphoto/054Y-qmSZMmZCZ93xIEKeg/o.jpg"}, {"coordinates": {"longitude": -95.4016983881593, "latitude": 29.8036819247959}, "categories": [{"alias": "asianfusion", "title": "Asian Fusion"}, {"alias": "chinese", "title": "Chinese"}, {"alias": "coffee", "title": "Coffee & Tea"}], "location": {"display_address": ["300 W 20th St", "Houston, TX 77008"], "address3": null, "city": "Houston", "state": "TX", "address2": "", "address1": "300 W 20th St", "zip_code": "77008", "country": "US"}, "review_count": 53, "distance": 6055.1514060399995, "display_phone": "(713) 993-6577", "price": "$", "rating": 4.0, "phone": "+17139936577", "id": "the-rice-box-houston-2", "name": "The Rice Box", "transactions": [], "url": "https://www.yelp.com/biz/the-rice-box-houston-2?adjust_creative=8_C4NSGbL05eUQksKleGYw&utm_campaign=yelp_api_v3&utm_medium=api_v3_business_search&utm_source=8_C4NSGbL05eUQksKleGYw", "is_closed": false, "image_url": "https://s3-media1.fl.yelpcdn.com/bphoto/QyJ8sLGAuK8i_1s0S9mfEQ/o.jpg"}, {"coordinates": {"longitude": -95.524949580431, "latitude": 29.8211845074517}, "categories": [{"alias": "chicken_wings", "title": "Chicken Wings"}, {"alias": "cajun", "title": "Cajun/Creole"}, {"alias": "seafood", "title": "Seafood"}], "location": {"display_address": ["9435 Kempwood Dr", "Houston, TX 77080"], "address3": null, "city": "Houston", "state": "TX", "address2": "", "address1": "9435 Kempwood Dr", "zip_code": "77080", "country": "US"}, "review_count": 20, "distance": 17184.86726272, "display_phone": "(832) 767-1624", "price": "$$", "rating": 5.0, "phone": "+18327671624", "id": "crab-ave-houston-3", "name": "Crab Ave", "transactions": [], "url": "https://www.yelp.com/biz/crab-ave-houston-3?adjust_creative=8_C4NSGbL05eUQksKleGYw&utm_campaign=yelp_api_v3&utm_medium=api_v3_business_search&utm_source=8_C4NSGbL05eUQksKleGYw", "is_closed": false, "image_url": "https://s3-media3.fl.yelpcdn.com/bphoto/NI-8KnEI1-djxg51QphTCw/o.jpg"}, {"coordinates": {"longitude": -95.3854751586914, "latitude": 29.7518272399902}, "categories": [{"alias": "indpak", "title": "Indian"}, {"alias": "tradamerican", "title": "American (Traditional)"}, {"alias": "comfortfood", "title": "Comfort Food"}], "location": {"display_address": ["1901 Taft St", "Houston, TX 77006"], "address3": "", "city": "Houston", "state": "TX", "address2": null, "address1": "1901 Taft St", "zip_code": "77006", "country": "US"}, "review_count": 87, "distance": 2765.576921294, "display_phone": "(713) 485-6724", "price": "$$", "rating": 4.0, "phone": "+17134856724", "id": "cowboys-and-indians-tex-in-kitchen-houston", "name": "Cowboys & Indians Tex-In Kitchen", "transactions": ["pickup"], "url": "https://www.yelp.com/biz/cowboys-and-indians-tex-in-kitchen-houston?adjust_creative=8_C4NSGbL05eUQksKleGYw&utm_campaign=yelp_api_v3&utm_medium=api_v3_business_search&utm_source=8_C4NSGbL05eUQksKleGYw", "is_closed": false, "image_url": "https://s3-media1.fl.yelpcdn.com/bphoto/XwcMYa9DSPlFgU_g8ByNbg/o.jpg"}, {"coordinates": {"longitude": -95.3650894, "latitude": 29.7601566}, "categories": [{"alias": "italian", "title": "Italian"}], "location": {"display_address": ["700 Milam St", "Houston, TX 77002"], "address3": "", "city": "Houston", "state": "TX", "address2": "", "address1": "700 Milam St", "zip_code": "77002", "country": "US"}, "review_count": 110, "distance": 618.0685397796, "display_phone": "(713) 224-2422", "price": "$$", "rating": 4.0, "phone": "+17132242422", "id": "perbacco-houston", "name": "Perbacco", "transactions": [], "url": "https://www.yelp.com/biz/perbacco-houston?adjust_creative=8_C4NSGbL05eUQksKleGYw&utm_campaign=yelp_api_v3&utm_medium=api_v3_business_search&utm_source=8_C4NSGbL05eUQksKleGYw", "is_closed": false, "image_url": "https://s3-media4.fl.yelpcdn.com/bphoto/s0P_oX8mrIOMEEi83zX93A/o.jpg"}, {"coordinates": {"longitude": -95.4497998117782, "latitude": 29.7469456093221}, "categories": [{"alias": "newamerican", "title": "American (New)"}, {"alias": "seafood", "title": "Seafood"}, {"alias": "breakfast_brunch", "title": "Breakfast & Brunch"}], "location": {"display_address": ["4224 San Felipe", "Houston, TX 77027"], "address3": "", "city": "Houston", "state": "TX", "address2": "", "address1": "4224 San Felipe", "zip_code": "77027", "country": "US"}, "review_count": 495, "distance": 8855.377256599999, "display_phone": "(713) 622-1010", "price": "$$", "rating": 4.0, "phone": "+17136221010", "id": "liberty-kitchen-and-oysterette-houston", "name": "Liberty Kitchen & Oysterette", "transactions": [], "url": "https://www.yelp.com/biz/liberty-kitchen-and-oysterette-houston?adjust_creative=8_C4NSGbL05eUQksKleGYw&utm_campaign=yelp_api_v3&utm_medium=api_v3_business_search&utm_source=8_C4NSGbL05eUQksKleGYw", "is_closed": false, "image_url": "https://s3-media2.fl.yelpcdn.com/bphoto/KAJ4EbBJyWplMlSOwsJlww/o.jpg"}, {"coordinates": {"longitude": -95.4774162, "latitude": 29.6764405}, "categories": [{"alias": "kosher", "title": "Kosher"}, {"alias": "mideastern", "title": "Middle Eastern"}, {"alias": "chinese", "title": "Chinese"}], "location": {"display_address": ["5413 S Braeswood Blvd", "Houston, TX 77096"], "address3": null, "city": "Houston", "state": "TX", "address2": "", "address1": "5413 S Braeswood Blvd", "zip_code": "77096", "country": "US"}, "review_count": 24, "distance": 14928.648221700001, "display_phone": "(832) 834-5595", "price": "$$", "rating": 4.5, "phone": "+18328345595", "id": "sabas-grill-and-wok-houston", "name": "Saba's Grill & Wok", "transactions": [], "url": "https://www.yelp.com/biz/sabas-grill-and-wok-houston?adjust_creative=8_C4NSGbL05eUQksKleGYw&utm_campaign=yelp_api_v3&utm_medium=api_v3_business_search&utm_source=8_C4NSGbL05eUQksKleGYw", "is_closed": false, "image_url": "https://s3-media2.fl.yelpcdn.com/bphoto/tkW6xprb60zWIiy97TTYCQ/o.jpg"}, {"coordinates": {"longitude": -95.416392, "latitude": 29.719421}, "categories": [{"alias": "lounges", "title": "Lounges"}, {"alias": "newamerican", "title": "American (New)"}], "location": {"display_address": ["2424 Dunstan Rd", "Ste 125", "Houston, TX 77005"], "address3": "", "city": "Houston", "state": "TX", "address2": "Ste 125", "address1": "2424 Dunstan Rd", "zip_code": "77005", "country": "US"}, "review_count": 853, "distance": 7293.5443296640005, "display_phone": "(713) 522-7602", "price": "$$", "rating": 4.0, "phone": "+17135227602", "id": "benjys-houston-3", "name": "benjy's", "transactions": [], "url": "https://www.yelp.com/biz/benjys-houston-3?adjust_creative=8_C4NSGbL05eUQksKleGYw&utm_campaign=yelp_api_v3&utm_medium=api_v3_business_search&utm_source=8_C4NSGbL05eUQksKleGYw", "is_closed": false, "image_url": "https://s3-media2.fl.yelpcdn.com/bphoto/x-gXoK2gpsV6xqYSh_1mvA/o.jpg"}, {"coordinates": {"longitude": -95.4220886230469, "latitude": 29.8062839508057}, "categories": [{"alias": "italian", "title": "Italian"}, {"alias": "wine_bars", "title": "Wine Bars"}], "location": {"display_address": ["2220 Bevis St", "Houston, TX 77008"], "address3": "", "city": "Houston", "state": "TX", "address2": "", "address1": "2220 Bevis St", "zip_code": "77008", "country": "US"}, "review_count": 605, "distance": 7687.177789217999, "display_phone": "(713) 360-0222", "price": "$$", "rating": 4.0, "phone": "+17133600222", "id": "crisp-heights-houston", "name": "Crisp Heights", "transactions": [], "url": "https://www.yelp.com/biz/crisp-heights-houston?adjust_creative=8_C4NSGbL05eUQksKleGYw&utm_campaign=yelp_api_v3&utm_medium=api_v3_business_search&utm_source=8_C4NSGbL05eUQksKleGYw", "is_closed": false, "image_url": "https://s3-media1.fl.yelpcdn.com/bphoto/BD2ctahNPRbaZcN6HrGmOA/o.jpg"}, {"coordinates": {"longitude": -95.4176483154297, "latitude": 29.7608470916748}, "categories": [{"alias": "peruvian", "title": "Peruvian"}, {"alias": "argentine", "title": "Argentine"}, {"alias": "seafood", "title": "Seafood"}], "location": {"display_address": ["5535 Memorial Dr", "Ste G", "Houston, TX 77007"], "address3": null, "city": "Houston", "state": "TX", "address2": "Ste G", "address1": "5535 Memorial Dr", "zip_code": "77007", "country": "US"}, "review_count": 69, "distance": 5574.283349918, "display_phone": "(713) 426-6400", "price": "$$", "rating": 4.5, "phone": "+17134266400", "id": "che-inka-houston", "name": "Che Inka", "transactions": [], "url": "https://www.yelp.com/biz/che-inka-houston?adjust_creative=8_C4NSGbL05eUQksKleGYw&utm_campaign=yelp_api_v3&utm_medium=api_v3_business_search&utm_source=8_C4NSGbL05eUQksKleGYw", "is_closed": false, "image_url": "https://s3-media3.fl.yelpcdn.com/bphoto/Dh_FuDuQFmxLaQq8hW-4Zw/o.jpg"}, {"coordinates": {"longitude": -95.5527107, "latitude": 29.7061508}, "categories": [{"alias": "chinese", "title": "Chinese"}, {"alias": "halal", "title": "Halal"}, {"alias": "mediterranean", "title": "Mediterranean"}], "location": {"display_address": ["9888 Bellaire Blvd", "Ste 168", "Houston, TX 77036"], "address3": "", "city": "Houston", "state": "TX", "address2": "Ste 168", "address1": "9888 Bellaire Blvd", "zip_code": "77036", "country": "US"}, "review_count": 116, "distance": 19656.58175776, "display_phone": "(832) 795-9259", "price": "$$", "rating": 4.5, "phone": "+18327959259", "id": "uyghur-bistro-houston", "name": "Uyghur Bistro", "transactions": ["pickup"], "url": "https://www.yelp.com/biz/uyghur-bistro-houston?adjust_creative=8_C4NSGbL05eUQksKleGYw&utm_campaign=yelp_api_v3&utm_medium=api_v3_business_search&utm_source=8_C4NSGbL05eUQksKleGYw", "is_closed": false, "image_url": "https://s3-media1.fl.yelpcdn.com/bphoto/QRBr2E0YHrq-8XuM_CPK_Q/o.jpg"}, {"coordinates": {"longitude": -95.3780899047852, "latitude": 29.7238597869873}, "categories": [{"alias": "comfortfood", "title": "Comfort Food"}, {"alias": "cookingclasses", "title": "Cooking Classes"}, {"alias": "eventplanning", "title": "Party & Event Planning"}], "location": {"display_address": ["5015 Almeda", "Houston, TX 77004"], "address3": "", "city": "Houston", "state": "TX", "address2": null, "address1": "5015 Almeda", "zip_code": "77004", "country": "US"}, "review_count": 5, "distance": 4693.775777362, "display_phone": "(832) 581-0516", "rating": 5.0, "phone": "+18325810516", "id": "ettas-little-kitchen-houston-3", "name": "Etta's Little Kitchen", "transactions": [], "url": "https://www.yelp.com/biz/ettas-little-kitchen-houston-3?adjust_creative=8_C4NSGbL05eUQksKleGYw&utm_campaign=yelp_api_v3&utm_medium=api_v3_business_search&utm_source=8_C4NSGbL05eUQksKleGYw", "is_closed": false, "image_url": "https://s3-media2.fl.yelpcdn.com/bphoto/mauzi8xuVz6HaX87qBvpgw/o.jpg"}], "region": {"center": {"longitude": -95.35995483398438, "latitude": 29.763025675716687}}, "total": 11137}