{"region": {"center": {"longitude": -71.07124328613281, "latitude": 42.34784169448538}}, "businesses": [{"rating": 4.0, "display_phone": "(617) 423-7888", "price": "$$", "categories": [{"title": "Asian Fusion", "alias": "asianfusion"}, {"title": "Japanese", "alias": "japanese"}, {"title": "Tapas Bars", "alias": "tapas"}], "coordinates": {"longitude": -71.0607028752565, "latitude": 42.3510322719812}, "is_closed": false, "name": "Shojo", "distance": 936.6873305997999, "review_count": 536, "id": "shojo-boston-2", "location": {"display_address": ["9A Tyler St", "Boston, MA 02111"], "state": "MA", "city": "Boston", "address2": "", "country": "US", "zip_code": "02111", "address1": "9A Tyler St", "address3": ""}, "url": "https://www.yelp.com/biz/shojo-boston-2?adjust_creative=8_C4NSGbL05eUQksKleGYw&utm_campaign=yelp_api_v3&utm_medium=api_v3_business_search&utm_source=8_C4NSGbL05eUQksKleGYw", "transactions": [], "phone": "+16174237888", "image_url": "https://s3-media1.fl.yelpcdn.com/bphoto/8KiRiDfoonaUSQQghT0npQ/o.jpg"}, {"rating": 4.0, "display_phone": "(617) 262-5377", "price": "$$", "categories": [{"title": "Vietnamese", "alias": "vietnamese"}, {"title": "Thai", "alias": "thai"}, {"title": "Seafood", "alias": "seafood"}], "coordinates": {"longitude": -71.0873718261719, "latitude": 42.3457679748535}, "is_closed": false, "name": "Pho Basil", "distance": 1343.5251029857998, "review_count": 793, "id": "pho-basil-boston", "location": {"display_address": ["177 Massachusetts Ave", "Ste A", "Boston, MA 02115"], "state": "MA", "city": "Boston", "address2": "Ste A", "country": "US", "zip_code": "02115", "address1": "177 Massachusetts Ave", "address3": ""}, "url": "https://www.yelp.com/biz/pho-basil-boston?adjust_creative=8_C4NSGbL05eUQksKleGYw&utm_campaign=yelp_api_v3&utm_medium=api_v3_business_search&utm_source=8_C4NSGbL05eUQksKleGYw", "transactions": ["delivery"], "phone": "+16172625377", "image_url": "https://s3-media1.fl.yelpcdn.com/bphoto/sRASmyQ-S7MRgZfCi4q4OA/o.jpg"}, {"rating": 4.0, "display_phone": "(617) 391-0902", "price": "$$$", "categories": [{"title": "Italian", "alias": "italian"}, {"title": "Tapas/Small Plates", "alias": "tapasmallplates"}, {"title": "Wine Bars", "alias": "wine_bars"}], "coordinates": {"longitude": -71.0684599315418, "latitude": 42.3434049842376}, "is_closed": false, "name": "Coppa", "distance": 543.8161510302, "review_count": 655, "id": "coppa-boston-2", "location": {"display_address": ["253 Shawmut Ave", "Boston, MA 02118"], "state": "MA", "city": "Boston", "address2": "", "country": "US", "zip_code": "02118", "address1": "253 Shawmut Ave", "address3": ""}, "url": "https://www.yelp.com/biz/coppa-boston-2?adjust_creative=8_C4NSGbL05eUQksKleGYw&utm_campaign=yelp_api_v3&utm_medium=api_v3_business_search&utm_source=8_C4NSGbL05eUQksKleGYw", "transactions": ["delivery"], "phone": "+16173910902", "image_url": "https://s3-media1.fl.yelpcdn.com/bphoto/WxgO4Te0H5ycUqkOWSVA6A/o.jpg"}, {"rating": 4.5, "display_phone": "(617) 266-0900", "price": "$", "categories": [{"title": "Spanish", "alias": "spanish"}, {"title": "Puerto Rican", "alias": "puertorican"}], "coordinates": {"longitude": -71.0755717009306, "latitude": 42.3412831127644}, "is_closed": false, "name": "Man\u00e1 Escondido Caf\u00e9", "distance": 780.9674795459999, "review_count": 51, "id": "man\u00e1-escondido-caf\u00e9-boston-3", "location": {"display_address": ["68 Aguadilla St", "Boston, MA 02118"], "state": "MA", "city": "Boston", "address2": "", "country": "US", "zip_code": "02118", "address1": "68 Aguadilla St", "address3": ""}, "url": "https://www.yelp.com/biz/man%C3%A1-escondido-caf%C3%A9-boston-3?adjust_creative=8_C4NSGbL05eUQksKleGYw&utm_campaign=yelp_api_v3&utm_medium=api_v3_business_search&utm_source=8_C4NSGbL05eUQksKleGYw", "transactions": [], "phone": "+16172660900", "image_url": "https://s3-media3.fl.yelpcdn.com/bphoto/XguCh8kjcttNi4v6Fx6Zpw/o.jpg"}, {"rating": 4.5, "display_phone": "(617) 877-8690", "price": "$", "categories": [{"title": "Sandwiches", "alias": "sandwiches"}, {"title": "Burgers", "alias": "burgers"}, {"title": "Delis", "alias": "delis"}], "coordinates": {"longitude": -71.1236789566271, "latitude": 42.351783181146}, "is_closed": false, "name": "Roast Beast", "distance": 4331.3759057259995, "review_count": 383, "id": "roast-beast-boston", "location": {"display_address": ["1080 Commonwealth Ave", "Boston, MA 02215"], "state": "MA", "city": "Boston", "address2": "", "country": "US", "zip_code": "02215", "address1": "1080 Commonwealth Ave", "address3": ""}, "url": "https://www.yelp.com/biz/roast-beast-boston?adjust_creative=8_C4NSGbL05eUQksKleGYw&utm_campaign=yelp_api_v3&utm_medium=api_v3_business_search&utm_source=8_C4NSGbL05eUQksKleGYw", "transactions": [], "phone": "+16178778690", "image_url": "https://s3-media1.fl.yelpcdn.com/bphoto/IEiinc3arYe03yP-LX2rZQ/o.jpg"}, {"rating": 4.5, "display_phone": "(617) 482-1722", "categories": [{"title": "Parks", "alias": "parks"}], "coordinates": {"longitude": -71.05526, "latitude": 42.36549}, "is_closed": false, "name": "HarborWalk", "distance": 2367.871992474, "review_count": 41, "id": "harborwalk-boston", "location": {"display_address": ["Boston, MA 02113"], "state": "MA", "city": "Boston", "address2": "", "country": "US", "zip_code": "02113", "address1": "", "address3": ""}, "url": "https://www.yelp.com/biz/harborwalk-boston?adjust_creative=8_C4NSGbL05eUQksKleGYw&utm_campaign=yelp_api_v3&utm_medium=api_v3_business_search&utm_source=8_C4NSGbL05eUQksKleGYw", "transactions": [], "phone": "+16174821722", "image_url": "https://s3-media2.fl.yelpcdn.com/bphoto/oWrU1eO0T6YV_T7UQLmWZg/o.jpg"}, {"rating": 4.5, "display_phone": "(857) 350-4606", "price": "$", "categories": [{"title": "Mediterranean", "alias": "mediterranean"}, {"title": "Bakeries", "alias": "bakeries"}, {"title": "Food Delivery Services", "alias": "fooddeliveryservices"}], "coordinates": {"longitude": -71.0586968, "latitude": 42.3556009}, "is_closed": false, "name": "Bonapita", "distance": 1344.1454391821999, "review_count": 147, "id": "bonapita-boston-2", "location": {"display_address": ["49 Franklin St", "Boston, MA 02110"], "state": "MA", "city": "Boston", "address2": "", "country": "US", "zip_code": "02110", "address1": "49 Franklin St", "address3": ""}, "url": "https://www.yelp.com/biz/bonapita-boston-2?adjust_creative=8_C4NSGbL05eUQksKleGYw&utm_campaign=yelp_api_v3&utm_medium=api_v3_business_search&utm_source=8_C4NSGbL05eUQksKleGYw", "transactions": ["delivery", "pickup"], "phone": "+18573504606", "image_url": "https://s3-media2.fl.yelpcdn.com/bphoto/eenK8RVMx2ceBU0MFwYbCQ/o.jpg"}, {"rating": 4.0, "display_phone": "(617) 423-0550", "price": "$$$", "categories": [{"title": "Seafood", "alias": "seafood"}, {"title": "Italian", "alias": "italian"}], "coordinates": {"longitude": -71.0712432861328, "latitude": 42.343879699707}, "is_closed": false, "name": "B & G Oysters", "distance": 439.44879441, "review_count": 840, "id": "b-and-g-oysters-boston", "location": {"display_address": ["550 Tremont St", "Boston, MA 02116"], "state": "MA", "city": "Boston", "address2": "", "country": "US", "zip_code": "02116", "address1": "550 Tremont St", "address3": ""}, "url": "https://www.yelp.com/biz/b-and-g-oysters-boston?adjust_creative=8_C4NSGbL05eUQksKleGYw&utm_campaign=yelp_api_v3&utm_medium=api_v3_business_search&utm_source=8_C4NSGbL05eUQksKleGYw", "transactions": [], "phone": "+16174230550", "image_url": "https://s3-media2.fl.yelpcdn.com/bphoto/OZjIHnVj5ffvkp2_578UyQ/o.jpg"}, {"rating": 4.0, "display_phone": "(617) 936-3464", "price": "$$", "categories": [{"title": "Salad", "alias": "salad"}, {"title": "Vegetarian", "alias": "vegetarian"}], "coordinates": {"longitude": -71.078664958477, "latitude": 42.3500286700385}, "is_closed": false, "name": "sweetgreen", "distance": 656.6841863709999, "review_count": 443, "id": "sweetgreen-boston", "location": {"display_address": ["659 Boylston St", "Boston, MA 02116"], "state": "MA", "city": "Boston", "address2": "", "country": "US", "zip_code": "02116", "address1": "659 Boylston St", "address3": ""}, "url": "https://www.yelp.com/biz/sweetgreen-boston?adjust_creative=8_C4NSGbL05eUQksKleGYw&utm_campaign=yelp_api_v3&utm_medium=api_v3_business_search&utm_source=8_C4NSGbL05eUQksKleGYw", "transactions": [], "phone": "+16179363464", "image_url": "https://s3-media1.fl.yelpcdn.com/bphoto/03XMn6TiWyWTQMf_fZuh_Q/o.jpg"}, {"rating": 4.0, "display_phone": "", "price": "$", "categories": [{"title": "Desserts", "alias": "desserts"}, {"title": "Chinese", "alias": "chinese"}], "coordinates": {"longitude": -71.0608778893948, "latitude": 42.3516293312528}, "is_closed": false, "name": "Egg Puffs", "distance": 950.476525868, "review_count": 145, "id": "egg-puffs-boston", "location": {"display_address": ["42 Beach St", "Boston, MA 02111"], "state": "MA", "city": "Boston", "address2": "", "country": "US", "zip_code": "02111", "address1": "42 Beach St", "address3": ""}, "url": "https://www.yelp.com/biz/egg-puffs-boston?adjust_creative=8_C4NSGbL05eUQksKleGYw&utm_campaign=yelp_api_v3&utm_medium=api_v3_business_search&utm_source=8_C4NSGbL05eUQksKleGYw", "transactions": [], "phone": "", "image_url": "https://s3-media1.fl.yelpcdn.com/bphoto/hqtmnPThMN7tBlBxz3tDGA/o.jpg"}, {"rating": 4.5, "display_phone": "(617) 450-2000", "categories": [{"title": "Churches", "alias": "churches"}, {"title": "Museums", "alias": "museums"}, {"title": "Landmarks & Historical Buildings", "alias": "landmarks"}], "coordinates": {"longitude": -71.084479140845, "latitude": 42.344110284178}, "is_closed": false, "name": "The Christian Science Plaza", "distance": 1164.4224590558001, "review_count": 76, "id": "the-christian-science-plaza-boston", "location": {"display_address": ["210 Massachusetts Ave", "Boston, MA 02115"], "state": "MA", "city": "Boston", "address2": "", "country": "US", "zip_code": "02115", "address1": "210 Massachusetts Ave", "address3": ""}, "url": "https://www.yelp.com/biz/the-christian-science-plaza-boston?adjust_creative=8_C4NSGbL05eUQksKleGYw&utm_campaign=yelp_api_v3&utm_medium=api_v3_business_search&utm_source=8_C4NSGbL05eUQksKleGYw", "transactions": [], "phone": "+16174502000", "image_url": "https://s3-media3.fl.yelpcdn.com/bphoto/slRwOpMD7GGYloXzNTM6tQ/o.jpg"}, {"rating": 4.0, "display_phone": "(617) 695-1806", "price": "$$$", "categories": [{"title": "Lounges", "alias": "lounges"}, {"title": "American (New)", "alias": "newamerican"}], "coordinates": {"longitude": -71.04846, "latitude": 42.35067}, "is_closed": false, "name": "Drink", "distance": 1893.4548148079998, "review_count": 1326, "id": "drink-boston", "location": {"display_address": ["348 Congress St", "Boston, MA 02228"], "state": "MA", "city": "Boston", "address2": "", "country": "US", "zip_code": "02228", "address1": "348 Congress St", "address3": ""}, "url": "https://www.yelp.com/biz/drink-boston?adjust_creative=8_C4NSGbL05eUQksKleGYw&utm_campaign=yelp_api_v3&utm_medium=api_v3_business_search&utm_source=8_C4NSGbL05eUQksKleGYw", "transactions": [], "phone": "+16176951806", "image_url": "https://s3-media4.fl.yelpcdn.com/bphoto/j32zPQjRn2AsdGGMoyv04A/o.jpg"}, {"rating": 4.0, "display_phone": "(617) 585-6300", "price": "$$$", "categories": [{"title": "Brazilian", "alias": "brazilian"}, {"title": "Steakhouses", "alias": "steak"}, {"title": "Seafood", "alias": "seafood"}], "coordinates": {"longitude": -71.077162199668, "latitude": 42.34880756427}, "is_closed": false, "name": "Fogo de Ch\u00e3o Brazilian Steakhouse", "distance": 498.23405782040004, "review_count": 501, "id": "fogo-de-ch\u00e3o-brazilian-steakhouse-boston-4", "location": {"display_address": ["200 Dartmouth St", "Boston, MA 02116"], "state": "MA", "city": "Boston", "address2": "", "country": "US", "zip_code": "02116", "address1": "200 Dartmouth St", "address3": ""}, "url": "https://www.yelp.com/biz/fogo-de-ch%C3%A3o-brazilian-steakhouse-boston-4?adjust_creative=8_C4NSGbL05eUQksKleGYw&utm_campaign=yelp_api_v3&utm_medium=api_v3_business_search&utm_source=8_C4NSGbL05eUQksKleGYw", "transactions": [], "phone": "+16175856300", "image_url": "https://s3-media2.fl.yelpcdn.com/bphoto/feRE6V5OndC5SA2XMmvHzA/o.jpg"}, {"rating": 4.5, "display_phone": "(857) 233-5805", "price": "$", "categories": [{"title": "Ice Cream & Frozen Yogurt", "alias": "icecream"}, {"title": "Coffee & Tea", "alias": "coffee"}, {"title": "Kosher", "alias": "kosher"}], "coordinates": {"longitude": -71.0887018, "latitude": 42.3470193}, "is_closed": false, "name": "J.P. Licks", "distance": 1437.4815425856, "review_count": 117, "id": "j-p-licks-boston-3", "location": {"display_address": ["1106 Boylston St", "Boston, MA 02215"], "state": "MA", "city": "Boston", "address2": "", "country": "US", "zip_code": "02215", "address1": "1106 Boylston St", "address3": ""}, "url": "https://www.yelp.com/biz/j-p-licks-boston-3?adjust_creative=8_C4NSGbL05eUQksKleGYw&utm_campaign=yelp_api_v3&utm_medium=api_v3_business_search&utm_source=8_C4NSGbL05eUQksKleGYw", "transactions": [], "phone": "+18572335805", "image_url": "https://s3-media4.fl.yelpcdn.com/bphoto/nQjS6pbThk8zuLBC9UrjXg/o.jpg"}, {"rating": 4.5, "display_phone": "(617) 241-0202", "price": "$", "categories": [{"title": "Italian", "alias": "italian"}], "coordinates": {"longitude": -71.05511, "latitude": 42.36609}, "is_closed": false, "name": "Theo's Cozy Corner", "distance": 2424.698753478, "review_count": 267, "id": "theos-cozy-corner-boston", "location": {"display_address": ["162 Salem St", "Boston, MA 02113"], "state": "MA", "city": "Boston", "address2": "", "country": "US", "zip_code": "02113", "address1": "162 Salem St", "address3": ""}, "url": "https://www.yelp.com/biz/theos-cozy-corner-boston?adjust_creative=8_C4NSGbL05eUQksKleGYw&utm_campaign=yelp_api_v3&utm_medium=api_v3_business_search&utm_source=8_C4NSGbL05eUQksKleGYw", "transactions": [], "phone": "+16172410202", "image_url": "https://s3-media1.fl.yelpcdn.com/bphoto/xrE5mnueu7LtoCqHXZ-UNw/o.jpg"}, {"rating": 4.0, "display_phone": "(617) 227-3434", "price": "$$$", "categories": [{"title": "Italian", "alias": "italian"}], "coordinates": {"longitude": -71.063289740014, "latitude": 42.3598607550211}, "is_closed": false, "name": "Grotto", "distance": 1487.2941883203998, "review_count": 671, "id": "grotto-boston", "location": {"display_address": ["37 Bowdoin St", "Boston, MA 02114"], "state": "MA", "city": "Boston", "address2": "", "country": "US", "zip_code": "02114", "address1": "37 Bowdoin St", "address3": ""}, "url": "https://www.yelp.com/biz/grotto-boston?adjust_creative=8_C4NSGbL05eUQksKleGYw&utm_campaign=yelp_api_v3&utm_medium=api_v3_business_search&utm_source=8_C4NSGbL05eUQksKleGYw", "transactions": [], "phone": "+16172273434", "image_url": "https://s3-media4.fl.yelpcdn.com/bphoto/-EfHjU10XYGCe92VbIreuA/o.jpg"}, {"rating": 4.5, "display_phone": "(617) 426-1822", "price": "$", "categories": [{"title": "Diners", "alias": "diners"}, {"title": "Sandwiches", "alias": "sandwiches"}, {"title": "Salad", "alias": "salad"}], "coordinates": {"longitude": -71.07046, "latitude": 42.34662}, "is_closed": false, "name": "Billy's Sub Shop", "distance": 147.20143096904, "review_count": 125, "id": "billys-sub-shop-boston", "location": {"display_address": ["57 Berkeley St", "Boston, MA 02116"], "state": "MA", "city": "Boston", "address2": "", "country": "US", "zip_code": "02116", "address1": "57 Berkeley St", "address3": ""}, "url": "https://www.yelp.com/biz/billys-sub-shop-boston?adjust_creative=8_C4NSGbL05eUQksKleGYw&utm_campaign=yelp_api_v3&utm_medium=api_v3_business_search&utm_source=8_C4NSGbL05eUQksKleGYw", "transactions": [], "phone": "+16174261822", "image_url": "https://s3-media4.fl.yelpcdn.com/bphoto/EVcB58jnRZbBDmSFQTjYSw/o.jpg"}, {"rating": 4.5, "display_phone": "(617) 487-1513", "price": "$", "categories": [{"title": "Coffee & Tea", "alias": "coffee"}], "coordinates": {"longitude": -71.083393, "latitude": 42.341943}, "is_closed": false, "name": "Farmer Horse Coffee", "distance": 1194.5808952, "review_count": 107, "id": "farmer-horse-coffee-boston", "location": {"display_address": ["374 Massachusetts Ave", "Boston, MA 02115"], "state": "MA", "city": "Boston", "address2": "", "country": "US", "zip_code": "02115", "address1": "374 Massachusetts Ave", "address3": ""}, "url": "https://www.yelp.com/biz/farmer-horse-coffee-boston?adjust_creative=8_C4NSGbL05eUQksKleGYw&utm_campaign=yelp_api_v3&utm_medium=api_v3_business_search&utm_source=8_C4NSGbL05eUQksKleGYw", "transactions": [], "phone": "+16174871513", "image_url": "https://s3-media3.fl.yelpcdn.com/bphoto/6lbBZJA-TPrZEyWdvydSWQ/o.jpg"}, {"rating": 4.0, "display_phone": "(617) 532-9100", "price": "$$$", "categories": [{"title": "American (New)", "alias": "newamerican"}, {"title": "Lounges", "alias": "lounges"}, {"title": "Breakfast & Brunch", "alias": "breakfast_brunch"}], "coordinates": {"longitude": -71.0960168391466, "latitude": 42.348740324378}, "is_closed": false, "name": "Eastern Standard Kitchen and Drinks", "distance": 2036.70506502, "review_count": 1541, "id": "eastern-standard-kitchen-and-drinks-boston-3", "location": {"display_address": ["528 Commonwealth Ave", "Boston, MA 02215"], "state": "MA", "city": "Boston", "address2": "", "country": "US", "zip_code": "02215", "address1": "528 Commonwealth Ave", "address3": ""}, "url": "https://www.yelp.com/biz/eastern-standard-kitchen-and-drinks-boston-3?adjust_creative=8_C4NSGbL05eUQksKleGYw&utm_campaign=yelp_api_v3&utm_medium=api_v3_business_search&utm_source=8_C4NSGbL05eUQksKleGYw", "transactions": [], "phone": "+16175329100", "image_url": "https://s3-media1.fl.yelpcdn.com/bphoto/AJJUNPdbEuFwH2PSRMQgoA/o.jpg"}, {"rating": 4.0, "display_phone": "(617) 422-0224", "price": "$$", "categories": [{"title": "Modern European", "alias": "modern_european"}, {"title": "American (New)", "alias": "newamerican"}, {"title": "Brasseries", "alias": "brasseries"}], "coordinates": {"longitude": -71.0673901926598, "latitude": 42.3409677894859}, "is_closed": false, "name": "Gaslight Brasserie", "distance": 827.354130102, "review_count": 1597, "id": "gaslight-brasserie-boston-4", "location": {"display_address": ["560 Harrison Ave", "Boston, MA 02118"], "state": "MA", "city": "Boston", "address2": "", "country": "US", "zip_code": "02118", "address1": "560 Harrison Ave", "address3": ""}, "url": "https://www.yelp.com/biz/gaslight-brasserie-boston-4?adjust_creative=8_C4NSGbL05eUQksKleGYw&utm_campaign=yelp_api_v3&utm_medium=api_v3_business_search&utm_source=8_C4NSGbL05eUQksKleGYw", "transactions": ["delivery"], "phone": "+16174220224", "image_url": "https://s3-media2.fl.yelpcdn.com/bphoto/LoHqXfoS9vVxjhag4fOIOQ/o.jpg"}, {"rating": 4.0, "display_phone": "(617) 587-4200", "price": "$$$", "categories": [{"title": "French", "alias": "french"}], "coordinates": {"longitude": -71.0832099, "latitude": 42.34967}, "is_closed": false, "name": "La Voile", "distance": 1009.90752086, "review_count": 402, "id": "la-voile-boston", "location": {"display_address": ["261 Newbury St", "Boston, MA 02116"], "state": "MA", "city": "Boston", "address2": "", "country": "US", "zip_code": "02116", "address1": "261 Newbury St", "address3": ""}, "url": "https://www.yelp.com/biz/la-voile-boston?adjust_creative=8_C4NSGbL05eUQksKleGYw&utm_campaign=yelp_api_v3&utm_medium=api_v3_business_search&utm_source=8_C4NSGbL05eUQksKleGYw", "transactions": [], "phone": "+16175874200", "image_url": "https://s3-media2.fl.yelpcdn.com/bphoto/F1vTpWnJsE2x2MSc3iADJg/o.jpg"}, {"rating": 4.0, "display_phone": "(617) 262-5555", "price": "$$", "categories": [{"title": "Bars", "alias": "bars"}, {"title": "American (New)", "alias": "newamerican"}], "coordinates": {"longitude": -71.0894393920898, "latitude": 42.3501434326172}, "is_closed": false, "name": "Corner Tavern", "distance": 1520.97999197, "review_count": 213, "id": "corner-tavern-boston", "location": {"display_address": ["421 Marlborough St", "Boston, MA 02115"], "state": "MA", "city": "Boston", "address2": "", "country": "US", "zip_code": "02115", "address1": "421 Marlborough St", "address3": ""}, "url": "https://www.yelp.com/biz/corner-tavern-boston?adjust_creative=8_C4NSGbL05eUQksKleGYw&utm_campaign=yelp_api_v3&utm_medium=api_v3_business_search&utm_source=8_C4NSGbL05eUQksKleGYw", "transactions": [], "phone": "+16172625555", "image_url": "https://s3-media2.fl.yelpcdn.com/bphoto/6HoLVAEkWjVAzTObv1JOqg/o.jpg"}, {"rating": 4.0, "display_phone": "(617) 948-9800", "price": "$$", "categories": [{"title": "American (New)", "alias": "newamerican"}, {"title": "Lounges", "alias": "lounges"}], "coordinates": {"longitude": -71.0542373657227, "latitude": 42.3589973449707}, "is_closed": false, "name": "Bostonia Public House", "distance": 1874.4681433560002, "review_count": 633, "id": "bostonia-public-house-boston-4", "location": {"display_address": ["131 State St", "Boston, MA 02109"], "state": "MA", "city": "Boston", "address2": "", "country": "US", "zip_code": "02109", "address1": "131 State St", "address3": ""}, "url": "https://www.yelp.com/biz/bostonia-public-house-boston-4?adjust_creative=8_C4NSGbL05eUQksKleGYw&utm_campaign=yelp_api_v3&utm_medium=api_v3_business_search&utm_source=8_C4NSGbL05eUQksKleGYw", "transactions": [], "phone": "+16179489800", "image_url": "https://s3-media3.fl.yelpcdn.com/bphoto/UK-n9h6Ng80K2aBbilSWwA/o.jpg"}, {"rating": 4.5, "display_phone": "(617) 330-5145", "price": "$", "categories": [{"title": "Delis", "alias": "delis"}, {"title": "Breakfast & Brunch", "alias": "breakfast_brunch"}, {"title": "Sandwiches", "alias": "sandwiches"}], "coordinates": {"longitude": -71.0592011686825, "latitude": 42.3550721034927}, "is_closed": false, "name": "Archie's New York Deli", "distance": 1274.7105775359998, "review_count": 101, "id": "archies-new-york-deli-boston", "location": {"display_address": ["101 Arch St", "Boston, MA 02110"], "state": "MA", "city": "Boston", "address2": "", "country": "US", "zip_code": "02110", "address1": "101 Arch St", "address3": ""}, "url": "https://www.yelp.com/biz/archies-new-york-deli-boston?adjust_creative=8_C4NSGbL05eUQksKleGYw&utm_campaign=yelp_api_v3&utm_medium=api_v3_business_search&utm_source=8_C4NSGbL05eUQksKleGYw", "transactions": [], "phone": "+16173305145", "image_url": "https://s3-media3.fl.yelpcdn.com/bphoto/NdtoWl_cvLVUmftNazlYdg/o.jpg"}, {"rating": 4.5, "display_phone": "(617) 742-7482", "price": "$", "categories": [{"title": "Lebanese", "alias": "lebanese"}, {"title": "Mediterranean", "alias": "mediterranean"}], "coordinates": {"longitude": -71.0550380316331, "latitude": 42.3580650427804}, "is_closed": false, "name": "Pita Thyme", "distance": 1750.8524848799998, "review_count": 101, "id": "pita-thyme-boston", "location": {"display_address": ["102 Water St", "Boston, MA 02109"], "state": "MA", "city": "Boston", "address2": null, "country": "US", "zip_code": "02109", "address1": "102 Water St", "address3": ""}, "url": "https://www.yelp.com/biz/pita-thyme-boston?adjust_creative=8_C4NSGbL05eUQksKleGYw&utm_campaign=yelp_api_v3&utm_medium=api_v3_business_search&utm_source=8_C4NSGbL05eUQksKleGYw", "transactions": ["delivery"], "phone": "+16177427482", "image_url": "https://s3-media1.fl.yelpcdn.com/bphoto/hWMgtdYqD2ogzPQwymg_HQ/o.jpg"}, {"rating": 4.0, "display_phone": "(857) 263-7169", "price": "$", "categories": [{"title": "Japanese", "alias": "japanese"}, {"title": "Desserts", "alias": "desserts"}, {"title": "Bakeries", "alias": "bakeries"}], "coordinates": {"longitude": -71.0613861, "latitude": 42.3516426}, "is_closed": false, "name": "Beard Papa's", "distance": 903.5405431964, "review_count": 268, "id": "beard-papas-boston-4", "location": {"display_address": ["31 Harrison Ave", "Unit A", "Boston, MA 02111"], "state": "MA", "city": "Boston", "address2": "Unit A", "country": "US", "zip_code": "02111", "address1": "31 Harrison Ave", "address3": ""}, "url": "https://www.yelp.com/biz/beard-papas-boston-4?adjust_creative=8_C4NSGbL05eUQksKleGYw&utm_campaign=yelp_api_v3&utm_medium=api_v3_business_search&utm_source=8_C4NSGbL05eUQksKleGYw", "transactions": ["pickup"], "phone": "+18572637169", "image_url": "https://s3-media3.fl.yelpcdn.com/bphoto/e3NnOK_NMyd8cPAVNwbwJw/o.jpg"}, {"rating": 4.0, "display_phone": "(617) 267-9393", "price": "$", "categories": [{"title": "Diners", "alias": "diners"}], "coordinates": {"longitude": -71.0760727, "latitude": 42.3369865}, "is_closed": false, "name": "Mike's City Diner", "distance": 1277.3713959184, "review_count": 449, "id": "mikes-city-diner-boston", "location": {"display_address": ["1714 Washington St", "Boston, MA 02118"], "state": "MA", "city": "Boston", "address2": "", "country": "US", "zip_code": "02118", "address1": "1714 Washington St", "address3": ""}, "url": "https://www.yelp.com/biz/mikes-city-diner-boston?adjust_creative=8_C4NSGbL05eUQksKleGYw&utm_campaign=yelp_api_v3&utm_medium=api_v3_business_search&utm_source=8_C4NSGbL05eUQksKleGYw", "transactions": [], "phone": "+16172679393", "image_url": "https://s3-media4.fl.yelpcdn.com/bphoto/jaQYClwKVh6c2SSKAkaxqA/o.jpg"}, {"rating": 4.0, "display_phone": "(617) 904-3711", "price": "$$", "categories": [{"title": "American (New)", "alias": "newamerican"}, {"title": "Breakfast & Brunch", "alias": "breakfast_brunch"}], "coordinates": {"longitude": -71.0761795043945, "latitude": 42.3506851196289}, "is_closed": false, "name": "Dig Inn", "distance": 500.18963122799994, "review_count": 210, "id": "dig-inn-boston", "location": {"display_address": ["557 Boylston St", "Boston, MA 02116"], "state": "MA", "city": "Boston", "address2": null, "country": "US", "zip_code": "02116", "address1": "557 Boylston St", "address3": ""}, "url": "https://www.yelp.com/biz/dig-inn-boston?adjust_creative=8_C4NSGbL05eUQksKleGYw&utm_campaign=yelp_api_v3&utm_medium=api_v3_business_search&utm_source=8_C4NSGbL05eUQksKleGYw", "transactions": [], "phone": "+16179043711", "image_url": "https://s3-media4.fl.yelpcdn.com/bphoto/y2SFx5hpZ60KsoaxXVkA6Q/o.jpg"}, {"rating": 4.0, "display_phone": "(617) 350-0010", "price": "$$", "categories": [{"title": "Lounges", "alias": "lounges"}, {"title": "American (New)", "alias": "newamerican"}], "coordinates": {"longitude": -71.06895, "latitude": 42.34291}, "is_closed": false, "name": "Franklin Caf\u00e9", "distance": 578.80878704, "review_count": 478, "id": "franklin-caf\u00e9-boston-4", "location": {"display_address": ["278 Shawmut Ave", "Boston, MA 02118"], "state": "MA", "city": "Boston", "address2": "", "country": "US", "zip_code": "02118", "address1": "278 Shawmut Ave", "address3": ""}, "url": "https://www.yelp.com/biz/franklin-caf%C3%A9-boston-4?adjust_creative=8_C4NSGbL05eUQksKleGYw&utm_campaign=yelp_api_v3&utm_medium=api_v3_business_search&utm_source=8_C4NSGbL05eUQksKleGYw", "transactions": [], "phone": "+16173500010", "image_url": "https://s3-media2.fl.yelpcdn.com/bphoto/EvYP2X4T_zALhHIGkPxeIw/o.jpg"}, {"rating": 4.0, "display_phone": "(617) 338-8283", "price": "$$", "categories": [{"title": "Japanese", "alias": "japanese"}, {"title": "Hot Pot", "alias": "hotpot"}], "coordinates": {"longitude": -71.0614931, "latitude": 42.3522693}, "is_closed": false, "name": "Kaze Shabu Shabu", "distance": 941.1749430030001, "review_count": 478, "id": "kaze-shabu-shabu-boston", "location": {"display_address": ["1 Harrison Ave", "Boston, MA 02111"], "state": "MA", "city": "Boston", "address2": null, "country": "US", "zip_code": "02111", "address1": "1 Harrison Ave", "address3": ""}, "url": "https://www.yelp.com/biz/kaze-shabu-shabu-boston?adjust_creative=8_C4NSGbL05eUQksKleGYw&utm_campaign=yelp_api_v3&utm_medium=api_v3_business_search&utm_source=8_C4NSGbL05eUQksKleGYw", "transactions": [], "phone": "+16173388283", "image_url": "https://s3-media3.fl.yelpcdn.com/bphoto/3J50wWMn__4MsGII7cKAwg/o.jpg"}, {"rating": 4.0, "display_phone": "(617) 369-5609", "price": "$$", "categories": [{"title": "Mexican", "alias": "mexican"}, {"title": "Lounges", "alias": "lounges"}, {"title": "Cocktail Bars", "alias": "cocktailbars"}], "coordinates": {"longitude": -71.077508474716, "latitude": 42.3505860446405}, "is_closed": false, "name": "Lolita Cocina & Tequila Bar", "distance": 598.3120888188, "review_count": 1252, "id": "lolita-cocina-and-tequila-bar-boston-2", "location": {"display_address": ["271 Dartmouth St", "Boston, MA 02116"], "state": "MA", "city": "Boston", "address2": null, "country": "US", "zip_code": "02116", "address1": "271 Dartmouth St", "address3": ""}, "url": "https://www.yelp.com/biz/lolita-cocina-and-tequila-bar-boston-2?adjust_creative=8_C4NSGbL05eUQksKleGYw&utm_campaign=yelp_api_v3&utm_medium=api_v3_business_search&utm_source=8_C4NSGbL05eUQksKleGYw", "transactions": [], "phone": "+16173695609", "image_url": "https://s3-media3.fl.yelpcdn.com/bphoto/VlNwiC3KdAmFaj1my6jzkQ/o.jpg"}, {"rating": 4.0, "display_phone": "(617) 266-5088", "price": "$$", "categories": [{"title": "Italian", "alias": "italian"}, {"title": "Bars", "alias": "bars"}, {"title": "Salad", "alias": "salad"}], "coordinates": {"longitude": -71.077598, "latitude": 42.343939}, "is_closed": false, "name": "Anchovies", "distance": 679.036390098, "review_count": 314, "id": "anchovies-boston", "location": {"display_address": ["433 Columbus Ave", "Boston, MA 02116"], "state": "MA", "city": "Boston", "address2": "", "country": "US", "zip_code": "02116", "address1": "433 Columbus Ave", "address3": ""}, "url": "https://www.yelp.com/biz/anchovies-boston?adjust_creative=8_C4NSGbL05eUQksKleGYw&utm_campaign=yelp_api_v3&utm_medium=api_v3_business_search&utm_source=8_C4NSGbL05eUQksKleGYw", "transactions": [], "phone": "+16172665088", "image_url": "https://s3-media3.fl.yelpcdn.com/bphoto/5DBU9QMsfTWZIgboy5jQZQ/o.jpg"}, {"rating": 5.0, "display_phone": "(617) 567-9760", "price": "$", "categories": [{"title": "Delis", "alias": "delis"}, {"title": "Pizza", "alias": "pizza"}, {"title": "Sandwiches", "alias": "sandwiches"}], "coordinates": {"longitude": -71.0346527099609, "latitude": 42.3755264282227}, "is_closed": false, "name": "Roy's Cold Cuts", "distance": 4302.873689656, "review_count": 68, "id": "roys-cold-cuts-boston", "location": {"display_address": ["198 Marion St", "Boston, MA 02128"], "state": "MA", "city": "Boston", "address2": "", "country": "US", "zip_code": "02128", "address1": "198 Marion St", "address3": ""}, "url": "https://www.yelp.com/biz/roys-cold-cuts-boston?adjust_creative=8_C4NSGbL05eUQksKleGYw&utm_campaign=yelp_api_v3&utm_medium=api_v3_business_search&utm_source=8_C4NSGbL05eUQksKleGYw", "transactions": ["delivery", "pickup"], "phone": "+16175679760", "image_url": "https://s3-media3.fl.yelpcdn.com/bphoto/96PanjQAbcD7sq0nG4WrZw/o.jpg"}, {"rating": 4.0, "display_phone": "(617) 268-5748", "price": "$", "categories": [{"title": "Diners", "alias": "diners"}], "coordinates": {"longitude": -71.055726479847, "latitude": 42.3417995548894}, "is_closed": false, "name": "Mul's Diner", "distance": 1441.516978729, "review_count": 236, "id": "muls-diner-boston", "location": {"display_address": ["75 W Broadway", "Boston, MA 02127"], "state": "MA", "city": "Boston", "address2": "", "country": "US", "zip_code": "02127", "address1": "75 W Broadway", "address3": ""}, "url": "https://www.yelp.com/biz/muls-diner-boston?adjust_creative=8_C4NSGbL05eUQksKleGYw&utm_campaign=yelp_api_v3&utm_medium=api_v3_business_search&utm_source=8_C4NSGbL05eUQksKleGYw", "transactions": [], "phone": "+16172685748", "image_url": "https://s3-media2.fl.yelpcdn.com/bphoto/G-15DXUOeD1sVf90KSM1KQ/o.jpg"}, {"rating": 4.0, "display_phone": "(617) 536-6300", "price": "$$$", "categories": [{"title": "Steakhouses", "alias": "steak"}], "coordinates": {"longitude": -71.0815887451172, "latitude": 42.3492240905762}, "is_closed": false, "name": "Abe & Louie's", "distance": 865.5547761875999, "review_count": 957, "id": "abe-and-louies-boston-2", "location": {"display_address": ["793 Boylston St", "Boston, MA 02116"], "state": "MA", "city": "Boston", "address2": "", "country": "US", "zip_code": "02116", "address1": "793 Boylston St", "address3": ""}, "url": "https://www.yelp.com/biz/abe-and-louies-boston-2?adjust_creative=8_C4NSGbL05eUQksKleGYw&utm_campaign=yelp_api_v3&utm_medium=api_v3_business_search&utm_source=8_C4NSGbL05eUQksKleGYw", "transactions": [], "phone": "+16175366300", "image_url": "https://s3-media2.fl.yelpcdn.com/bphoto/kyy_EkakIG8EzSbnKlBCgg/o.jpg"}, {"rating": 4.0, "display_phone": "(617) 859-2251", "price": "$$$", "categories": [{"title": "Tea Rooms", "alias": "tea"}, {"title": "Breakfast & Brunch", "alias": "breakfast_brunch"}], "coordinates": {"longitude": -71.0782023736107, "latitude": 42.3496752655005}, "is_closed": false, "name": "The Courtyard Restaurant", "distance": 606.9723979739999, "review_count": 79, "id": "the-courtyard-restaurant-boston", "location": {"display_address": ["230 Darmouth St", "Boston, MA 02116"], "state": "MA", "city": "Boston", "address2": "", "country": "US", "zip_code": "02116", "address1": "230 Darmouth St", "address3": ""}, "url": "https://www.yelp.com/biz/the-courtyard-restaurant-boston?adjust_creative=8_C4NSGbL05eUQksKleGYw&utm_campaign=yelp_api_v3&utm_medium=api_v3_business_search&utm_source=8_C4NSGbL05eUQksKleGYw", "transactions": [], "phone": "+16178592251", "image_url": "https://s3-media2.fl.yelpcdn.com/bphoto/40HeeqKTZ-sHI62nRcXXFw/o.jpg"}, {"rating": 4.0, "display_phone": "(617) 752-4191", "price": "$$", "categories": [{"title": "American (New)", "alias": "newamerican"}, {"title": "Asian Fusion", "alias": "asianfusion"}], "coordinates": {"longitude": -71.0569151, "latitude": 42.34133}, "is_closed": false, "name": "Moonshine 152", "distance": 1370.297004968, "review_count": 178, "id": "moonshine-152-boston", "location": {"display_address": ["152 Dorchester Ave", "Boston, MA 02127"], "state": "MA", "city": "Boston", "address2": "", "country": "US", "zip_code": "02127", "address1": "152 Dorchester Ave", "address3": ""}, "url": "https://www.yelp.com/biz/moonshine-152-boston?adjust_creative=8_C4NSGbL05eUQksKleGYw&utm_campaign=yelp_api_v3&utm_medium=api_v3_business_search&utm_source=8_C4NSGbL05eUQksKleGYw", "transactions": [], "phone": "+16177524191", "image_url": "https://s3-media4.fl.yelpcdn.com/bphoto/T36ZG0X7SQZVUZ9bZiHghw/o.jpg"}, {"rating": 4.0, "display_phone": "(617) 742-8401", "price": "$$$$", "categories": [{"title": "Steakhouses", "alias": "steak"}, {"title": "Seafood", "alias": "seafood"}, {"title": "American (Traditional)", "alias": "tradamerican"}], "coordinates": {"longitude": -71.0596454143524, "latitude": 42.3578462497398}, "is_closed": false, "name": "Ruth's Chris Steak House", "distance": 1464.6036208584, "review_count": 655, "id": "ruths-chris-steak-house-boston-2", "location": {"display_address": ["45 School St", "Boston, MA 02108"], "state": "MA", "city": "Boston", "address2": "", "country": "US", "zip_code": "02108", "address1": "45 School St", "address3": ""}, "url": "https://www.yelp.com/biz/ruths-chris-steak-house-boston-2?adjust_creative=8_C4NSGbL05eUQksKleGYw&utm_campaign=yelp_api_v3&utm_medium=api_v3_business_search&utm_source=8_C4NSGbL05eUQksKleGYw", "transactions": [], "phone": "+16177428401", "image_url": "https://s3-media1.fl.yelpcdn.com/bphoto/z8PjolPi1_FXGexEayGpaw/o.jpg"}, {"rating": 4.0, "display_phone": "(617) 426-2121", "price": "$", "categories": [{"title": "Delis", "alias": "delis"}], "coordinates": {"longitude": -71.0583190917969, "latitude": 42.3506813049316}, "is_closed": false, "name": "Figaro's", "distance": 1119.051189386, "review_count": 112, "id": "figaros-boston", "location": {"display_address": ["105 Beach St", "Boston, MA 02111"], "state": "MA", "city": "Boston", "address2": "", "country": "US", "zip_code": "02111", "address1": "105 Beach St", "address3": ""}, "url": "https://www.yelp.com/biz/figaros-boston?adjust_creative=8_C4NSGbL05eUQksKleGYw&utm_campaign=yelp_api_v3&utm_medium=api_v3_business_search&utm_source=8_C4NSGbL05eUQksKleGYw", "transactions": [], "phone": "+16174262121", "image_url": "https://s3-media1.fl.yelpcdn.com/bphoto/mYwg9eTtAJLp1mbr0HcyKw/o.jpg"}, {"rating": 4.0, "display_phone": "(617) 422-0004", "price": "$$$", "categories": [{"title": "French", "alias": "french"}, {"title": "Italian", "alias": "italian"}], "coordinates": {"longitude": -71.060306250729, "latitude": 42.357014071346}, "is_closed": false, "name": "Marliave", "distance": 1359.442811338, "review_count": 1040, "id": "marliave-boston", "location": {"display_address": ["10 Bosworth St", "Boston, MA 02108"], "state": "MA", "city": "Boston", "address2": "", "country": "US", "zip_code": "02108", "address1": "10 Bosworth St", "address3": ""}, "url": "https://www.yelp.com/biz/marliave-boston?adjust_creative=8_C4NSGbL05eUQksKleGYw&utm_campaign=yelp_api_v3&utm_medium=api_v3_business_search&utm_source=8_C4NSGbL05eUQksKleGYw", "transactions": [], "phone": "+16174220004", "image_url": "https://s3-media1.fl.yelpcdn.com/bphoto/70ssmmwKqe3PLkbxlv2F4Q/o.jpg"}, {"rating": 4.0, "display_phone": "(857) 233-5277", "price": "$", "categories": [{"title": "Coffee & Tea", "alias": "coffee"}, {"title": "Sandwiches", "alias": "sandwiches"}, {"title": "Bagels", "alias": "bagels"}], "coordinates": {"longitude": -71.0550363743384, "latitude": 42.3633754209916}, "is_closed": false, "name": "Thinking Cup", "distance": 2180.917539618, "review_count": 399, "id": "thinking-cup-boston-3", "location": {"display_address": ["236 Hanover St", "Boston, MA 02113"], "state": "MA", "city": "Boston", "address2": "", "country": "US", "zip_code": "02113", "address1": "236 Hanover St", "address3": ""}, "url": "https://www.yelp.com/biz/thinking-cup-boston-3?adjust_creative=8_C4NSGbL05eUQksKleGYw&utm_campaign=yelp_api_v3&utm_medium=api_v3_business_search&utm_source=8_C4NSGbL05eUQksKleGYw", "transactions": [], "phone": "+18572335277", "image_url": "https://s3-media2.fl.yelpcdn.com/bphoto/HVoc265hgzeaXZo4Lpq_-w/o.jpg"}, {"rating": 4.0, "display_phone": "(617) 542-0392", "price": "$", "categories": [{"title": "Sandwiches", "alias": "sandwiches"}, {"title": "Latin American", "alias": "latin"}], "coordinates": {"longitude": -71.0586917750412, "latitude": 42.3550350322331}, "is_closed": false, "name": "Chacarero", "distance": 1304.9774992895998, "review_count": 346, "id": "chacarero-boston-2", "location": {"display_address": ["101 Arch St", "Boston, MA 02108"], "state": "MA", "city": "Boston", "address2": "", "country": "US", "zip_code": "02108", "address1": "101 Arch St", "address3": ""}, "url": "https://www.yelp.com/biz/chacarero-boston-2?adjust_creative=8_C4NSGbL05eUQksKleGYw&utm_campaign=yelp_api_v3&utm_medium=api_v3_business_search&utm_source=8_C4NSGbL05eUQksKleGYw", "transactions": [], "phone": "+16175420392", "image_url": "https://s3-media2.fl.yelpcdn.com/bphoto/9O-63qgm1QuHqYiyEA7x1A/o.jpg"}, {"rating": 4.5, "display_phone": "(617) 464-4869", "price": "$", "categories": [{"title": "Dive Bars", "alias": "divebars"}], "coordinates": {"longitude": -71.0513278841972, "latitude": 42.3391748964787}, "is_closed": false, "name": "Croke Park/Whitey's", "distance": 1900.952890802, "review_count": 80, "id": "croke-park-whiteys-boston", "location": {"display_address": ["268 W Broadway", "Boston, MA 02127"], "state": "MA", "city": "Boston", "address2": null, "country": "US", "zip_code": "02127", "address1": "268 W Broadway", "address3": ""}, "url": "https://www.yelp.com/biz/croke-park-whiteys-boston?adjust_creative=8_C4NSGbL05eUQksKleGYw&utm_campaign=yelp_api_v3&utm_medium=api_v3_business_search&utm_source=8_C4NSGbL05eUQksKleGYw", "transactions": [], "phone": "+16174644869", "image_url": "https://s3-media2.fl.yelpcdn.com/bphoto/Afl64EKLNX8ZwDUd-CuMXw/o.jpg"}, {"rating": 4.0, "display_phone": "(617) 227-1991", "price": "$$", "categories": [{"title": "Italian", "alias": "italian"}, {"title": "Delis", "alias": "delis"}], "coordinates": {"longitude": -71.0554091475888, "latitude": 42.3650794946373}, "is_closed": false, "name": "Dino's", "distance": 2316.205097378, "review_count": 288, "id": "dinos-boston-2", "location": {"display_address": ["141 Salem St", "Boston, MA 02113"], "state": "MA", "city": "Boston", "address2": "", "country": "US", "zip_code": "02113", "address1": "141 Salem St", "address3": ""}, "url": "https://www.yelp.com/biz/dinos-boston-2?adjust_creative=8_C4NSGbL05eUQksKleGYw&utm_campaign=yelp_api_v3&utm_medium=api_v3_business_search&utm_source=8_C4NSGbL05eUQksKleGYw", "transactions": ["pickup"], "phone": "+16172271991", "image_url": "https://s3-media4.fl.yelpcdn.com/bphoto/1BxwmbQ-NyY8XHAa7KC_vg/o.jpg"}, {"rating": 4.5, "display_phone": "(617) 426-0863", "categories": [{"title": "Parks", "alias": "parks"}, {"title": "Performing Arts", "alias": "theater"}], "coordinates": {"longitude": -71.05785, "latitude": 42.35865}, "is_closed": false, "name": "Shakespeare on the Common", "distance": 932.761554884, "review_count": 38, "id": "shakespeare-on-the-common-boston", "location": {"display_address": ["Boston Common", "Boston, MA 02116"], "state": "MA", "city": "Boston", "address2": null, "country": "US", "zip_code": "02116", "address1": "Boston Common", "address3": ""}, "url": "https://www.yelp.com/biz/shakespeare-on-the-common-boston?adjust_creative=8_C4NSGbL05eUQksKleGYw&utm_campaign=yelp_api_v3&utm_medium=api_v3_business_search&utm_source=8_C4NSGbL05eUQksKleGYw", "transactions": [], "phone": "+16174260863", "image_url": "https://s3-media2.fl.yelpcdn.com/bphoto/zeGb5gazAlmM608hAEgNng/o.jpg"}, {"rating": 4.0, "display_phone": "(617) 482-0085", "price": "$", "categories": [{"title": "Pizza", "alias": "pizza"}, {"title": "Italian", "alias": "italian"}], "coordinates": {"longitude": -71.0631478, "latitude": 42.3510218}, "is_closed": false, "name": "Boston Kitchen Pizza", "distance": 753.2343670619999, "review_count": 167, "id": "boston-kitchen-pizza-boston", "location": {"display_address": ["1 Stuart St", "Boston, MA 02116"], "state": "MA", "city": "Boston", "address2": "", "country": "US", "zip_code": "02116", "address1": "1 Stuart St", "address3": ""}, "url": "https://www.yelp.com/biz/boston-kitchen-pizza-boston?adjust_creative=8_C4NSGbL05eUQksKleGYw&utm_campaign=yelp_api_v3&utm_medium=api_v3_business_search&utm_source=8_C4NSGbL05eUQksKleGYw", "transactions": [], "phone": "+16174820085", "image_url": "https://s3-media3.fl.yelpcdn.com/bphoto/eh0RPOYhjm1835_vfhu5Vw/o.jpg"}, {"rating": 4.5, "display_phone": "(857) 250-4959", "price": "$", "categories": [{"title": "Food Trucks", "alias": "foodtrucks"}, {"title": "Asian Fusion", "alias": "asianfusion"}], "coordinates": {"longitude": -71.1020126342773, "latitude": 42.3475456237793}, "is_closed": false, "name": "Mei Mei Street Kitchen", "distance": 2387.0801091099997, "review_count": 173, "id": "mei-mei-street-kitchen-boston-4", "location": {"display_address": ["Boston, MA 02215"], "state": "MA", "city": "Boston", "address2": "", "country": "US", "zip_code": "02215", "address1": "", "address3": ""}, "url": "https://www.yelp.com/biz/mei-mei-street-kitchen-boston-4?adjust_creative=8_C4NSGbL05eUQksKleGYw&utm_campaign=yelp_api_v3&utm_medium=api_v3_business_search&utm_source=8_C4NSGbL05eUQksKleGYw", "transactions": [], "phone": "+18572504959", "image_url": "https://s3-media3.fl.yelpcdn.com/bphoto/MbEEx7IFp-vgwMSeeAyMsQ/o.jpg"}, {"rating": 4.0, "display_phone": "(617) 742-9600", "price": "$$", "categories": [{"title": "Italian", "alias": "italian"}, {"title": "Pizza", "alias": "pizza"}], "coordinates": {"longitude": -71.053187, "latitude": 42.3650849}, "is_closed": false, "name": "Locale", "distance": 2424.42001579, "review_count": 224, "id": "locale-boston", "location": {"display_address": ["352 Hanover St", "Boston, MA 02113"], "state": "MA", "city": "Boston", "address2": "", "country": "US", "zip_code": "02113", "address1": "352 Hanover St", "address3": ""}, "url": "https://www.yelp.com/biz/locale-boston?adjust_creative=8_C4NSGbL05eUQksKleGYw&utm_campaign=yelp_api_v3&utm_medium=api_v3_business_search&utm_source=8_C4NSGbL05eUQksKleGYw", "transactions": [], "phone": "+16177429600", "image_url": "https://s3-media3.fl.yelpcdn.com/bphoto/86MjaepdLUBKj1Ux08lyBA/o.jpg"}, {"rating": 4.0, "display_phone": "(617) 737-1234", "price": "$$$", "categories": [{"title": "Italian", "alias": "italian"}], "coordinates": {"longitude": -71.04846, "latitude": 42.35067}, "is_closed": false, "name": "Sportello", "distance": 1893.4548148079998, "review_count": 680, "id": "sportello-boston", "location": {"display_address": ["348 Congress St", "Boston, MA 02210"], "state": "MA", "city": "Boston", "address2": "", "country": "US", "zip_code": "02210", "address1": "348 Congress St", "address3": ""}, "url": "https://www.yelp.com/biz/sportello-boston?adjust_creative=8_C4NSGbL05eUQksKleGYw&utm_campaign=yelp_api_v3&utm_medium=api_v3_business_search&utm_source=8_C4NSGbL05eUQksKleGYw", "transactions": [], "phone": "+16177371234", "image_url": "https://s3-media3.fl.yelpcdn.com/bphoto/geHArT2KZffi1WN9HkeKNg/o.jpg"}, {"rating": 4.0, "display_phone": "(617) 451-1561", "price": "$", "categories": [{"title": "Sandwiches", "alias": "sandwiches"}, {"title": "Breakfast & Brunch", "alias": "breakfast_brunch"}], "coordinates": {"longitude": -71.0714874, "latitude": 42.3508682}, "is_closed": false, "name": "Back Bay Sandwich", "distance": 341.5088359752, "review_count": 92, "id": "back-bay-sandwich-boston", "location": {"display_address": ["31 St James Ave", "Boston, MA 02116"], "state": "MA", "city": "Boston", "address2": "", "country": "US", "zip_code": "02116", "address1": "31 St James Ave", "address3": ""}, "url": "https://www.yelp.com/biz/back-bay-sandwich-boston?adjust_creative=8_C4NSGbL05eUQksKleGYw&utm_campaign=yelp_api_v3&utm_medium=api_v3_business_search&utm_source=8_C4NSGbL05eUQksKleGYw", "transactions": [], "phone": "+16174511561", "image_url": "https://s3-media2.fl.yelpcdn.com/bphoto/XqOI6SDxgq07m5C4GyMbpQ/o.jpg"}], "total": 24769}