{"region": {"center": {"longitude": -71.07124328613281, "latitude": 42.34784169448538}}, "businesses": [{"rating": 4.0, "display_phone": "(617) 423-4800", "price": "$$$", "categories": [{"title": "Steakhouses", "alias": "steak"}, {"title": "Butcher", "alias": "butcher"}, {"title": "Modern European", "alias": "modern_european"}], "coordinates": {"longitude": -71.071454, "latitude": 42.34376}, "is_closed": false, "name": "The Butcher Shop", "distance": 454.2061686222, "review_count": 440, "id": "the-butcher-shop-boston", "location": {"display_address": ["552 Tremont St", "Boston, MA 02118"], "state": "MA", "city": "Boston", "address2": "", "country": "US", "zip_code": "02118", "address1": "552 Tremont St", "address3": ""}, "url": "https://www.yelp.com/biz/the-butcher-shop-boston?adjust_creative=8_C4NSGbL05eUQksKleGYw&utm_campaign=yelp_api_v3&utm_medium=api_v3_business_search&utm_source=8_C4NSGbL05eUQksKleGYw", "transactions": [], "phone": "+16174234800", "image_url": "https://s3-media2.fl.yelpcdn.com/bphoto/XvBOhZLjCfnjvRTjRCqI5Q/o.jpg"}, {"rating": 4.5, "display_phone": "(857) 991-1015", "price": "$", "categories": [{"title": "Mexican", "alias": "mexican"}], "coordinates": {"longitude": -71.0546494, "latitude": 42.3573494}, "is_closed": false, "name": "Sabroso Taqueria", "distance": 1734.4668287359998, "review_count": 64, "id": "sabroso-taqueria-boston-4", "location": {"display_address": ["2 Oliver St", "Boston, MA 02109"], "state": "MA", "city": "Boston", "address2": "", "country": "US", "zip_code": "02109", "address1": "2 Oliver St", "address3": ""}, "url": "https://www.yelp.com/biz/sabroso-taqueria-boston-4?adjust_creative=8_C4NSGbL05eUQksKleGYw&utm_campaign=yelp_api_v3&utm_medium=api_v3_business_search&utm_source=8_C4NSGbL05eUQksKleGYw", "transactions": [], "phone": "+18579911015", "image_url": "https://s3-media2.fl.yelpcdn.com/bphoto/FILWlU4HJlzkaT7mjenO1w/o.jpg"}, {"rating": 4.0, "display_phone": "(617) 262-2424", "price": "$$", "categories": [{"title": "Sports Bars", "alias": "sportsbars"}], "coordinates": {"longitude": -71.096686816461, "latitude": 42.3469855442944}, "is_closed": false, "name": "Bleacher Bar", "distance": 2093.197244238, "review_count": 340, "id": "bleacher-bar-boston", "location": {"display_address": ["Fenway Park", "82 Lansdowne St", "Boston, MA 02228"], "state": "MA", "city": "Boston", "address2": "82 Lansdowne St", "country": "US", "zip_code": "02228", "address1": "Fenway Park", "address3": ""}, "url": "https://www.yelp.com/biz/bleacher-bar-boston?adjust_creative=8_C4NSGbL05eUQksKleGYw&utm_campaign=yelp_api_v3&utm_medium=api_v3_business_search&utm_source=8_C4NSGbL05eUQksKleGYw", "transactions": [], "phone": "+16172622424", "image_url": "https://s3-media1.fl.yelpcdn.com/bphoto/Tmg_ECZVm-0Oky8s6iDEfA/o.jpg"}, {"rating": 4.0, "display_phone": "(617) 936-3930", "price": "$$", "categories": [{"title": "Bars", "alias": "bars"}, {"title": "American (Traditional)", "alias": "tradamerican"}, {"title": "Breakfast & Brunch", "alias": "breakfast_brunch"}], "coordinates": {"longitude": -71.0805253552637, "latitude": 42.3417445441842}, "is_closed": false, "name": "Five Horses Tavern", "distance": 1020.9426043059999, "review_count": 248, "id": "five-horses-tavern-boston-2", "location": {"display_address": ["535 Columbus Ave", "Boston, MA 02118"], "state": "MA", "city": "Boston", "address2": "", "country": "US", "zip_code": "02118", "address1": "535 Columbus Ave", "address3": ""}, "url": "https://www.yelp.com/biz/five-horses-tavern-boston-2?adjust_creative=8_C4NSGbL05eUQksKleGYw&utm_campaign=yelp_api_v3&utm_medium=api_v3_business_search&utm_source=8_C4NSGbL05eUQksKleGYw", "transactions": [], "phone": "+16179363930", "image_url": "https://s3-media4.fl.yelpcdn.com/bphoto/OSHcec06t-_HMPcZxhC3zQ/o.jpg"}, {"rating": 4.0, "display_phone": "(617) 350-6888", "price": "$$", "categories": [{"title": "Japanese", "alias": "japanese"}, {"title": "Sushi Bars", "alias": "sushi"}], "coordinates": {"longitude": -71.0625458, "latitude": 42.3509865}, "is_closed": false, "name": "Irashai Sushi and Teriyaki", "distance": 787.6257697412, "review_count": 308, "id": "irashai-sushi-and-teriyaki-boston", "location": {"display_address": ["8 Kneeland St", "Boston, MA 02111"], "state": "MA", "city": "Boston", "address2": "", "country": "US", "zip_code": "02111", "address1": "8 Kneeland St", "address3": ""}, "url": "https://www.yelp.com/biz/irashai-sushi-and-teriyaki-boston?adjust_creative=8_C4NSGbL05eUQksKleGYw&utm_campaign=yelp_api_v3&utm_medium=api_v3_business_search&utm_source=8_C4NSGbL05eUQksKleGYw", "transactions": ["delivery", "pickup"], "phone": "+16173506888", "image_url": "https://s3-media3.fl.yelpcdn.com/bphoto/biJpEmbXQyEoWeyKhtanQw/o.jpg"}, {"rating": 4.0, "display_phone": "(857) 310-5194", "price": "$$", "categories": [{"title": "Ramen", "alias": "ramen"}, {"title": "Soup", "alias": "soup"}, {"title": "Noodles", "alias": "noodles"}], "coordinates": {"longitude": -71.0854271426797, "latitude": 42.3484762870602}, "is_closed": false, "name": "Santouka Back Bay", "distance": 1167.6904331399999, "review_count": 161, "id": "santouka-back-bay-boston-2", "location": {"display_address": ["66 Hereford St", "Boston, MA 02115"], "state": "MA", "city": "Boston", "address2": "", "country": "US", "zip_code": "02115", "address1": "66 Hereford St", "address3": null}, "url": "https://www.yelp.com/biz/santouka-back-bay-boston-2?adjust_creative=8_C4NSGbL05eUQksKleGYw&utm_campaign=yelp_api_v3&utm_medium=api_v3_business_search&utm_source=8_C4NSGbL05eUQksKleGYw", "transactions": [], "phone": "+18573105194", "image_url": "https://s3-media3.fl.yelpcdn.com/bphoto/TEAkv1v49CrwlSVIs2xABg/o.jpg"}, {"rating": 4.0, "display_phone": "(617) 670-0460", "price": "$", "categories": [{"title": "Mediterranean", "alias": "mediterranean"}], "coordinates": {"longitude": -71.08766, "latitude": 42.34118}, "is_closed": false, "name": "Boston Shawarma", "distance": 1550.888610266, "review_count": 283, "id": "boston-shawarma-boston-2", "location": {"display_address": ["315 Huntington Ave", "Boston, MA 02115"], "state": "MA", "city": "Boston", "address2": null, "country": "US", "zip_code": "02115", "address1": "315 Huntington Ave", "address3": ""}, "url": "https://www.yelp.com/biz/boston-shawarma-boston-2?adjust_creative=8_C4NSGbL05eUQksKleGYw&utm_campaign=yelp_api_v3&utm_medium=api_v3_business_search&utm_source=8_C4NSGbL05eUQksKleGYw", "transactions": ["delivery", "pickup"], "phone": "+16176700460", "image_url": "https://s3-media2.fl.yelpcdn.com/bphoto/PbLGnEXFMCnxmCZuJw6tgA/o.jpg"}, {"rating": 4.5, "display_phone": "(617) 269-0274", "price": "$", "categories": [{"title": "Sandwiches", "alias": "sandwiches"}, {"title": "Cheesesteaks", "alias": "cheesesteaks"}, {"title": "Burgers", "alias": "burgers"}], "coordinates": {"longitude": -71.0542193055153, "latitude": 42.3410537838936}, "is_closed": false, "name": "Rondo's Sub Shop", "distance": 1583.5185581284, "review_count": 64, "id": "rondos-sub-shop-boston", "location": {"display_address": ["134 W Broadway", "Boston, MA 02127"], "state": "MA", "city": "Boston", "address2": "", "country": "US", "zip_code": "02127", "address1": "134 W Broadway", "address3": ""}, "url": "https://www.yelp.com/biz/rondos-sub-shop-boston?adjust_creative=8_C4NSGbL05eUQksKleGYw&utm_campaign=yelp_api_v3&utm_medium=api_v3_business_search&utm_source=8_C4NSGbL05eUQksKleGYw", "transactions": [], "phone": "+16172690274", "image_url": "https://s3-media2.fl.yelpcdn.com/bphoto/YZ6iUllMSunvzyegaNPQaA/o.jpg"}, {"rating": 4.0, "display_phone": "", "categories": [{"title": "Landmarks & Historical Buildings", "alias": "landmarks"}], "coordinates": {"longitude": -71.0841545358009, "latitude": 42.3492157403417}, "is_closed": false, "name": "Newbury Street", "distance": 1071.7865955798, "review_count": 77, "id": "newbury-street-boston", "location": {"display_address": ["10 Newbury St", "Boston, MA 02228"], "state": "MA", "city": "Boston", "address2": "", "country": "US", "zip_code": "02228", "address1": "10 Newbury St", "address3": ""}, "url": "https://www.yelp.com/biz/newbury-street-boston?adjust_creative=8_C4NSGbL05eUQksKleGYw&utm_campaign=yelp_api_v3&utm_medium=api_v3_business_search&utm_source=8_C4NSGbL05eUQksKleGYw", "transactions": [], "phone": "", "image_url": "https://s3-media1.fl.yelpcdn.com/bphoto/82Nu0Iwqmb3o_sHplRwCGQ/o.jpg"}, {"rating": 4.0, "display_phone": "(617) 269-4020", "price": "$", "categories": [{"title": "Coffee & Tea", "alias": "coffee"}, {"title": "Delis", "alias": "delis"}, {"title": "Sandwiches", "alias": "sandwiches"}], "coordinates": {"longitude": -71.0457916259766, "latitude": 42.335147857666}, "is_closed": false, "name": "PS Gourmet Coffee", "distance": 2524.73500601, "review_count": 86, "id": "ps-gourmet-coffee-boston-3", "location": {"display_address": ["106 Dorchester St", "Boston, MA 02127"], "state": "MA", "city": "Boston", "address2": "", "country": "US", "zip_code": "02127", "address1": "106 Dorchester St", "address3": ""}, "url": "https://www.yelp.com/biz/ps-gourmet-coffee-boston-3?adjust_creative=8_C4NSGbL05eUQksKleGYw&utm_campaign=yelp_api_v3&utm_medium=api_v3_business_search&utm_source=8_C4NSGbL05eUQksKleGYw", "transactions": [], "phone": "+16172694020", "image_url": "https://s3-media3.fl.yelpcdn.com/bphoto/aFYfPTPdSY0jSo4y-zXPuw/o.jpg"}, {"rating": 4.0, "display_phone": "(617) 439-3995", "price": "$$$$", "categories": [{"title": "American (New)", "alias": "newamerican"}, {"title": "Seafood", "alias": "seafood"}, {"title": "Wine Bars", "alias": "wine_bars"}], "coordinates": {"longitude": -71.0505545, "latitude": 42.3562283}, "is_closed": false, "name": "Meritage Restaurant", "distance": 1939.1228950539999, "review_count": 281, "id": "meritage-restaurant-boston-2", "location": {"display_address": ["70 Rowes Wharf", "Boston, MA 02110"], "state": "MA", "city": "Boston", "address2": "", "country": "US", "zip_code": "02110", "address1": "70 Rowes Wharf", "address3": ""}, "url": "https://www.yelp.com/biz/meritage-restaurant-boston-2?adjust_creative=8_C4NSGbL05eUQksKleGYw&utm_campaign=yelp_api_v3&utm_medium=api_v3_business_search&utm_source=8_C4NSGbL05eUQksKleGYw", "transactions": [], "phone": "+16174393995", "image_url": "https://s3-media1.fl.yelpcdn.com/bphoto/BQjnAknZxyGtfwud-OER7A/o.jpg"}, {"rating": 4.0, "display_phone": "(617) 523-1300", "price": "$$", "categories": [{"title": "Food Court", "alias": "food_court"}], "coordinates": {"longitude": -71.0556999665, "latitude": 42.3601450332}, "is_closed": false, "name": "Quincy Market", "distance": 1871.411041092, "review_count": 486, "id": "quincy-market-boston-2", "location": {"display_address": ["4 S Market St", "Boston, MA 02109"], "state": "MA", "city": "Boston", "address2": "", "country": "US", "zip_code": "02109", "address1": "4 S Market St", "address3": ""}, "url": "https://www.yelp.com/biz/quincy-market-boston-2?adjust_creative=8_C4NSGbL05eUQksKleGYw&utm_campaign=yelp_api_v3&utm_medium=api_v3_business_search&utm_source=8_C4NSGbL05eUQksKleGYw", "transactions": [], "phone": "+16175231300", "image_url": "https://s3-media1.fl.yelpcdn.com/bphoto/RZaeQzvYxisKUas6aliY2g/o.jpg"}, {"rating": 4.0, "display_phone": "(617) 292-2626", "price": "$", "categories": [{"title": "Cafes", "alias": "cafes"}], "coordinates": {"longitude": -71.0620498657227, "latitude": 42.3554000854492}, "is_closed": false, "name": "Cafe 26", "distance": 1126.927943082, "review_count": 96, "id": "cafe-26-boston-2", "location": {"display_address": ["26 Temple Pl", "Boston, MA 02111"], "state": "MA", "city": "Boston", "address2": "", "country": "US", "zip_code": "02111", "address1": "26 Temple Pl", "address3": ""}, "url": "https://www.yelp.com/biz/cafe-26-boston-2?adjust_creative=8_C4NSGbL05eUQksKleGYw&utm_campaign=yelp_api_v3&utm_medium=api_v3_business_search&utm_source=8_C4NSGbL05eUQksKleGYw", "transactions": [], "phone": "+16172922626", "image_url": "https://s3-media3.fl.yelpcdn.com/bphoto/wS5MydeTWfVDuSPNFLXTiQ/o.jpg"}, {"rating": 4.0, "display_phone": "(617) 830-1672", "price": "$$", "categories": [{"title": "Farmers Market", "alias": "farmersmarket"}, {"title": "Seafood", "alias": "seafood"}, {"title": "Seafood Markets", "alias": "seafoodmarkets"}], "coordinates": {"longitude": -71.0568845, "latitude": 42.3619445}, "is_closed": false, "name": "Red's Best Seafood at the Boston Public Market", "distance": 1962.456715714, "review_count": 46, "id": "reds-best-seafood-at-the-boston-public-market-boston", "location": {"display_address": ["100 Hanover St", "Boston, MA 02108"], "state": "MA", "city": "Boston", "address2": "", "country": "US", "zip_code": "02108", "address1": "100 Hanover St", "address3": ""}, "url": "https://www.yelp.com/biz/reds-best-seafood-at-the-boston-public-market-boston?adjust_creative=8_C4NSGbL05eUQksKleGYw&utm_campaign=yelp_api_v3&utm_medium=api_v3_business_search&utm_source=8_C4NSGbL05eUQksKleGYw", "transactions": [], "phone": "+16178301672", "image_url": "https://s3-media4.fl.yelpcdn.com/bphoto/hhmhWl4DOAeqTlIv0n7Z0w/o.jpg"}, {"rating": 4.0, "display_phone": "(857) 233-5385", "price": "$", "categories": [{"title": "Cafes", "alias": "cafes"}, {"title": "Coffee & Tea", "alias": "coffee"}], "coordinates": {"longitude": -71.04759, "latitude": 42.35064}, "is_closed": false, "name": "Caff\u00e8 Nero", "distance": 1930.72117465, "review_count": 52, "id": "caff\u00e8-nero-boston-20", "location": {"display_address": ["368 Congress St", "Boston, MA 02210"], "state": "MA", "city": "Boston", "address2": "", "country": "US", "zip_code": "02210", "address1": "368 Congress St", "address3": ""}, "url": "https://www.yelp.com/biz/caff%C3%A8-nero-boston-20?adjust_creative=8_C4NSGbL05eUQksKleGYw&utm_campaign=yelp_api_v3&utm_medium=api_v3_business_search&utm_source=8_C4NSGbL05eUQksKleGYw", "transactions": [], "phone": "+18572335385", "image_url": "https://s3-media3.fl.yelpcdn.com/bphoto/Pc3K7vb95lMRV3oGlGSIYw/o.jpg"}, {"rating": 4.5, "display_phone": "(617) 337-5703", "price": "$$", "categories": [{"title": "Pizza", "alias": "pizza"}, {"title": "Gastropubs", "alias": "gastropubs"}, {"title": "Wine Bars", "alias": "wine_bars"}], "coordinates": {"longitude": -71.0566809028387, "latitude": 42.3766634613276}, "is_closed": false, "name": "The Brewer's Fork", "distance": 3432.8149179839997, "review_count": 178, "id": "the-brewers-fork-boston", "location": {"display_address": ["7 Moulton St", "Boston, MA 02129"], "state": "MA", "city": "Boston", "address2": "", "country": "US", "zip_code": "02129", "address1": "7 Moulton St", "address3": ""}, "url": "https://www.yelp.com/biz/the-brewers-fork-boston?adjust_creative=8_C4NSGbL05eUQksKleGYw&utm_campaign=yelp_api_v3&utm_medium=api_v3_business_search&utm_source=8_C4NSGbL05eUQksKleGYw", "transactions": [], "phone": "+16173375703", "image_url": "https://s3-media2.fl.yelpcdn.com/bphoto/oYHrjQi5c7jlJC0M13lCnA/o.jpg"}, {"rating": 4.0, "display_phone": "(617) 823-4478", "price": "$$", "categories": [{"title": "Cocktail Bars", "alias": "cocktailbars"}, {"title": "American (New)", "alias": "newamerican"}], "coordinates": {"longitude": -71.0586472, "latitude": 42.3653984}, "is_closed": false, "name": "Ward 8", "distance": 2209.3886954259997, "review_count": 298, "id": "ward-8-boston", "location": {"display_address": ["90 N Washington St", "Boston, MA 02113"], "state": "MA", "city": "Boston", "address2": "", "country": "US", "zip_code": "02113", "address1": "90 N Washington St", "address3": ""}, "url": "https://www.yelp.com/biz/ward-8-boston?adjust_creative=8_C4NSGbL05eUQksKleGYw&utm_campaign=yelp_api_v3&utm_medium=api_v3_business_search&utm_source=8_C4NSGbL05eUQksKleGYw", "transactions": [], "phone": "+16178234478", "image_url": "https://s3-media2.fl.yelpcdn.com/bphoto/yDLPTK1PvfDdhH6juAcEHA/o.jpg"}, {"rating": 4.0, "display_phone": "(617) 951-1440", "price": "$", "categories": [{"title": "Coffee & Tea", "alias": "coffee"}], "coordinates": {"longitude": -71.05373, "latitude": 42.35803}, "is_closed": false, "name": "Flat Black Coffee Company", "distance": 1839.992861876, "review_count": 161, "id": "flat-black-coffee-company-boston-2", "location": {"display_address": ["50 Broad St", "Boston, MA 02109"], "state": "MA", "city": "Boston", "address2": null, "country": "US", "zip_code": "02109", "address1": "50 Broad St", "address3": ""}, "url": "https://www.yelp.com/biz/flat-black-coffee-company-boston-2?adjust_creative=8_C4NSGbL05eUQksKleGYw&utm_campaign=yelp_api_v3&utm_medium=api_v3_business_search&utm_source=8_C4NSGbL05eUQksKleGYw", "transactions": [], "phone": "+16179511440", "image_url": "https://s3-media4.fl.yelpcdn.com/bphoto/8l6cVLpT7qu1MbnfWpsOJw/o.jpg"}, {"rating": 4.0, "display_phone": "(617) 523-4480", "price": "$$", "categories": [{"title": "Italian", "alias": "italian"}, {"title": "Wine Bars", "alias": "wine_bars"}], "coordinates": {"longitude": -71.0539465, "latitude": 42.3634326}, "is_closed": false, "name": "Limoncello Ristorante", "distance": 2241.2111408499995, "review_count": 426, "id": "limoncello-ristorante-boston-2", "location": {"display_address": ["190 North St", "Boston, MA 02113"], "state": "MA", "city": "Boston", "address2": "", "country": "US", "zip_code": "02113", "address1": "190 North St", "address3": ""}, "url": "https://www.yelp.com/biz/limoncello-ristorante-boston-2?adjust_creative=8_C4NSGbL05eUQksKleGYw&utm_campaign=yelp_api_v3&utm_medium=api_v3_business_search&utm_source=8_C4NSGbL05eUQksKleGYw", "transactions": [], "phone": "+16175234480", "image_url": "https://s3-media2.fl.yelpcdn.com/bphoto/cYxXeSHPRWKJkhegfnw_1Q/o.jpg"}, {"rating": 4.0, "display_phone": "(617) 670-2515", "price": "$$$$", "categories": [{"title": "Steakhouses", "alias": "steak"}, {"title": "Wine Bars", "alias": "wine_bars"}, {"title": "Breakfast & Brunch", "alias": "breakfast_brunch"}], "coordinates": {"longitude": -71.06197, "latitude": 42.3584}, "is_closed": false, "name": "Mooo Restaurant", "distance": 1399.9033892119999, "review_count": 644, "id": "mooo-restaurant-boston", "location": {"display_address": ["15 Beacon St", "Boston, MA 02108"], "state": "MA", "city": "Boston", "address2": "", "country": "US", "zip_code": "02108", "address1": "15 Beacon St", "address3": ""}, "url": "https://www.yelp.com/biz/mooo-restaurant-boston?adjust_creative=8_C4NSGbL05eUQksKleGYw&utm_campaign=yelp_api_v3&utm_medium=api_v3_business_search&utm_source=8_C4NSGbL05eUQksKleGYw", "transactions": [], "phone": "+16176702515", "image_url": "https://s3-media2.fl.yelpcdn.com/bphoto/8D-wH7Rxk9VKHvzdYIblzQ/o.jpg"}, {"rating": 4.0, "display_phone": "(617) 742-0404", "price": "$$$", "categories": [{"title": "Italian", "alias": "italian"}, {"title": "Wine Bars", "alias": "wine_bars"}], "coordinates": {"longitude": -71.0528222, "latitude": 42.3656649}, "is_closed": false, "name": "Nico Ristorante", "distance": 2493.489508976, "review_count": 391, "id": "nico-ristorante-boston", "location": {"display_address": ["417 Hanover St", "Boston, MA 02113"], "state": "MA", "city": "Boston", "address2": "", "country": "US", "zip_code": "02113", "address1": "417 Hanover St", "address3": ""}, "url": "https://www.yelp.com/biz/nico-ristorante-boston?adjust_creative=8_C4NSGbL05eUQksKleGYw&utm_campaign=yelp_api_v3&utm_medium=api_v3_business_search&utm_source=8_C4NSGbL05eUQksKleGYw", "transactions": [], "phone": "+16177420404", "image_url": "https://s3-media2.fl.yelpcdn.com/bphoto/t-y3RPuSr8WldBLtfeMRgA/o.jpg"}, {"rating": 4.0, "display_phone": "(617) 451-2395", "price": "$$", "categories": [{"title": "Thai", "alias": "thai"}, {"title": "Vegan", "alias": "vegan"}], "coordinates": {"longitude": -71.0625569522381, "latitude": 42.3514661192894}, "is_closed": false, "name": "My Thai Vegan Cafe", "distance": 822.0255570818, "review_count": 636, "id": "my-thai-vegan-cafe-boston-3", "location": {"display_address": ["3 Beach St", "2nd Fl", "Boston, MA 02111"], "state": "MA", "city": "Boston", "address2": "2nd Fl", "country": "US", "zip_code": "02111", "address1": "3 Beach St", "address3": ""}, "url": "https://www.yelp.com/biz/my-thai-vegan-cafe-boston-3?adjust_creative=8_C4NSGbL05eUQksKleGYw&utm_campaign=yelp_api_v3&utm_medium=api_v3_business_search&utm_source=8_C4NSGbL05eUQksKleGYw", "transactions": [], "phone": "+16174512395", "image_url": "https://s3-media2.fl.yelpcdn.com/bphoto/uPmmRH49AMkLB0wR5OsNKQ/o.jpg"}, {"rating": 4.0, "display_phone": "(617) 725-8855", "price": "$$", "categories": [{"title": "French", "alias": "french"}], "coordinates": {"longitude": -71.0680064, "latitude": 42.3609838}, "is_closed": false, "name": "Ma Maison", "distance": 1485.2610769116, "review_count": 57, "id": "ma-maison-boston", "location": {"display_address": ["272 Cambridge St", "Boston, MA 02114"], "state": "MA", "city": "Boston", "address2": null, "country": "US", "zip_code": "02114", "address1": "272 Cambridge St", "address3": ""}, "url": "https://www.yelp.com/biz/ma-maison-boston?adjust_creative=8_C4NSGbL05eUQksKleGYw&utm_campaign=yelp_api_v3&utm_medium=api_v3_business_search&utm_source=8_C4NSGbL05eUQksKleGYw", "transactions": [], "phone": "+16177258855", "image_url": "https://s3-media2.fl.yelpcdn.com/bphoto/iUo2CL2Ts9BEDQ4u3hqUfA/o.jpg"}, {"rating": 4.0, "display_phone": "(617) 227-6400", "price": "$", "categories": [{"title": "Middle Eastern", "alias": "mideastern"}, {"title": "Falafel", "alias": "falafel"}], "coordinates": {"longitude": -71.0578912496567, "latitude": 42.3578462497398}, "is_closed": false, "name": "Falafel King", "distance": 1562.266965934, "review_count": 173, "id": "falafel-king-boston-2", "location": {"display_address": ["260 Washington St", "Boston, MA 02108"], "state": "MA", "city": "Boston", "address2": "", "country": "US", "zip_code": "02108", "address1": "260 Washington St", "address3": ""}, "url": "https://www.yelp.com/biz/falafel-king-boston-2?adjust_creative=8_C4NSGbL05eUQksKleGYw&utm_campaign=yelp_api_v3&utm_medium=api_v3_business_search&utm_source=8_C4NSGbL05eUQksKleGYw", "transactions": [], "phone": "+16172276400", "image_url": "https://s3-media2.fl.yelpcdn.com/bphoto/ghJAiyjeUBsHY0K3UWQzIg/o.jpg"}, {"rating": 4.0, "display_phone": "(617) 859-0969", "price": "$", "categories": [{"title": "Thai", "alias": "thai"}], "coordinates": {"longitude": -71.0992394306382, "latitude": 42.3430470265358}, "is_closed": false, "name": "Rod Dee Thai 2", "distance": 2362.098968026, "review_count": 260, "id": "rod-dee-thai-2-boston", "location": {"display_address": ["94 Peterborough St", "Boston, MA 02215"], "state": "MA", "city": "Boston", "address2": "", "country": "US", "zip_code": "02215", "address1": "94 Peterborough St", "address3": ""}, "url": "https://www.yelp.com/biz/rod-dee-thai-2-boston?adjust_creative=8_C4NSGbL05eUQksKleGYw&utm_campaign=yelp_api_v3&utm_medium=api_v3_business_search&utm_source=8_C4NSGbL05eUQksKleGYw", "transactions": [], "phone": "+16178590969", "image_url": "https://s3-media4.fl.yelpcdn.com/bphoto/YHsMJdyl2meriCuRqCWo2A/o.jpg"}, {"rating": 4.0, "display_phone": "(617) 917-5626", "price": "$$", "categories": [{"title": "Cocktail Bars", "alias": "cocktailbars"}, {"title": "Seafood", "alias": "seafood"}, {"title": "Mexican", "alias": "mexican"}], "coordinates": {"longitude": -71.0477377406966, "latitude": 42.3369670759542}, "is_closed": false, "name": "Loco Taqueria and Oyster Bar", "distance": 2279.2029911639997, "review_count": 308, "id": "loco-taqueria-and-oyster-bar-boston", "location": {"display_address": ["412 W Broadway", "Boston, MA 02127"], "state": "MA", "city": "Boston", "address2": "", "country": "US", "zip_code": "02127", "address1": "412 W Broadway", "address3": ""}, "url": "https://www.yelp.com/biz/loco-taqueria-and-oyster-bar-boston?adjust_creative=8_C4NSGbL05eUQksKleGYw&utm_campaign=yelp_api_v3&utm_medium=api_v3_business_search&utm_source=8_C4NSGbL05eUQksKleGYw", "transactions": [], "phone": "+16179175626", "image_url": "https://s3-media1.fl.yelpcdn.com/bphoto/NRhk07v_TDrComCx-VYa8A/o.jpg"}, {"rating": 4.0, "display_phone": "(617) 247-1500", "price": "$$", "categories": [{"title": "Cambodian", "alias": "cambodian"}, {"title": "French", "alias": "french"}], "coordinates": {"longitude": -71.0703278, "latitude": 42.3411293}, "is_closed": false, "name": "The Elephant Walk", "distance": 745.622349796, "review_count": 80, "id": "the-elephant-walk-boston-2", "location": {"display_address": ["1415 Washington St", "Boston, MA 02118"], "state": "MA", "city": "Boston", "address2": "", "country": "US", "zip_code": "02118", "address1": "1415 Washington St", "address3": ""}, "url": "https://www.yelp.com/biz/the-elephant-walk-boston-2?adjust_creative=8_C4NSGbL05eUQksKleGYw&utm_campaign=yelp_api_v3&utm_medium=api_v3_business_search&utm_source=8_C4NSGbL05eUQksKleGYw", "transactions": ["delivery", "pickup"], "phone": "+16172471500", "image_url": "https://s3-media3.fl.yelpcdn.com/bphoto/CbHpZektQZxRaggO6WNAyw/o.jpg"}, {"rating": 4.0, "display_phone": "(617) 266-0102", "price": "$$$", "categories": [{"title": "Sushi Bars", "alias": "sushi"}, {"title": "Latin American", "alias": "latin"}, {"title": "Peruvian", "alias": "peruvian"}], "coordinates": {"longitude": -71.0615739226341, "latitude": 42.3545352369547}, "is_closed": false, "name": "RUKA Restobar", "distance": 1102.4842410909998, "review_count": 101, "id": "ruka-restobar-boston", "location": {"display_address": ["505 Washington St", "Boston, MA 02111"], "state": "MA", "city": "Boston", "address2": null, "country": "US", "zip_code": "02111", "address1": "505 Washington St", "address3": ""}, "url": "https://www.yelp.com/biz/ruka-restobar-boston?adjust_creative=8_C4NSGbL05eUQksKleGYw&utm_campaign=yelp_api_v3&utm_medium=api_v3_business_search&utm_source=8_C4NSGbL05eUQksKleGYw", "transactions": [], "phone": "+16172660102", "image_url": "https://s3-media4.fl.yelpcdn.com/bphoto/hYoZqiU_0-d40wCYgdTiVQ/o.jpg"}, {"rating": 3.5, "display_phone": "(617) 437-9999", "price": "$$", "categories": [{"title": "American (Traditional)", "alias": "tradamerican"}, {"title": "Dive Bars", "alias": "divebars"}], "coordinates": {"longitude": -71.085402407346, "latitude": 42.34726832024}, "is_closed": false, "name": "Bukowski Tavern", "distance": 1165.4570876484, "review_count": 607, "id": "bukowski-tavern-boston", "location": {"display_address": ["50 Dalton St", "Boston, MA 02115"], "state": "MA", "city": "Boston", "address2": "", "country": "US", "zip_code": "02115", "address1": "50 Dalton St", "address3": ""}, "url": "https://www.yelp.com/biz/bukowski-tavern-boston?adjust_creative=8_C4NSGbL05eUQksKleGYw&utm_campaign=yelp_api_v3&utm_medium=api_v3_business_search&utm_source=8_C4NSGbL05eUQksKleGYw", "transactions": [], "phone": "+16174379999", "image_url": "https://s3-media2.fl.yelpcdn.com/bphoto/sJUyfUF4lJslqqBBOLdWaA/o.jpg"}, {"rating": 4.0, "display_phone": "(617) 557-9248", "price": "$$", "categories": [{"title": "Italian", "alias": "italian"}], "coordinates": {"longitude": -71.05382, "latitude": 42.3646699}, "is_closed": false, "name": "Panza", "distance": 2355.329923052, "review_count": 932, "id": "panza-boston", "location": {"display_address": ["326 Hanover St", "Boston, MA 02113"], "state": "MA", "city": "Boston", "address2": "", "country": "US", "zip_code": "02113", "address1": "326 Hanover St", "address3": ""}, "url": "https://www.yelp.com/biz/panza-boston?adjust_creative=8_C4NSGbL05eUQksKleGYw&utm_campaign=yelp_api_v3&utm_medium=api_v3_business_search&utm_source=8_C4NSGbL05eUQksKleGYw", "transactions": [], "phone": "+16175579248", "image_url": "https://s3-media2.fl.yelpcdn.com/bphoto/POLprOT9M5PZhBGLZ5dwjg/o.jpg"}, {"rating": 4.0, "display_phone": "(617) 345-9799", "price": "$$", "categories": [{"title": "Seafood", "alias": "seafood"}, {"title": "Salad", "alias": "salad"}, {"title": "Sandwiches", "alias": "sandwiches"}], "coordinates": {"longitude": -71.035987943405, "latitude": 42.347921583679}, "is_closed": false, "name": "Yankee Lobster", "distance": 2897.324896658, "review_count": 1047, "id": "yankee-lobster-boston", "location": {"display_address": ["300 Northern Ave", "Boston, MA 02210"], "state": "MA", "city": "Boston", "address2": "", "country": "US", "zip_code": "02210", "address1": "300 Northern Ave", "address3": ""}, "url": "https://www.yelp.com/biz/yankee-lobster-boston?adjust_creative=8_C4NSGbL05eUQksKleGYw&utm_campaign=yelp_api_v3&utm_medium=api_v3_business_search&utm_source=8_C4NSGbL05eUQksKleGYw", "transactions": [], "phone": "+16173459799", "image_url": "https://s3-media1.fl.yelpcdn.com/bphoto/x-VIxmn-n0ZVvSi_pYKOZg/o.jpg"}, {"rating": 4.0, "display_phone": "(617) 742-8770", "price": "$", "categories": [{"title": "Salad", "alias": "salad"}, {"title": "Sandwiches", "alias": "sandwiches"}, {"title": "Pizza", "alias": "pizza"}], "coordinates": {"longitude": -71.0595052689314, "latitude": 42.3640825599432}, "is_closed": false, "name": "Rustico", "distance": 2072.076587946, "review_count": 122, "id": "rustico-boston-2", "location": {"display_address": ["85 Canal St", "Boston, MA 02114"], "state": "MA", "city": "Boston", "address2": "", "country": "US", "zip_code": "02114", "address1": "85 Canal St", "address3": ""}, "url": "https://www.yelp.com/biz/rustico-boston-2?adjust_creative=8_C4NSGbL05eUQksKleGYw&utm_campaign=yelp_api_v3&utm_medium=api_v3_business_search&utm_source=8_C4NSGbL05eUQksKleGYw", "transactions": [], "phone": "+16177428770", "image_url": "https://s3-media2.fl.yelpcdn.com/bphoto/OIle7wi2LHMXPppKNSG7cA/o.jpg"}, {"rating": 4.0, "display_phone": "(617) 482-0654", "price": "$$", "categories": [{"title": "Turkish", "alias": "turkish"}], "coordinates": {"longitude": -71.0648162, "latitude": 42.3436126}, "is_closed": false, "name": "Ali Baba", "distance": 707.1123241887999, "review_count": 92, "id": "ali-baba-boston", "location": {"display_address": ["145 E Berkeley St", "Boston, MA 02118"], "state": "MA", "city": "Boston", "address2": "", "country": "US", "zip_code": "02118", "address1": "145 E Berkeley St", "address3": ""}, "url": "https://www.yelp.com/biz/ali-baba-boston?adjust_creative=8_C4NSGbL05eUQksKleGYw&utm_campaign=yelp_api_v3&utm_medium=api_v3_business_search&utm_source=8_C4NSGbL05eUQksKleGYw", "transactions": ["delivery", "pickup"], "phone": "+16174820654", "image_url": "https://s3-media2.fl.yelpcdn.com/bphoto/q4RIH6_fyErjmahv-z8bSQ/o.jpg"}, {"rating": 4.5, "display_phone": "(857) 305-6222", "price": "$", "categories": [{"title": "Pizza", "alias": "pizza"}, {"title": "Salad", "alias": "salad"}, {"title": "Bakeries", "alias": "bakeries"}], "coordinates": {"longitude": -71.0561759769917, "latitude": 42.3510953038931}, "is_closed": false, "name": "Oath Craft Pizza", "distance": 1393.7315703119998, "review_count": 69, "id": "oath-craft-pizza-boston", "location": {"display_address": ["700 Atlantic Ave", "Boston, MA 02111"], "state": "MA", "city": "Boston", "address2": "", "country": "US", "zip_code": "02111", "address1": "700 Atlantic Ave", "address3": ""}, "url": "https://www.yelp.com/biz/oath-craft-pizza-boston?adjust_creative=8_C4NSGbL05eUQksKleGYw&utm_campaign=yelp_api_v3&utm_medium=api_v3_business_search&utm_source=8_C4NSGbL05eUQksKleGYw", "transactions": [], "phone": "+18573056222", "image_url": "https://s3-media1.fl.yelpcdn.com/bphoto/o59hLJVFuIcOGxwyzgBJ1A/o.jpg"}, {"rating": 4.5, "display_phone": "(857) 317-2871", "price": "$$", "categories": [{"title": "Pizza", "alias": "pizza"}, {"title": "Italian", "alias": "italian"}, {"title": "Salad", "alias": "salad"}], "coordinates": {"longitude": -71.0541152, "latitude": 42.3640246614391}, "is_closed": false, "name": "Scopa", "distance": 2284.39295173, "review_count": 83, "id": "scopa-boston", "location": {"display_address": ["319 Hanover St", "Boston, MA 02113"], "state": "MA", "city": "Boston", "address2": "", "country": "US", "zip_code": "02113", "address1": "319 Hanover St", "address3": ""}, "url": "https://www.yelp.com/biz/scopa-boston?adjust_creative=8_C4NSGbL05eUQksKleGYw&utm_campaign=yelp_api_v3&utm_medium=api_v3_business_search&utm_source=8_C4NSGbL05eUQksKleGYw", "transactions": [], "phone": "+18573172871", "image_url": "https://s3-media2.fl.yelpcdn.com/bphoto/1lcUw5KDjUoPchO9X7cNMg/o.jpg"}, {"rating": 4.0, "display_phone": "(617) 338-3080", "price": "$", "categories": [{"title": "Sandwiches", "alias": "sandwiches"}, {"title": "Coffee & Tea", "alias": "coffee"}, {"title": "Cafes", "alias": "cafes"}], "coordinates": {"longitude": -71.0553216934204, "latitude": 42.3560703332238}, "is_closed": false, "name": "Sip Cafe", "distance": 1596.6013657904, "review_count": 142, "id": "sip-cafe-boston", "location": {"display_address": ["0 Post Office Sq", "Boston, MA 02109"], "state": "MA", "city": "Boston", "address2": "", "country": "US", "zip_code": "02109", "address1": "0 Post Office Sq", "address3": ""}, "url": "https://www.yelp.com/biz/sip-cafe-boston?adjust_creative=8_C4NSGbL05eUQksKleGYw&utm_campaign=yelp_api_v3&utm_medium=api_v3_business_search&utm_source=8_C4NSGbL05eUQksKleGYw", "transactions": [], "phone": "+16173383080", "image_url": "https://s3-media2.fl.yelpcdn.com/bphoto/08VGO6PwC2tNXutGD0KU-g/o.jpg"}, {"rating": 4.0, "display_phone": "(617) 367-0033", "price": "$$", "categories": [{"title": "American (Traditional)", "alias": "tradamerican"}, {"title": "Pubs", "alias": "pubs"}], "coordinates": {"longitude": -71.056898076297, "latitude": 42.3609285960884}, "is_closed": false, "name": "The Tap Trailhouse", "distance": 1872.4107631, "review_count": 221, "id": "the-tap-trailhouse-boston-2", "location": {"display_address": ["19 Union St", "Boston, MA 02108"], "state": "MA", "city": "Boston", "address2": "", "country": "US", "zip_code": "02108", "address1": "19 Union St", "address3": ""}, "url": "https://www.yelp.com/biz/the-tap-trailhouse-boston-2?adjust_creative=8_C4NSGbL05eUQksKleGYw&utm_campaign=yelp_api_v3&utm_medium=api_v3_business_search&utm_source=8_C4NSGbL05eUQksKleGYw", "transactions": ["delivery", "pickup"], "phone": "+16173670033", "image_url": "https://s3-media2.fl.yelpcdn.com/bphoto/vStm98nScF4xuFDTzRM1Rg/o.jpg"}, {"rating": 4.0, "display_phone": "(617) 742-2277", "price": "$$$", "categories": [{"title": "Seafood", "alias": "seafood"}], "coordinates": {"longitude": -71.0592725872993, "latitude": 42.3589680639953}, "is_closed": false, "name": "The Oceanaire Seafood Room", "distance": 1580.34371655, "review_count": 529, "id": "the-oceanaire-seafood-room-boston", "location": {"display_address": ["40 Court St", "Boston, MA 02108"], "state": "MA", "city": "Boston", "address2": "", "country": "US", "zip_code": "02108", "address1": "40 Court St", "address3": ""}, "url": "https://www.yelp.com/biz/the-oceanaire-seafood-room-boston?adjust_creative=8_C4NSGbL05eUQksKleGYw&utm_campaign=yelp_api_v3&utm_medium=api_v3_business_search&utm_source=8_C4NSGbL05eUQksKleGYw", "transactions": [], "phone": "+16177422277", "image_url": "https://s3-media2.fl.yelpcdn.com/bphoto/9nTUNxOr1LUPO9Vr-A0ldA/o.jpg"}, {"rating": 4.0, "display_phone": "(617) 451-1900", "price": "$$$", "categories": [{"title": "Breakfast & Brunch", "alias": "breakfast_brunch"}], "coordinates": {"longitude": -71.0541609674692, "latitude": 42.3564959317446}, "is_closed": false, "name": "Cafe Fleuri", "distance": 1655.1625768859997, "review_count": 236, "id": "cafe-fleuri-boston", "location": {"display_address": ["250 Franklin St", "Boston, MA 02110"], "state": "MA", "city": "Boston", "address2": "", "country": "US", "zip_code": "02110", "address1": "250 Franklin St", "address3": ""}, "url": "https://www.yelp.com/biz/cafe-fleuri-boston?adjust_creative=8_C4NSGbL05eUQksKleGYw&utm_campaign=yelp_api_v3&utm_medium=api_v3_business_search&utm_source=8_C4NSGbL05eUQksKleGYw", "transactions": [], "phone": "+16174511900", "image_url": "https://s3-media3.fl.yelpcdn.com/bphoto/3-4H9WS4o7tEs8u7jIrb_A/o.jpg"}, {"rating": 4.5, "display_phone": "(617) 421-4470", "price": "$$", "categories": [{"title": "Pizza", "alias": "pizza"}, {"title": "Cocktail Bars", "alias": "cocktailbars"}, {"title": "American (New)", "alias": "newamerican"}], "coordinates": {"longitude": -71.0994869470596, "latitude": 42.3424683399553}, "is_closed": false, "name": "Tapestry", "distance": 2396.91800453, "review_count": 98, "id": "tapestry-boston", "location": {"display_address": ["69 Kilmarnock St", "Boston, MA 02215"], "state": "MA", "city": "Boston", "address2": "", "country": "US", "zip_code": "02215", "address1": "69 Kilmarnock St", "address3": ""}, "url": "https://www.yelp.com/biz/tapestry-boston?adjust_creative=8_C4NSGbL05eUQksKleGYw&utm_campaign=yelp_api_v3&utm_medium=api_v3_business_search&utm_source=8_C4NSGbL05eUQksKleGYw", "transactions": [], "phone": "+16174214470", "image_url": "https://s3-media4.fl.yelpcdn.com/bphoto/9Hhwu0VibRwhyCPXLw5fcg/o.jpg"}, {"rating": 4.0, "display_phone": "(617) 357-4050", "price": "$", "categories": [{"title": "Bakeries", "alias": "bakeries"}, {"title": "Sandwiches", "alias": "sandwiches"}], "coordinates": {"longitude": -71.0616044, "latitude": 42.3515936}, "is_closed": false, "name": "Mei Sum", "distance": 879.314729748, "review_count": 117, "id": "mei-sum-boston", "location": {"display_address": ["36 Beach St", "Boston, MA 02111"], "state": "MA", "city": "Boston", "address2": "", "country": "US", "zip_code": "02111", "address1": "36 Beach St", "address3": ""}, "url": "https://www.yelp.com/biz/mei-sum-boston?adjust_creative=8_C4NSGbL05eUQksKleGYw&utm_campaign=yelp_api_v3&utm_medium=api_v3_business_search&utm_source=8_C4NSGbL05eUQksKleGYw", "transactions": [], "phone": "+16173574050", "image_url": "https://s3-media3.fl.yelpcdn.com/bphoto/R0wvbRC46NE1JvcSLcBUlA/o.jpg"}, {"rating": 4.5, "display_phone": "(617) 973-9788", "price": "$", "categories": [{"title": "Patisserie/Cake Shop", "alias": "cakeshop"}, {"title": "Coffee & Tea", "alias": "coffee"}, {"title": "Sandwiches", "alias": "sandwiches"}], "coordinates": {"longitude": -71.0597985814401, "latitude": 42.3587061906637}, "is_closed": false, "name": "Tous Les Jours", "distance": 1530.926839708, "review_count": 33, "id": "tous-les-jours-boston", "location": {"display_address": ["24 Tremont St", "Boston, MA 02108"], "state": "MA", "city": "Boston", "address2": "", "country": "US", "zip_code": "02108", "address1": "24 Tremont St", "address3": ""}, "url": "https://www.yelp.com/biz/tous-les-jours-boston?adjust_creative=8_C4NSGbL05eUQksKleGYw&utm_campaign=yelp_api_v3&utm_medium=api_v3_business_search&utm_source=8_C4NSGbL05eUQksKleGYw", "transactions": [], "phone": "+16179739788", "image_url": "https://s3-media1.fl.yelpcdn.com/bphoto/F6GsmuQdIb2pIKXjW9ce9g/o.jpg"}, {"rating": 4.0, "display_phone": "(617) 482-0117", "price": "$$$", "categories": [{"title": "Cocktail Bars", "alias": "cocktailbars"}, {"title": "American (New)", "alias": "newamerican"}, {"title": "Tapas/Small Plates", "alias": "tapasmallplates"}], "coordinates": {"longitude": -71.0694792474231, "latitude": 42.3466991630507}, "is_closed": false, "name": "Wink & Nod", "distance": 192.7965662702, "review_count": 302, "id": "wink-and-nod-boston", "location": {"display_address": ["3 Appleton St", "Boston, MA 02116"], "state": "MA", "city": "Boston", "address2": "", "country": "US", "zip_code": "02116", "address1": "3 Appleton St", "address3": ""}, "url": "https://www.yelp.com/biz/wink-and-nod-boston?adjust_creative=8_C4NSGbL05eUQksKleGYw&utm_campaign=yelp_api_v3&utm_medium=api_v3_business_search&utm_source=8_C4NSGbL05eUQksKleGYw", "transactions": [], "phone": "+16174820117", "image_url": "https://s3-media2.fl.yelpcdn.com/bphoto/oydWEWPI8DQQd5a5xkl1GA/o.jpg"}, {"rating": 4.0, "display_phone": "(617) 742-4900", "price": "$$", "categories": [{"title": "Seafood", "alias": "seafood"}, {"title": "American (Traditional)", "alias": "tradamerican"}], "coordinates": {"longitude": -71.06245, "latitude": 42.35827}, "is_closed": false, "name": "Scollay Square", "distance": 1351.3664994819999, "review_count": 469, "id": "scollay-square-boston", "location": {"display_address": ["21 Beacon St", "Boston, MA 02108"], "state": "MA", "city": "Boston", "address2": "", "country": "US", "zip_code": "02108", "address1": "21 Beacon St", "address3": ""}, "url": "https://www.yelp.com/biz/scollay-square-boston?adjust_creative=8_C4NSGbL05eUQksKleGYw&utm_campaign=yelp_api_v3&utm_medium=api_v3_business_search&utm_source=8_C4NSGbL05eUQksKleGYw", "transactions": ["delivery"], "phone": "+16177424900", "image_url": "https://s3-media1.fl.yelpcdn.com/bphoto/P9T6OOOAUnTvtRHC1wrekQ/o.jpg"}, {"rating": 4.0, "display_phone": "(617) 720-2010", "price": "$$", "categories": [{"title": "Breakfast & Brunch", "alias": "breakfast_brunch"}, {"title": "American (New)", "alias": "newamerican"}, {"title": "Burgers", "alias": "burgers"}], "coordinates": {"longitude": -71.0525562839306, "latitude": 42.3633987875275}, "is_closed": false, "name": "North Street Grille", "distance": 2312.857831112, "review_count": 559, "id": "north-street-grille-boston-2", "location": {"display_address": ["229 North St", "Boston, MA 02113"], "state": "MA", "city": "Boston", "address2": "", "country": "US", "zip_code": "02113", "address1": "229 North St", "address3": ""}, "url": "https://www.yelp.com/biz/north-street-grille-boston-2?adjust_creative=8_C4NSGbL05eUQksKleGYw&utm_campaign=yelp_api_v3&utm_medium=api_v3_business_search&utm_source=8_C4NSGbL05eUQksKleGYw", "transactions": [], "phone": "+16177202010", "image_url": "https://s3-media1.fl.yelpcdn.com/bphoto/C5hoGj53mU7y8-G2xJEmtQ/o.jpg"}, {"rating": 4.0, "display_phone": "(617) 227-6900", "price": "$", "categories": [{"title": "Turkish", "alias": "turkish"}, {"title": "Mediterranean", "alias": "mediterranean"}], "coordinates": {"longitude": -71.0551781952381, "latitude": 42.3578242957592}, "is_closed": false, "name": "Boston Kebab House", "distance": 1739.1754357080001, "review_count": 194, "id": "boston-kebab-house-boston", "location": {"display_address": ["7 Liberty Sq", "Boston, MA 02109"], "state": "MA", "city": "Boston", "address2": null, "country": "US", "zip_code": "02109", "address1": "7 Liberty Sq", "address3": ""}, "url": "https://www.yelp.com/biz/boston-kebab-house-boston?adjust_creative=8_C4NSGbL05eUQksKleGYw&utm_campaign=yelp_api_v3&utm_medium=api_v3_business_search&utm_source=8_C4NSGbL05eUQksKleGYw", "transactions": ["delivery", "pickup"], "phone": "+16172276900", "image_url": "https://s3-media3.fl.yelpcdn.com/bphoto/7RWNYVphql3npYf_tiaO0A/o.jpg"}, {"rating": 4.5, "display_phone": "", "categories": [{"title": "Parks", "alias": "parks"}], "coordinates": {"longitude": -71.060278, "latitude": 42.358333}, "is_closed": false, "name": "Georges Island", "distance": 1347.9376396779999, "review_count": 47, "id": "georges-island-boston", "location": {"display_address": ["Boston, MA 02228"], "state": "MA", "city": "Boston", "address2": "", "country": "US", "zip_code": "02228", "address1": "", "address3": ""}, "url": "https://www.yelp.com/biz/georges-island-boston?adjust_creative=8_C4NSGbL05eUQksKleGYw&utm_campaign=yelp_api_v3&utm_medium=api_v3_business_search&utm_source=8_C4NSGbL05eUQksKleGYw", "transactions": [], "phone": "", "image_url": "https://s3-media1.fl.yelpcdn.com/bphoto/B8IhzNWo1kihxGKaO5J7Pg/o.jpg"}, {"rating": 4.0, "display_phone": "", "categories": [{"title": "Dog Parks", "alias": "dog_parks"}], "coordinates": {"longitude": -71.0677356272936, "latitude": 42.3424076288939}, "is_closed": false, "name": "Peter's Park Dog Run", "distance": 681.9894968112, "review_count": 57, "id": "peters-park-dog-run-boston", "location": {"display_address": ["1277 Washington St", "Boston, MA 02118"], "state": "MA", "city": "Boston", "address2": "", "country": "US", "zip_code": "02118", "address1": "1277 Washington St", "address3": ""}, "url": "https://www.yelp.com/biz/peters-park-dog-run-boston?adjust_creative=8_C4NSGbL05eUQksKleGYw&utm_campaign=yelp_api_v3&utm_medium=api_v3_business_search&utm_source=8_C4NSGbL05eUQksKleGYw", "transactions": [], "phone": "", "image_url": "https://s3-media3.fl.yelpcdn.com/bphoto/MfJ0cW5a5RC_5WNxnUeDYg/o.jpg"}, {"rating": 4.0, "display_phone": "(617) 269-8741", "price": "$", "categories": [{"title": "Donuts", "alias": "donuts"}, {"title": "Delis", "alias": "delis"}, {"title": "Pizza", "alias": "pizza"}], "coordinates": {"longitude": -71.056792, "latitude": 42.340173}, "is_closed": false, "name": "Doughboy Donuts & Deli", "distance": 1462.190318968, "review_count": 118, "id": "doughboy-donuts-and-deli-boston", "location": {"display_address": ["220 Dorchester Ave", "Boston, MA 02127"], "state": "MA", "city": "Boston", "address2": "", "country": "US", "zip_code": "02127", "address1": "220 Dorchester Ave", "address3": ""}, "url": "https://www.yelp.com/biz/doughboy-donuts-and-deli-boston?adjust_creative=8_C4NSGbL05eUQksKleGYw&utm_campaign=yelp_api_v3&utm_medium=api_v3_business_search&utm_source=8_C4NSGbL05eUQksKleGYw", "transactions": [], "phone": "+16172698741", "image_url": "https://s3-media1.fl.yelpcdn.com/bphoto/FnUo10j9aDb4R173Yj4vbA/o.jpg"}, {"rating": 4.0, "display_phone": "(617) 248-6800", "price": "$$$", "categories": [{"title": "Italian", "alias": "italian"}], "coordinates": {"longitude": -71.0549297, "latitude": 42.3631202}, "is_closed": false, "name": "Bricco", "distance": 2165.793606034, "review_count": 639, "id": "bricco-boston-6", "location": {"display_address": ["241 Hanover St", "Boston, MA 02113"], "state": "MA", "city": "Boston", "address2": "", "country": "US", "zip_code": "02113", "address1": "241 Hanover St", "address3": ""}, "url": "https://www.yelp.com/biz/bricco-boston-6?adjust_creative=8_C4NSGbL05eUQksKleGYw&utm_campaign=yelp_api_v3&utm_medium=api_v3_business_search&utm_source=8_C4NSGbL05eUQksKleGYw", "transactions": [], "phone": "+16172486800", "image_url": "https://s3-media1.fl.yelpcdn.com/bphoto/XBFzGXGf1Qh8HcZNHMj8kA/o.jpg"}], "total": 24769}