{"region": {"center": {"longitude": -71.07124328613281, "latitude": 42.34784169448538}}, "businesses": [{"rating": 4.0, "display_phone": "(617) 357-4050", "price": "$", "categories": [{"title": "Bakeries", "alias": "bakeries"}, {"title": "Sandwiches", "alias": "sandwiches"}], "coordinates": {"longitude": -71.0616044, "latitude": 42.3515936}, "is_closed": false, "name": "Mei Sum", "distance": 879.314729748, "review_count": 117, "id": "mei-sum-boston", "location": {"display_address": ["36 Beach St", "Boston, MA 02111"], "state": "MA", "city": "Boston", "address2": "", "country": "US", "zip_code": "02111", "address1": "36 Beach St", "address3": ""}, "url": "https://www.yelp.com/biz/mei-sum-boston?adjust_creative=8_C4NSGbL05eUQksKleGYw&utm_campaign=yelp_api_v3&utm_medium=api_v3_business_search&utm_source=8_C4NSGbL05eUQksKleGYw", "transactions": [], "phone": "+16173574050", "image_url": "https://s3-media3.fl.yelpcdn.com/bphoto/R0wvbRC46NE1JvcSLcBUlA/o.jpg"}, {"rating": 4.5, "display_phone": "(617) 973-9788", "price": "$", "categories": [{"title": "Patisserie/Cake Shop", "alias": "cakeshop"}, {"title": "Coffee & Tea", "alias": "coffee"}, {"title": "Sandwiches", "alias": "sandwiches"}], "coordinates": {"longitude": -71.0597985814401, "latitude": 42.3587061906637}, "is_closed": false, "name": "Tous Les Jours", "distance": 1530.926839708, "review_count": 33, "id": "tous-les-jours-boston", "location": {"display_address": ["24 Tremont St", "Boston, MA 02108"], "state": "MA", "city": "Boston", "address2": "", "country": "US", "zip_code": "02108", "address1": "24 Tremont St", "address3": ""}, "url": "https://www.yelp.com/biz/tous-les-jours-boston?adjust_creative=8_C4NSGbL05eUQksKleGYw&utm_campaign=yelp_api_v3&utm_medium=api_v3_business_search&utm_source=8_C4NSGbL05eUQksKleGYw", "transactions": [], "phone": "+16179739788", "image_url": "https://s3-media1.fl.yelpcdn.com/bphoto/F6GsmuQdIb2pIKXjW9ce9g/o.jpg"}, {"rating": 4.0, "display_phone": "(617) 482-0117", "price": "$$$", "categories": [{"title": "Cocktail Bars", "alias": "cocktailbars"}, {"title": "American (New)", "alias": "newamerican"}, {"title": "Tapas/Small Plates", "alias": "tapasmallplates"}], "coordinates": {"longitude": -71.0694792474231, "latitude": 42.3466991630507}, "is_closed": false, "name": "Wink & Nod", "distance": 192.7965662702, "review_count": 302, "id": "wink-and-nod-boston", "location": {"display_address": ["3 Appleton St", "Boston, MA 02116"], "state": "MA", "city": "Boston", "address2": "", "country": "US", "zip_code": "02116", "address1": "3 Appleton St", "address3": ""}, "url": "https://www.yelp.com/biz/wink-and-nod-boston?adjust_creative=8_C4NSGbL05eUQksKleGYw&utm_campaign=yelp_api_v3&utm_medium=api_v3_business_search&utm_source=8_C4NSGbL05eUQksKleGYw", "transactions": [], "phone": "+16174820117", "image_url": "https://s3-media2.fl.yelpcdn.com/bphoto/oydWEWPI8DQQd5a5xkl1GA/o.jpg"}, {"rating": 4.0, "display_phone": "(617) 742-4900", "price": "$$", "categories": [{"title": "Seafood", "alias": "seafood"}, {"title": "American (Traditional)", "alias": "tradamerican"}], "coordinates": {"longitude": -71.06245, "latitude": 42.35827}, "is_closed": false, "name": "Scollay Square", "distance": 1351.3664994819999, "review_count": 469, "id": "scollay-square-boston", "location": {"display_address": ["21 Beacon St", "Boston, MA 02108"], "state": "MA", "city": "Boston", "address2": "", "country": "US", "zip_code": "02108", "address1": "21 Beacon St", "address3": ""}, "url": "https://www.yelp.com/biz/scollay-square-boston?adjust_creative=8_C4NSGbL05eUQksKleGYw&utm_campaign=yelp_api_v3&utm_medium=api_v3_business_search&utm_source=8_C4NSGbL05eUQksKleGYw", "transactions": ["delivery"], "phone": "+16177424900", "image_url": "https://s3-media1.fl.yelpcdn.com/bphoto/P9T6OOOAUnTvtRHC1wrekQ/o.jpg"}, {"rating": 4.0, "display_phone": "(617) 720-2010", "price": "$$", "categories": [{"title": "Breakfast & Brunch", "alias": "breakfast_brunch"}, {"title": "American (New)", "alias": "newamerican"}, {"title": "Burgers", "alias": "burgers"}], "coordinates": {"longitude": -71.0525562839306, "latitude": 42.3633987875275}, "is_closed": false, "name": "North Street Grille", "distance": 2312.857831112, "review_count": 559, "id": "north-street-grille-boston-2", "location": {"display_address": ["229 North St", "Boston, MA 02113"], "state": "MA", "city": "Boston", "address2": "", "country": "US", "zip_code": "02113", "address1": "229 North St", "address3": ""}, "url": "https://www.yelp.com/biz/north-street-grille-boston-2?adjust_creative=8_C4NSGbL05eUQksKleGYw&utm_campaign=yelp_api_v3&utm_medium=api_v3_business_search&utm_source=8_C4NSGbL05eUQksKleGYw", "transactions": [], "phone": "+16177202010", "image_url": "https://s3-media1.fl.yelpcdn.com/bphoto/C5hoGj53mU7y8-G2xJEmtQ/o.jpg"}, {"rating": 4.0, "display_phone": "(617) 227-6900", "price": "$", "categories": [{"title": "Turkish", "alias": "turkish"}, {"title": "Mediterranean", "alias": "mediterranean"}], "coordinates": {"longitude": -71.0551781952381, "latitude": 42.3578242957592}, "is_closed": false, "name": "Boston Kebab House", "distance": 1739.1754357080001, "review_count": 194, "id": "boston-kebab-house-boston", "location": {"display_address": ["7 Liberty Sq", "Boston, MA 02109"], "state": "MA", "city": "Boston", "address2": null, "country": "US", "zip_code": "02109", "address1": "7 Liberty Sq", "address3": ""}, "url": "https://www.yelp.com/biz/boston-kebab-house-boston?adjust_creative=8_C4NSGbL05eUQksKleGYw&utm_campaign=yelp_api_v3&utm_medium=api_v3_business_search&utm_source=8_C4NSGbL05eUQksKleGYw", "transactions": ["delivery", "pickup"], "phone": "+16172276900", "image_url": "https://s3-media3.fl.yelpcdn.com/bphoto/7RWNYVphql3npYf_tiaO0A/o.jpg"}, {"rating": 4.5, "display_phone": "", "categories": [{"title": "Parks", "alias": "parks"}], "coordinates": {"longitude": -71.060278, "latitude": 42.358333}, "is_closed": false, "name": "Georges Island", "distance": 1347.9376396779999, "review_count": 47, "id": "georges-island-boston", "location": {"display_address": ["Boston, MA 02228"], "state": "MA", "city": "Boston", "address2": "", "country": "US", "zip_code": "02228", "address1": "", "address3": ""}, "url": "https://www.yelp.com/biz/georges-island-boston?adjust_creative=8_C4NSGbL05eUQksKleGYw&utm_campaign=yelp_api_v3&utm_medium=api_v3_business_search&utm_source=8_C4NSGbL05eUQksKleGYw", "transactions": [], "phone": "", "image_url": "https://s3-media1.fl.yelpcdn.com/bphoto/B8IhzNWo1kihxGKaO5J7Pg/o.jpg"}, {"rating": 4.0, "display_phone": "", "categories": [{"title": "Dog Parks", "alias": "dog_parks"}], "coordinates": {"longitude": -71.0677356272936, "latitude": 42.3424076288939}, "is_closed": false, "name": "Peter's Park Dog Run", "distance": 681.9894968112, "review_count": 57, "id": "peters-park-dog-run-boston", "location": {"display_address": ["1277 Washington St", "Boston, MA 02118"], "state": "MA", "city": "Boston", "address2": "", "country": "US", "zip_code": "02118", "address1": "1277 Washington St", "address3": ""}, "url": "https://www.yelp.com/biz/peters-park-dog-run-boston?adjust_creative=8_C4NSGbL05eUQksKleGYw&utm_campaign=yelp_api_v3&utm_medium=api_v3_business_search&utm_source=8_C4NSGbL05eUQksKleGYw", "transactions": [], "phone": "", "image_url": "https://s3-media3.fl.yelpcdn.com/bphoto/MfJ0cW5a5RC_5WNxnUeDYg/o.jpg"}, {"rating": 4.0, "display_phone": "(617) 269-8741", "price": "$", "categories": [{"title": "Donuts", "alias": "donuts"}, {"title": "Delis", "alias": "delis"}, {"title": "Pizza", "alias": "pizza"}], "coordinates": {"longitude": -71.056792, "latitude": 42.340173}, "is_closed": false, "name": "Doughboy Donuts & Deli", "distance": 1462.190318968, "review_count": 118, "id": "doughboy-donuts-and-deli-boston", "location": {"display_address": ["220 Dorchester Ave", "Boston, MA 02127"], "state": "MA", "city": "Boston", "address2": "", "country": "US", "zip_code": "02127", "address1": "220 Dorchester Ave", "address3": ""}, "url": "https://www.yelp.com/biz/doughboy-donuts-and-deli-boston?adjust_creative=8_C4NSGbL05eUQksKleGYw&utm_campaign=yelp_api_v3&utm_medium=api_v3_business_search&utm_source=8_C4NSGbL05eUQksKleGYw", "transactions": [], "phone": "+16172698741", "image_url": "https://s3-media1.fl.yelpcdn.com/bphoto/FnUo10j9aDb4R173Yj4vbA/o.jpg"}, {"rating": 4.0, "display_phone": "(617) 248-6800", "price": "$$$", "categories": [{"title": "Italian", "alias": "italian"}], "coordinates": {"longitude": -71.0549297, "latitude": 42.3631202}, "is_closed": false, "name": "Bricco", "distance": 2165.793606034, "review_count": 639, "id": "bricco-boston-6", "location": {"display_address": ["241 Hanover St", "Boston, MA 02113"], "state": "MA", "city": "Boston", "address2": "", "country": "US", "zip_code": "02113", "address1": "241 Hanover St", "address3": ""}, "url": "https://www.yelp.com/biz/bricco-boston-6?adjust_creative=8_C4NSGbL05eUQksKleGYw&utm_campaign=yelp_api_v3&utm_medium=api_v3_business_search&utm_source=8_C4NSGbL05eUQksKleGYw", "transactions": [], "phone": "+16172486800", "image_url": "https://s3-media1.fl.yelpcdn.com/bphoto/XBFzGXGf1Qh8HcZNHMj8kA/o.jpg"}, {"rating": 4.0, "display_phone": "(617) 338-9833", "price": "$", "categories": [{"title": "Chinese", "alias": "chinese"}], "coordinates": {"longitude": -71.06027, "latitude": 42.35168}, "is_closed": false, "name": "Wai Wai Restaurant", "distance": 997.2849844379999, "review_count": 153, "id": "wai-wai-restaurant-boston", "location": {"display_address": ["26 Oxford St", "Boston, MA 02111"], "state": "MA", "city": "Boston", "address2": "", "country": "US", "zip_code": "02111", "address1": "26 Oxford St", "address3": ""}, "url": "https://www.yelp.com/biz/wai-wai-restaurant-boston?adjust_creative=8_C4NSGbL05eUQksKleGYw&utm_campaign=yelp_api_v3&utm_medium=api_v3_business_search&utm_source=8_C4NSGbL05eUQksKleGYw", "transactions": [], "phone": "+16173389833", "image_url": "https://s3-media3.fl.yelpcdn.com/bphoto/t6nI1ufmQ9nundXMPRh1tg/o.jpg"}, {"rating": 4.0, "display_phone": "(857) 327-7228", "price": "$$$", "categories": [{"title": "Sushi Bars", "alias": "sushi"}, {"title": "Izakaya", "alias": "izakaya"}], "coordinates": {"longitude": -71.0594073, "latitude": 42.3562862}, "is_closed": false, "name": "PABU Boston", "distance": 1351.556079734, "review_count": 115, "id": "pabu-boston-boston-2", "location": {"display_address": ["3 Franklin St", "Boston, MA 02110"], "state": "MA", "city": "Boston", "address2": "", "country": "US", "zip_code": "02110", "address1": "3 Franklin St", "address3": null}, "url": "https://www.yelp.com/biz/pabu-boston-boston-2?adjust_creative=8_C4NSGbL05eUQksKleGYw&utm_campaign=yelp_api_v3&utm_medium=api_v3_business_search&utm_source=8_C4NSGbL05eUQksKleGYw", "transactions": [], "phone": "+18573277228", "image_url": "https://s3-media1.fl.yelpcdn.com/bphoto/CrFv1tp9KBY7Fdvtjk1j5Q/o.jpg"}, {"rating": 4.5, "display_phone": "(857) 233-2673", "price": "$$", "categories": [{"title": "Salad", "alias": "salad"}, {"title": "Vegetarian", "alias": "vegetarian"}], "coordinates": {"longitude": -71.1003998163073, "latitude": 42.3450966663993}, "is_closed": false, "name": "sweetgreen", "distance": 2415.784458284, "review_count": 37, "id": "sweetgreen-boston-9", "location": {"display_address": ["132 Brookline Ave", "Boston, MA 02215"], "state": "MA", "city": "Boston", "address2": null, "country": "US", "zip_code": "02215", "address1": "132 Brookline Ave", "address3": null}, "url": "https://www.yelp.com/biz/sweetgreen-boston-9?adjust_creative=8_C4NSGbL05eUQksKleGYw&utm_campaign=yelp_api_v3&utm_medium=api_v3_business_search&utm_source=8_C4NSGbL05eUQksKleGYw", "transactions": [], "phone": "+18572332673", "image_url": "https://s3-media1.fl.yelpcdn.com/bphoto/ux-y55BcToqmHWu3vdh-NA/o.jpg"}, {"rating": 4.5, "display_phone": "(617) 423-1110", "price": "$", "categories": [{"title": "American (Traditional)", "alias": "tradamerican"}, {"title": "Seafood", "alias": "seafood"}, {"title": "Breakfast & Brunch", "alias": "breakfast_brunch"}], "coordinates": {"longitude": -71.0372238, "latitude": 42.3451843}, "is_closed": false, "name": "Pete's Dockside", "distance": 2843.2699019359998, "review_count": 58, "id": "petes-dockside-boston-2", "location": {"display_address": ["12 Channel St", "Boston, MA 02210"], "state": "MA", "city": "Boston", "address2": "", "country": "US", "zip_code": "02210", "address1": "12 Channel St", "address3": ""}, "url": "https://www.yelp.com/biz/petes-dockside-boston-2?adjust_creative=8_C4NSGbL05eUQksKleGYw&utm_campaign=yelp_api_v3&utm_medium=api_v3_business_search&utm_source=8_C4NSGbL05eUQksKleGYw", "transactions": [], "phone": "+16174231110", "image_url": "https://s3-media1.fl.yelpcdn.com/bphoto/-PuZSY_ACKptwOLX4cui0w/o.jpg"}, {"rating": 4.0, "display_phone": "(617) 421-1910", "price": "$$", "categories": [{"title": "American (Traditional)", "alias": "tradamerican"}], "coordinates": {"longitude": -71.10323, "latitude": 42.347459}, "is_closed": false, "name": "Audubon Boston", "distance": 2629.319253382, "review_count": 120, "id": "audubon-boston-boston", "location": {"display_address": ["838 Beacon St", "Boston, MA 02215"], "state": "MA", "city": "Boston", "address2": "", "country": "US", "zip_code": "02215", "address1": "838 Beacon St", "address3": ""}, "url": "https://www.yelp.com/biz/audubon-boston-boston?adjust_creative=8_C4NSGbL05eUQksKleGYw&utm_campaign=yelp_api_v3&utm_medium=api_v3_business_search&utm_source=8_C4NSGbL05eUQksKleGYw", "transactions": [], "phone": "+16174211910", "image_url": "https://s3-media4.fl.yelpcdn.com/bphoto/pCJnjM52jMlC0pHEAVRf6Q/o.jpg"}, {"rating": 4.0, "display_phone": "(617) 338-5333", "price": "$$$", "categories": [{"title": "Bars", "alias": "bars"}, {"title": "American (Traditional)", "alias": "tradamerican"}], "coordinates": {"longitude": -71.0623016357422, "latitude": 42.3551597595215}, "is_closed": false, "name": "Bogie's Place", "distance": 1096.2680848740001, "review_count": 64, "id": "bogies-place-boston", "location": {"display_address": ["25 Temple Pl", "Boston, MA 02111"], "state": "MA", "city": "Boston", "address2": null, "country": "US", "zip_code": "02111", "address1": "25 Temple Pl", "address3": ""}, "url": "https://www.yelp.com/biz/bogies-place-boston?adjust_creative=8_C4NSGbL05eUQksKleGYw&utm_campaign=yelp_api_v3&utm_medium=api_v3_business_search&utm_source=8_C4NSGbL05eUQksKleGYw", "transactions": [], "phone": "+16173385333", "image_url": "https://s3-media4.fl.yelpcdn.com/bphoto/7acDdRNQV40wa5MWwb7VPw/o.jpg"}, {"rating": 4.0, "display_phone": "(617) 670-6040", "price": "$", "categories": [{"title": "Desserts", "alias": "desserts"}, {"title": "Breakfast & Brunch", "alias": "breakfast_brunch"}, {"title": "Sandwiches", "alias": "sandwiches"}], "coordinates": {"longitude": -71.0830638, "latitude": 42.3494751}, "is_closed": false, "name": "Patisserie on Newbury", "distance": 988.0150894776, "review_count": 89, "id": "patisserie-on-newbury-boston", "location": {"display_address": ["257 Newbury St", "Boston, MA 02116"], "state": "MA", "city": "Boston", "address2": "", "country": "US", "zip_code": "02116", "address1": "257 Newbury St", "address3": ""}, "url": "https://www.yelp.com/biz/patisserie-on-newbury-boston?adjust_creative=8_C4NSGbL05eUQksKleGYw&utm_campaign=yelp_api_v3&utm_medium=api_v3_business_search&utm_source=8_C4NSGbL05eUQksKleGYw", "transactions": [], "phone": "+16176706040", "image_url": "https://s3-media3.fl.yelpcdn.com/bphoto/dNNb2DJufMEjq1A1rGeeBw/o.jpg"}, {"rating": 4.0, "display_phone": "(617) 523-1300", "categories": [{"title": "Landmarks & Historical Buildings", "alias": "landmarks"}], "coordinates": {"longitude": -71.0560864167609, "latitude": 42.3600458008124}, "is_closed": false, "name": "Faneuil Hall", "distance": 1842.023688022, "review_count": 66, "id": "faneuil-hall-boston", "location": {"display_address": ["0 Faneuil Hall Sq", "Boston, MA 02109"], "state": "MA", "city": "Boston", "address2": "", "country": "US", "zip_code": "02109", "address1": "0 Faneuil Hall Sq", "address3": ""}, "url": "https://www.yelp.com/biz/faneuil-hall-boston?adjust_creative=8_C4NSGbL05eUQksKleGYw&utm_campaign=yelp_api_v3&utm_medium=api_v3_business_search&utm_source=8_C4NSGbL05eUQksKleGYw", "transactions": [], "phone": "+16175231300", "image_url": "https://s3-media1.fl.yelpcdn.com/bphoto/pdKsfFqsv4cwRXurMJE0Hg/o.jpg"}, {"rating": 5.0, "display_phone": "(857) 264-6106", "price": "$", "categories": [{"title": "Coffee & Tea", "alias": "coffee"}], "coordinates": {"longitude": -71.1042499, "latitude": 42.31564}, "is_closed": false, "name": "Tea Bar by EvyTea", "distance": 4497.780374254, "review_count": 40, "id": "tea-bar-by-evytea-boston-2", "location": {"display_address": ["253 Amory St", "Boston, MA 02130"], "state": "MA", "city": "Boston", "address2": null, "country": "US", "zip_code": "02130", "address1": "253 Amory St", "address3": ""}, "url": "https://www.yelp.com/biz/tea-bar-by-evytea-boston-2?adjust_creative=8_C4NSGbL05eUQksKleGYw&utm_campaign=yelp_api_v3&utm_medium=api_v3_business_search&utm_source=8_C4NSGbL05eUQksKleGYw", "transactions": ["pickup"], "phone": "+18572646106", "image_url": "https://s3-media1.fl.yelpcdn.com/bphoto/SefzArYIJ-pReQGJM8IO8w/o.jpg"}, {"rating": 4.0, "display_phone": "(617) 536-5300", "price": "$$$", "categories": [{"title": "Lounges", "alias": "lounges"}, {"title": "American (New)", "alias": "newamerican"}], "coordinates": {"longitude": -71.079742038714, "latitude": 42.3491411506797}, "is_closed": false, "name": "City Bar", "distance": 713.1917991595999, "review_count": 249, "id": "city-bar-boston", "location": {"display_address": ["61 Exeter St", "Boston, MA 02199"], "state": "MA", "city": "Boston", "address2": null, "country": "US", "zip_code": "02199", "address1": "61 Exeter St", "address3": ""}, "url": "https://www.yelp.com/biz/city-bar-boston?adjust_creative=8_C4NSGbL05eUQksKleGYw&utm_campaign=yelp_api_v3&utm_medium=api_v3_business_search&utm_source=8_C4NSGbL05eUQksKleGYw", "transactions": [], "phone": "+16175365300", "image_url": "https://s3-media3.fl.yelpcdn.com/bphoto/inVwDEC5s7L4Bodbbpg-bQ/o.jpg"}, {"rating": 4.0, "display_phone": "(617) 262-0090", "price": "$", "categories": [{"title": "Pizza", "alias": "pizza"}, {"title": "Sandwiches", "alias": "sandwiches"}, {"title": "Salad", "alias": "salad"}], "coordinates": {"longitude": -71.081072, "latitude": 42.349734}, "is_closed": false, "name": "Dirty Water Dough Co", "distance": 834.505393326, "review_count": 267, "id": "dirty-water-dough-co-boston", "location": {"display_address": ["222 Newbury St", "Boston, MA 02116"], "state": "MA", "city": "Boston", "address2": "", "country": "US", "zip_code": "02116", "address1": "222 Newbury St", "address3": ""}, "url": "https://www.yelp.com/biz/dirty-water-dough-co-boston?adjust_creative=8_C4NSGbL05eUQksKleGYw&utm_campaign=yelp_api_v3&utm_medium=api_v3_business_search&utm_source=8_C4NSGbL05eUQksKleGYw", "transactions": ["delivery", "pickup"], "phone": "+16172620090", "image_url": "https://s3-media3.fl.yelpcdn.com/bphoto/AWBgnwykiMRHPs763Tt72g/o.jpg"}, {"rating": 4.0, "display_phone": "(617) 367-6711", "price": "$$", "categories": [{"title": "Italian", "alias": "italian"}, {"title": "Pizza", "alias": "pizza"}], "coordinates": {"longitude": -71.05571, "latitude": 42.36459}, "is_closed": false, "name": "La Famiglia Giorgio's", "distance": 2255.4892053299995, "review_count": 851, "id": "la-famiglia-giorgios-boston-3", "location": {"display_address": ["112 Salem St", "Boston, MA 02113"], "state": "MA", "city": "Boston", "address2": "", "country": "US", "zip_code": "02113", "address1": "112 Salem St", "address3": ""}, "url": "https://www.yelp.com/biz/la-famiglia-giorgios-boston-3?adjust_creative=8_C4NSGbL05eUQksKleGYw&utm_campaign=yelp_api_v3&utm_medium=api_v3_business_search&utm_source=8_C4NSGbL05eUQksKleGYw", "transactions": ["delivery"], "phone": "+16173676711", "image_url": "https://s3-media2.fl.yelpcdn.com/bphoto/5ZFlIVJAl47I9ltfWvmVZA/o.jpg"}, {"rating": 4.0, "display_phone": "(617) 426-7375", "price": "$", "categories": [{"title": "Sandwiches", "alias": "sandwiches"}, {"title": "Coffee & Tea", "alias": "coffee"}, {"title": "Cafes", "alias": "cafes"}], "coordinates": {"longitude": -71.0705338, "latitude": 42.3468094}, "is_closed": false, "name": "Berkeley Perk Cafe", "distance": 127.9527010288, "review_count": 110, "id": "berkeley-perk-cafe-boston", "location": {"display_address": ["69 Berkeley St", "Boston, MA 02116"], "state": "MA", "city": "Boston", "address2": "", "country": "US", "zip_code": "02116", "address1": "69 Berkeley St", "address3": ""}, "url": "https://www.yelp.com/biz/berkeley-perk-cafe-boston?adjust_creative=8_C4NSGbL05eUQksKleGYw&utm_campaign=yelp_api_v3&utm_medium=api_v3_business_search&utm_source=8_C4NSGbL05eUQksKleGYw", "transactions": [], "phone": "+16174267375", "image_url": "https://s3-media1.fl.yelpcdn.com/bphoto/DwVQMc6cej2sYWdQJkP8_Q/o.jpg"}, {"rating": 4.0, "display_phone": "(617) 536-1234", "price": "$$$", "categories": [{"title": "Seafood", "alias": "seafood"}, {"title": "Mediterranean", "alias": "mediterranean"}, {"title": "Greek", "alias": "greek"}], "coordinates": {"longitude": -71.0799231, "latitude": 42.3474013}, "is_closed": false, "name": "Porto", "distance": 715.2097988657999, "review_count": 123, "id": "porto-boston", "location": {"display_address": ["Ring Rd", "Boston, MA 02199"], "state": "MA", "city": "Boston", "address2": "", "country": "US", "zip_code": "02199", "address1": "Ring Rd", "address3": ""}, "url": "https://www.yelp.com/biz/porto-boston?adjust_creative=8_C4NSGbL05eUQksKleGYw&utm_campaign=yelp_api_v3&utm_medium=api_v3_business_search&utm_source=8_C4NSGbL05eUQksKleGYw", "transactions": [], "phone": "+16175361234", "image_url": "https://s3-media2.fl.yelpcdn.com/bphoto/RN6fRvHtfyynMWWwf4oTag/o.jpg"}, {"rating": 4.0, "display_phone": "(617) 227-2175", "price": "$$", "categories": [{"title": "American (New)", "alias": "newamerican"}, {"title": "Diners", "alias": "diners"}, {"title": "Steakhouses", "alias": "steak"}], "coordinates": {"longitude": -71.0709838867188, "latitude": 42.35693359375}, "is_closed": false, "name": "75 Chestnut", "distance": 1011.8429131439999, "review_count": 355, "id": "75-chestnut-boston", "location": {"display_address": ["75 Chestnut St", "Boston, MA 02108"], "state": "MA", "city": "Boston", "address2": "", "country": "US", "zip_code": "02108", "address1": "75 Chestnut St", "address3": ""}, "url": "https://www.yelp.com/biz/75-chestnut-boston?adjust_creative=8_C4NSGbL05eUQksKleGYw&utm_campaign=yelp_api_v3&utm_medium=api_v3_business_search&utm_source=8_C4NSGbL05eUQksKleGYw", "transactions": [], "phone": "+16172272175", "image_url": "https://s3-media3.fl.yelpcdn.com/bphoto/vB2LY202JYrIQ5Vernsomw/o.jpg"}, {"rating": 4.0, "display_phone": "(617) 267-4499", "price": "$$", "categories": [{"title": "Indian", "alias": "indpak"}], "coordinates": {"longitude": -71.0943808368296, "latitude": 42.3485649735803}, "is_closed": false, "name": "India Quality Restaurant", "distance": 1903.333909332, "review_count": 551, "id": "india-quality-restaurant-boston", "location": {"display_address": ["484 Commonwealth Ave", "Boston, MA 02215"], "state": "MA", "city": "Boston", "address2": "", "country": "US", "zip_code": "02215", "address1": "484 Commonwealth Ave", "address3": ""}, "url": "https://www.yelp.com/biz/india-quality-restaurant-boston?adjust_creative=8_C4NSGbL05eUQksKleGYw&utm_campaign=yelp_api_v3&utm_medium=api_v3_business_search&utm_source=8_C4NSGbL05eUQksKleGYw", "transactions": ["delivery", "pickup"], "phone": "+16172674499", "image_url": "https://s3-media1.fl.yelpcdn.com/bphoto/fQZ55wcnwaB5bTBdSKTKSA/o.jpg"}, {"rating": 4.0, "display_phone": "(617) 742-4441", "price": "$$", "categories": [{"title": "Seafood", "alias": "seafood"}], "coordinates": {"longitude": -71.055152437753, "latitude": 42.360156558668}, "is_closed": false, "name": "Boston Chowda Co.", "distance": 1903.4150200679999, "review_count": 663, "id": "boston-chowda-co-boston-3", "location": {"display_address": ["1 Faneuil Hall Market Pl", "Boston, MA 02109"], "state": "MA", "city": "Boston", "address2": "", "country": "US", "zip_code": "02109", "address1": "1 Faneuil Hall Market Pl", "address3": ""}, "url": "https://www.yelp.com/biz/boston-chowda-co-boston-3?adjust_creative=8_C4NSGbL05eUQksKleGYw&utm_campaign=yelp_api_v3&utm_medium=api_v3_business_search&utm_source=8_C4NSGbL05eUQksKleGYw", "transactions": ["delivery"], "phone": "+16177424441", "image_url": "https://s3-media3.fl.yelpcdn.com/bphoto/sMlMvZ4BfbANhLUhOdO3mg/o.jpg"}, {"rating": 4.5, "display_phone": "", "categories": [{"title": "Local Flavor", "alias": "localflavor"}], "coordinates": {"longitude": -71.06434, "latitude": 42.36335}, "is_closed": false, "name": "Beacon Hill", "distance": 2014.699110794, "review_count": 41, "id": "beacon-hill-boston", "location": {"display_address": ["Boston, MA 02114"], "state": "MA", "city": "Boston", "address2": null, "country": "US", "zip_code": "02114", "address1": null, "address3": ""}, "url": "https://www.yelp.com/biz/beacon-hill-boston?adjust_creative=8_C4NSGbL05eUQksKleGYw&utm_campaign=yelp_api_v3&utm_medium=api_v3_business_search&utm_source=8_C4NSGbL05eUQksKleGYw", "transactions": [], "phone": "", "image_url": "https://s3-media1.fl.yelpcdn.com/bphoto/GfPcFJbGXF1rEvS_nX6Xmw/o.jpg"}, {"rating": 4.0, "display_phone": "(617) 482-1888", "price": "$", "categories": [{"title": "Chinese", "alias": "chinese"}, {"title": "Noodles", "alias": "noodles"}], "coordinates": {"longitude": -71.0595619, "latitude": 42.3534194}, "is_closed": false, "name": "Gene's Chinese Flatbread Cafe", "distance": 1142.777528072, "review_count": 186, "id": "genes-chinese-flatbread-cafe-boston", "location": {"display_address": ["86 Bedford St", "Boston, MA 02111"], "state": "MA", "city": "Boston", "address2": "", "country": "US", "zip_code": "02111", "address1": "86 Bedford St", "address3": ""}, "url": "https://www.yelp.com/biz/genes-chinese-flatbread-cafe-boston?adjust_creative=8_C4NSGbL05eUQksKleGYw&utm_campaign=yelp_api_v3&utm_medium=api_v3_business_search&utm_source=8_C4NSGbL05eUQksKleGYw", "transactions": [], "phone": "+16174821888", "image_url": "https://s3-media1.fl.yelpcdn.com/bphoto/wZ-d_J7SP9FvvFlt309seA/o.jpg"}, {"rating": 4.0, "display_phone": "(857) 244-1174", "price": "$", "categories": [{"title": "Food Stands", "alias": "foodstands"}, {"title": "Armenian", "alias": "armenian"}], "coordinates": {"longitude": -71.0597632, "latitude": 42.3549525}, "is_closed": false, "name": "Karo's BBQ", "distance": 1231.039527296, "review_count": 57, "id": "karos-bbq-boston-2", "location": {"display_address": ["1 Washington Mall", "Boston, MA 02110"], "state": "MA", "city": "Boston", "address2": "", "country": "US", "zip_code": "02110", "address1": "1 Washington Mall", "address3": ""}, "url": "https://www.yelp.com/biz/karos-bbq-boston-2?adjust_creative=8_C4NSGbL05eUQksKleGYw&utm_campaign=yelp_api_v3&utm_medium=api_v3_business_search&utm_source=8_C4NSGbL05eUQksKleGYw", "transactions": [], "phone": "+18572441174", "image_url": "https://s3-media3.fl.yelpcdn.com/bphoto/sJz2SwUF2Lh-xC9gJWQREw/o.jpg"}, {"rating": 4.0, "display_phone": "(617) 227-7280", "price": "$$", "categories": [{"title": "Bars", "alias": "bars"}, {"title": "American (Traditional)", "alias": "tradamerican"}], "coordinates": {"longitude": -71.050748116975, "latitude": 42.362543759667}, "is_closed": false, "name": "Boston Sail Loft", "distance": 2346.905671888, "review_count": 356, "id": "boston-sail-loft-boston", "location": {"display_address": ["80 Atlantic Ave", "Boston, MA 02110"], "state": "MA", "city": "Boston", "address2": "", "country": "US", "zip_code": "02110", "address1": "80 Atlantic Ave", "address3": ""}, "url": "https://www.yelp.com/biz/boston-sail-loft-boston?adjust_creative=8_C4NSGbL05eUQksKleGYw&utm_campaign=yelp_api_v3&utm_medium=api_v3_business_search&utm_source=8_C4NSGbL05eUQksKleGYw", "transactions": [], "phone": "+16172277280", "image_url": "https://s3-media2.fl.yelpcdn.com/bphoto/jddeJbF4o6MWkZfPvatOkw/o.jpg"}, {"rating": 4.5, "display_phone": "(617) 727-7030", "categories": [{"title": "Landmarks & Historical Buildings", "alias": "landmarks"}], "coordinates": {"longitude": -71.0636807080273, "latitude": 42.358169210446}, "is_closed": false, "name": "Massachusetts State House", "distance": 1305.5507461976, "review_count": 38, "id": "massachusetts-state-house-boston", "location": {"display_address": ["24 Beacon St", "Boston, MA 02133"], "state": "MA", "city": "Boston", "address2": "", "country": "US", "zip_code": "02133", "address1": "24 Beacon St", "address3": ""}, "url": "https://www.yelp.com/biz/massachusetts-state-house-boston?adjust_creative=8_C4NSGbL05eUQksKleGYw&utm_campaign=yelp_api_v3&utm_medium=api_v3_business_search&utm_source=8_C4NSGbL05eUQksKleGYw", "transactions": [], "phone": "+16177277030", "image_url": "https://s3-media2.fl.yelpcdn.com/bphoto/lfOquQrQEu4zq_5EXktqGA/o.jpg"}, {"rating": 4.0, "display_phone": "(617) 536-0448", "price": "$", "categories": [{"title": "Burgers", "alias": "burgers"}, {"title": "Fast Food", "alias": "hotdogs"}, {"title": "Sandwiches", "alias": "sandwiches"}], "coordinates": {"longitude": -71.09527, "latitude": 42.34957}, "is_closed": false, "name": "Uburger", "distance": 1984.55923034, "review_count": 404, "id": "uburger-boston", "location": {"display_address": ["Kenmore Sq", "636 Beacon St", "Boston, MA 02215"], "state": "MA", "city": "Boston", "address2": "636 Beacon St", "country": "US", "zip_code": "02215", "address1": "Kenmore Sq", "address3": ""}, "url": "https://www.yelp.com/biz/uburger-boston?adjust_creative=8_C4NSGbL05eUQksKleGYw&utm_campaign=yelp_api_v3&utm_medium=api_v3_business_search&utm_source=8_C4NSGbL05eUQksKleGYw", "transactions": ["pickup"], "phone": "+16175360448", "image_url": "https://s3-media3.fl.yelpcdn.com/bphoto/MlsvOSsHFIMUbjPmP_09zw/o.jpg"}, {"rating": 4.0, "display_phone": "(617) 227-7606", "price": "$", "categories": [{"title": "Coffee & Tea", "alias": "coffee"}, {"title": "Italian", "alias": "italian"}], "coordinates": {"longitude": -71.05448, "latitude": 42.36418}, "is_closed": false, "name": "Caff\u00e9 Vittoria", "distance": 2278.90268832, "review_count": 645, "id": "caff\u00e9-vittoria-boston-3", "location": {"display_address": ["296 Hanover St", "Boston, MA 02113"], "state": "MA", "city": "Boston", "address2": "", "country": "US", "zip_code": "02113", "address1": "296 Hanover St", "address3": ""}, "url": "https://www.yelp.com/biz/caff%C3%A9-vittoria-boston-3?adjust_creative=8_C4NSGbL05eUQksKleGYw&utm_campaign=yelp_api_v3&utm_medium=api_v3_business_search&utm_source=8_C4NSGbL05eUQksKleGYw", "transactions": [], "phone": "+16172277606", "image_url": "https://s3-media1.fl.yelpcdn.com/bphoto/3xTVcBhCaLteaYyuS2Emhw/o.jpg"}, {"rating": 4.0, "display_phone": "(617) 266-6662", "price": "$$", "categories": [{"title": "Pubs", "alias": "pubs"}, {"title": "American (Traditional)", "alias": "tradamerican"}], "coordinates": {"longitude": -71.093849, "latitude": 42.34851}, "is_closed": false, "name": "The Lower Depths", "distance": 1859.027813528, "review_count": 425, "id": "the-lower-depths-boston", "location": {"display_address": ["476 Commonwealth Ave", "Boston, MA 02115"], "state": "MA", "city": "Boston", "address2": "", "country": "US", "zip_code": "02115", "address1": "476 Commonwealth Ave", "address3": ""}, "url": "https://www.yelp.com/biz/the-lower-depths-boston?adjust_creative=8_C4NSGbL05eUQksKleGYw&utm_campaign=yelp_api_v3&utm_medium=api_v3_business_search&utm_source=8_C4NSGbL05eUQksKleGYw", "transactions": [], "phone": "+16172666662", "image_url": "https://s3-media2.fl.yelpcdn.com/bphoto/VkPW9zm0971k0LxUR2DSwQ/o.jpg"}, {"rating": 4.0, "display_phone": "(617) 425-4444", "price": "$", "categories": [{"title": "Burgers", "alias": "burgers"}, {"title": "Hot Dogs", "alias": "hotdog"}, {"title": "Fast Food", "alias": "hotdogs"}], "coordinates": {"longitude": -71.0979707, "latitude": 42.3446525}, "is_closed": false, "name": "Tasty Burger", "distance": 2259.364978852, "review_count": 854, "id": "tasty-burger-boston", "location": {"display_address": ["1301 Boylston St", "Boston, MA 02215"], "state": "MA", "city": "Boston", "address2": "", "country": "US", "zip_code": "02215", "address1": "1301 Boylston St", "address3": ""}, "url": "https://www.yelp.com/biz/tasty-burger-boston?adjust_creative=8_C4NSGbL05eUQksKleGYw&utm_campaign=yelp_api_v3&utm_medium=api_v3_business_search&utm_source=8_C4NSGbL05eUQksKleGYw", "transactions": [], "phone": "+16174254444", "image_url": "https://s3-media4.fl.yelpcdn.com/bphoto/gjlIvYF8tUy1hDEcXM5N5w/o.jpg"}, {"rating": 4.0, "display_phone": "(617) 477-5828", "price": "$$", "categories": [{"title": "Chinese", "alias": "chinese"}], "coordinates": {"longitude": -71.0602569580078, "latitude": 42.3507995605469}, "is_closed": false, "name": "BLR By Shojo", "distance": 955.7184681159999, "review_count": 158, "id": "blr-by-shojo-boston-2", "location": {"display_address": ["13A Hudson St", "Boston, MA 02111"], "state": "MA", "city": "Boston", "address2": "", "country": "US", "zip_code": "02111", "address1": "13A Hudson St", "address3": ""}, "url": "https://www.yelp.com/biz/blr-by-shojo-boston-2?adjust_creative=8_C4NSGbL05eUQksKleGYw&utm_campaign=yelp_api_v3&utm_medium=api_v3_business_search&utm_source=8_C4NSGbL05eUQksKleGYw", "transactions": [], "phone": "+16174775828", "image_url": "https://s3-media4.fl.yelpcdn.com/bphoto/70FOahAHIHT7UmUH6U7GWQ/o.jpg"}, {"rating": 4.0, "display_phone": "(617) 692-8888", "price": "$$$", "categories": [{"title": "Seafood", "alias": "seafood"}, {"title": "Italian", "alias": "italian"}], "coordinates": {"longitude": -71.06201, "latitude": 42.35338}, "is_closed": false, "name": "Legal Crossing", "distance": 987.939305657, "review_count": 239, "id": "legal-crossing-boston", "location": {"display_address": ["558 Washington St", "Boston, MA 02111"], "state": "MA", "city": "Boston", "address2": "", "country": "US", "zip_code": "02111", "address1": "558 Washington St", "address3": ""}, "url": "https://www.yelp.com/biz/legal-crossing-boston?adjust_creative=8_C4NSGbL05eUQksKleGYw&utm_campaign=yelp_api_v3&utm_medium=api_v3_business_search&utm_source=8_C4NSGbL05eUQksKleGYw", "transactions": [], "phone": "+16176928888", "image_url": "https://s3-media2.fl.yelpcdn.com/bphoto/zVxGtD3zCLyK5NvT9K_nrg/o.jpg"}, {"rating": 4.0, "display_phone": "(857) 233-4094", "price": "$$", "categories": [{"title": "Wine Bars", "alias": "wine_bars"}, {"title": "Coffee & Tea", "alias": "coffee"}], "coordinates": {"longitude": -71.06322, "latitude": 42.35183}, "is_closed": false, "name": "Jaho Coffee Roaster & Wine Bar", "distance": 804.6256304962, "review_count": 154, "id": "jaho-coffee-roaster-and-wine-bar-boston", "location": {"display_address": ["665 Washington St", "Boston, MA 02116"], "state": "MA", "city": "Boston", "address2": null, "country": "US", "zip_code": "02116", "address1": "665 Washington St", "address3": ""}, "url": "https://www.yelp.com/biz/jaho-coffee-roaster-and-wine-bar-boston?adjust_creative=8_C4NSGbL05eUQksKleGYw&utm_campaign=yelp_api_v3&utm_medium=api_v3_business_search&utm_source=8_C4NSGbL05eUQksKleGYw", "transactions": [], "phone": "+18572334094", "image_url": "https://s3-media1.fl.yelpcdn.com/bphoto/o6HeGLHndlvQcaPP4Pjijw/o.jpg"}, {"rating": 4.0, "display_phone": "(617) 670-1345", "price": "$$$", "categories": [{"title": "Seafood", "alias": "seafood"}, {"title": "Steakhouses", "alias": "steak"}, {"title": "American (New)", "alias": "newamerican"}], "coordinates": {"longitude": -71.0440584272146, "latitude": 42.3511248081923}, "is_closed": false, "name": "Ocean Prime", "distance": 2316.5903733739997, "review_count": 162, "id": "ocean-prime-boston-2", "location": {"display_address": ["140 Seaport Blvd", "Boston, MA 02210"], "state": "MA", "city": "Boston", "address2": "", "country": "US", "zip_code": "02210", "address1": "140 Seaport Blvd", "address3": ""}, "url": "https://www.yelp.com/biz/ocean-prime-boston-2?adjust_creative=8_C4NSGbL05eUQksKleGYw&utm_campaign=yelp_api_v3&utm_medium=api_v3_business_search&utm_source=8_C4NSGbL05eUQksKleGYw", "transactions": [], "phone": "+16176701345", "image_url": "https://s3-media4.fl.yelpcdn.com/bphoto/rnYw6gxRPn3YTvof-8elqg/o.jpg"}, {"rating": 4.0, "display_phone": "(617) 536-7669", "price": "$", "categories": [{"title": "Sandwiches", "alias": "sandwiches"}, {"title": "Breakfast & Brunch", "alias": "breakfast_brunch"}, {"title": "Diners", "alias": "diners"}], "coordinates": {"longitude": -71.077773, "latitude": 42.344109}, "is_closed": false, "name": "Charlie's Sandwich Shoppe", "distance": 678.610880602, "review_count": 231, "id": "charlies-sandwich-shoppe-boston", "location": {"display_address": ["429 Columbus Ave", "Boston, MA 02116"], "state": "MA", "city": "Boston", "address2": "", "country": "US", "zip_code": "02116", "address1": "429 Columbus Ave", "address3": ""}, "url": "https://www.yelp.com/biz/charlies-sandwich-shoppe-boston?adjust_creative=8_C4NSGbL05eUQksKleGYw&utm_campaign=yelp_api_v3&utm_medium=api_v3_business_search&utm_source=8_C4NSGbL05eUQksKleGYw", "transactions": [], "phone": "+16175367669", "image_url": "https://s3-media4.fl.yelpcdn.com/bphoto/YPcRPT694ymmp1jCvpxlVw/o.jpg"}, {"rating": 4.0, "display_phone": "(857) 350-3344", "price": "$$", "categories": [{"title": "American (New)", "alias": "newamerican"}, {"title": "Bars", "alias": "bars"}], "coordinates": {"longitude": -71.063986, "latitude": 42.36105}, "is_closed": false, "name": "The Tip Tap Room", "distance": 1584.90619545, "review_count": 492, "id": "the-tip-tap-room-boston", "location": {"display_address": ["138 Cambridge St", "Boston, MA 02114"], "state": "MA", "city": "Boston", "address2": "", "country": "US", "zip_code": "02114", "address1": "138 Cambridge St", "address3": ""}, "url": "https://www.yelp.com/biz/the-tip-tap-room-boston?adjust_creative=8_C4NSGbL05eUQksKleGYw&utm_campaign=yelp_api_v3&utm_medium=api_v3_business_search&utm_source=8_C4NSGbL05eUQksKleGYw", "transactions": [], "phone": "+18573503344", "image_url": "https://s3-media1.fl.yelpcdn.com/bphoto/F-q37O7201QO8CO0dZ7jcQ/o.jpg"}, {"rating": 4.0, "display_phone": "(617) 236-1500", "price": "$", "categories": [{"title": "Coffee & Tea", "alias": "coffee"}, {"title": "Sandwiches", "alias": "sandwiches"}, {"title": "Bagels", "alias": "bagels"}], "coordinates": {"longitude": -71.0884725931989, "latitude": 42.3469565156457}, "is_closed": false, "name": "Pavement Coffeehouse", "distance": 1419.1657406059999, "review_count": 329, "id": "pavement-coffeehouse-boston", "location": {"display_address": ["1096 Boylston St", "Boston, MA 02215"], "state": "MA", "city": "Boston", "address2": "", "country": "US", "zip_code": "02215", "address1": "1096 Boylston St", "address3": ""}, "url": "https://www.yelp.com/biz/pavement-coffeehouse-boston?adjust_creative=8_C4NSGbL05eUQksKleGYw&utm_campaign=yelp_api_v3&utm_medium=api_v3_business_search&utm_source=8_C4NSGbL05eUQksKleGYw", "transactions": [], "phone": "+16172361500", "image_url": "https://s3-media1.fl.yelpcdn.com/bphoto/dO9gTYfKWHVD0pvTZpJ2-A/o.jpg"}, {"rating": 4.5, "display_phone": "(617) 265-7067", "price": "$", "categories": [{"title": "Spanish", "alias": "spanish"}, {"title": "Dominican", "alias": "dominican"}, {"title": "Puerto Rican", "alias": "puertorican"}], "coordinates": {"longitude": -71.0663495957851, "latitude": 42.3176535218954}, "is_closed": false, "name": "Paraiso Restaurant", "distance": 3376.8324167439996, "review_count": 58, "id": "paraiso-restaurant-boston", "location": {"display_address": ["750 Dudley St", "Boston, MA 02125"], "state": "MA", "city": "Boston", "address2": "", "country": "US", "zip_code": "02125", "address1": "750 Dudley St", "address3": ""}, "url": "https://www.yelp.com/biz/paraiso-restaurant-boston?adjust_creative=8_C4NSGbL05eUQksKleGYw&utm_campaign=yelp_api_v3&utm_medium=api_v3_business_search&utm_source=8_C4NSGbL05eUQksKleGYw", "transactions": [], "phone": "+16172657067", "image_url": "https://s3-media4.fl.yelpcdn.com/bphoto/BTr6VyHF7n2_QYIklT7EnQ/o.jpg"}, {"rating": 3.5, "display_phone": "(617) 266-4600", "price": "$$", "categories": [{"title": "Bars", "alias": "bars"}, {"title": "American (Traditional)", "alias": "tradamerican"}, {"title": "Breakfast & Brunch", "alias": "breakfast_brunch"}], "coordinates": {"longitude": -71.0754318237305, "latitude": 42.3422470092773}, "is_closed": false, "name": "Tremont 647", "distance": 711.1315864651999, "review_count": 684, "id": "tremont-647-boston", "location": {"display_address": ["647 Tremont St", "Boston, MA 02118"], "state": "MA", "city": "Boston", "address2": "", "country": "US", "zip_code": "02118", "address1": "647 Tremont St", "address3": ""}, "url": "https://www.yelp.com/biz/tremont-647-boston?adjust_creative=8_C4NSGbL05eUQksKleGYw&utm_campaign=yelp_api_v3&utm_medium=api_v3_business_search&utm_source=8_C4NSGbL05eUQksKleGYw", "transactions": [], "phone": "+16172664600", "image_url": "https://s3-media2.fl.yelpcdn.com/bphoto/fP-63-DZDsHFEUbTP8ZfCw/o.jpg"}, {"rating": 4.0, "display_phone": "(617) 765-8636", "price": "$$", "categories": [{"title": "American (New)", "alias": "newamerican"}, {"title": "Pizza", "alias": "pizza"}, {"title": "Burgers", "alias": "burgers"}], "coordinates": {"longitude": -71.04763, "latitude": 42.33632}, "is_closed": false, "name": "Lincoln Tavern & Restaurant", "distance": 2325.654498122, "review_count": 464, "id": "lincoln-tavern-and-restaurant-boston", "location": {"display_address": ["425 W Broadway", "Boston, MA 02127"], "state": "MA", "city": "Boston", "address2": "", "country": "US", "zip_code": "02127", "address1": "425 W Broadway", "address3": ""}, "url": "https://www.yelp.com/biz/lincoln-tavern-and-restaurant-boston?adjust_creative=8_C4NSGbL05eUQksKleGYw&utm_campaign=yelp_api_v3&utm_medium=api_v3_business_search&utm_source=8_C4NSGbL05eUQksKleGYw", "transactions": [], "phone": "+16177658636", "image_url": "https://s3-media3.fl.yelpcdn.com/bphoto/dolqflLk3Q7JpLthmo-6Pg/o.jpg"}, {"rating": 4.0, "display_phone": "(617) 737-5051", "price": "$$", "categories": [{"title": "Mediterranean", "alias": "mediterranean"}, {"title": "Greek", "alias": "greek"}, {"title": "Cocktail Bars", "alias": "cocktailbars"}], "coordinates": {"longitude": -71.0455704, "latitude": 42.3529892}, "is_closed": false, "name": "Committee", "distance": 2149.4702313479997, "review_count": 197, "id": "committee-boston", "location": {"display_address": ["50 Northern Ave", "Boston, MA 02210"], "state": "MA", "city": "Boston", "address2": "", "country": "US", "zip_code": "02210", "address1": "50 Northern Ave", "address3": ""}, "url": "https://www.yelp.com/biz/committee-boston?adjust_creative=8_C4NSGbL05eUQksKleGYw&utm_campaign=yelp_api_v3&utm_medium=api_v3_business_search&utm_source=8_C4NSGbL05eUQksKleGYw", "transactions": [], "phone": "+16177375051", "image_url": "https://s3-media2.fl.yelpcdn.com/bphoto/rkUtFG2G_2PxBSyRi3Z_UQ/o.jpg"}, {"rating": 4.0, "display_phone": "(857) 284-7462", "price": "$", "categories": [{"title": "Coffee & Tea", "alias": "coffee"}, {"title": "Sandwiches", "alias": "sandwiches"}], "coordinates": {"longitude": -71.054497, "latitude": 42.358437}, "is_closed": false, "name": "Espresso Love", "distance": 1811.1438330359997, "review_count": 108, "id": "espresso-love-boston", "location": {"display_address": ["33 Broad St", "Boston, MA 02109"], "state": "MA", "city": "Boston", "address2": "", "country": "US", "zip_code": "02109", "address1": "33 Broad St", "address3": ""}, "url": "https://www.yelp.com/biz/espresso-love-boston?adjust_creative=8_C4NSGbL05eUQksKleGYw&utm_campaign=yelp_api_v3&utm_medium=api_v3_business_search&utm_source=8_C4NSGbL05eUQksKleGYw", "transactions": [], "phone": "+18572847462", "image_url": "https://s3-media3.fl.yelpcdn.com/bphoto/IrKoPVvDtFeBTeq2YRzxJQ/o.jpg"}, {"rating": 4.0, "display_phone": "(617) 567-7412", "price": "$$", "categories": [{"title": "Italian", "alias": "italian"}], "coordinates": {"longitude": -71.032104213469, "latitude": 42.378294552494}, "is_closed": false, "name": "Rino's Place", "distance": 4669.7739196679995, "review_count": 624, "id": "rinos-place-boston", "location": {"display_address": ["258 Saratoga St", "Boston, MA 02128"], "state": "MA", "city": "Boston", "address2": "", "country": "US", "zip_code": "02128", "address1": "258 Saratoga St", "address3": ""}, "url": "https://www.yelp.com/biz/rinos-place-boston?adjust_creative=8_C4NSGbL05eUQksKleGYw&utm_campaign=yelp_api_v3&utm_medium=api_v3_business_search&utm_source=8_C4NSGbL05eUQksKleGYw", "transactions": [], "phone": "+16175677412", "image_url": "https://s3-media2.fl.yelpcdn.com/bphoto/8kl75QCK843rW0Y9sXYVsA/o.jpg"}, {"rating": 4.0, "display_phone": "(857) 991-1483", "price": "$$", "categories": [{"title": "Korean", "alias": "korean"}, {"title": "Asian Fusion", "alias": "asianfusion"}], "coordinates": {"longitude": -71.056273070639, "latitude": 42.3605931357964}, "is_closed": false, "name": "Koy", "distance": 1876.840310516, "review_count": 238, "id": "koy-boston", "location": {"display_address": ["16 North St", "Boston, MA 02109"], "state": "MA", "city": "Boston", "address2": null, "country": "US", "zip_code": "02109", "address1": "16 North St", "address3": ""}, "url": "https://www.yelp.com/biz/koy-boston?adjust_creative=8_C4NSGbL05eUQksKleGYw&utm_campaign=yelp_api_v3&utm_medium=api_v3_business_search&utm_source=8_C4NSGbL05eUQksKleGYw", "transactions": ["delivery", "pickup"], "phone": "+18579911483", "image_url": "https://s3-media1.fl.yelpcdn.com/bphoto/n7e75gdjMy_fxmvwy0aZRg/o.jpg"}], "total": 24769}