{"region": {"center": {"longitude": -71.07124328613281, "latitude": 42.34784169448538}}, "businesses": [{"rating": 4.5, "display_phone": "(617) 742-4101", "price": "$$", "categories": [{"title": "Specialty Food", "alias": "gourmet"}, {"title": "Italian", "alias": "italian"}, {"title": "Pizza", "alias": "pizza"}], "coordinates": {"longitude": -71.0555877685547, "latitude": 42.3651084899902}, "is_closed": false, "name": "Monica's Mercato", "distance": 2311.33893602, "review_count": 268, "id": "monicas-mercato-boston-3", "location": {"display_address": ["130 Salem St", "Boston, MA 02113"], "state": "MA", "city": "Boston", "address2": "", "country": "US", "zip_code": "02113", "address1": "130 Salem St", "address3": ""}, "url": "https://www.yelp.com/biz/monicas-mercato-boston-3?adjust_creative=8_C4NSGbL05eUQksKleGYw&utm_campaign=yelp_api_v3&utm_medium=api_v3_business_search&utm_source=8_C4NSGbL05eUQksKleGYw", "transactions": [], "phone": "+16177424101", "image_url": "https://s3-media4.fl.yelpcdn.com/bphoto/fVoB1JLBn22PxcaL9hiwxA/o.jpg"}, {"rating": 4.5, "display_phone": "", "price": "$$", "categories": [{"title": "Coffee & Tea", "alias": "coffee"}], "coordinates": {"longitude": -71.0581312420251, "latitude": 42.3515995758639}, "is_closed": false, "name": "Gracenote", "distance": 1155.9130255256, "review_count": 72, "id": "gracenote-boston-4", "location": {"display_address": ["108 Lincoln St", "Boston, MA 02111"], "state": "MA", "city": "Boston", "address2": "", "country": "US", "zip_code": "02111", "address1": "108 Lincoln St", "address3": ""}, "url": "https://www.yelp.com/biz/gracenote-boston-4?adjust_creative=8_C4NSGbL05eUQksKleGYw&utm_campaign=yelp_api_v3&utm_medium=api_v3_business_search&utm_source=8_C4NSGbL05eUQksKleGYw", "transactions": [], "phone": "", "image_url": "https://s3-media1.fl.yelpcdn.com/bphoto/FwPWtJNicg_L_GiA7VIIrQ/o.jpg"}, {"rating": 4.5, "display_phone": "(857) 350-4626", "price": "$$", "categories": [{"title": "Seafood", "alias": "seafood"}], "coordinates": {"longitude": -71.0793047980242, "latitude": 42.3487198596183}, "is_closed": false, "name": "Luke's Lobster Back Bay", "distance": 669.8645522237999, "review_count": 572, "id": "lukes-lobster-back-bay-boston", "location": {"display_address": ["75 Exeter Street", "Boston, MA 02116"], "state": "MA", "city": "Boston", "address2": "", "country": "US", "zip_code": "02116", "address1": "75 Exeter Street", "address3": ""}, "url": "https://www.yelp.com/biz/lukes-lobster-back-bay-boston?adjust_creative=8_C4NSGbL05eUQksKleGYw&utm_campaign=yelp_api_v3&utm_medium=api_v3_business_search&utm_source=8_C4NSGbL05eUQksKleGYw", "transactions": [], "phone": "+18573504626", "image_url": "https://s3-media1.fl.yelpcdn.com/bphoto/TBUmILQ4i-CQwCJyyKFyMw/o.jpg"}, {"rating": 4.5, "display_phone": "(617) 338-4333", "price": "$$", "categories": [{"title": "Bakeries", "alias": "bakeries"}, {"title": "Coffee & Tea", "alias": "coffee"}, {"title": "Sandwiches", "alias": "sandwiches"}], "coordinates": {"longitude": -71.0488128662109, "latitude": 42.3513679504395}, "is_closed": false, "name": "Flour Bakery + Caf\u00e9", "distance": 1884.7824034159999, "review_count": 837, "id": "flour-bakery-caf\u00e9-boston-4", "location": {"display_address": ["12 Farnsworth St", "Boston, MA 02210"], "state": "MA", "city": "Boston", "address2": "", "country": "US", "zip_code": "02210", "address1": "12 Farnsworth St", "address3": ""}, "url": "https://www.yelp.com/biz/flour-bakery-caf%C3%A9-boston-4?adjust_creative=8_C4NSGbL05eUQksKleGYw&utm_campaign=yelp_api_v3&utm_medium=api_v3_business_search&utm_source=8_C4NSGbL05eUQksKleGYw", "transactions": [], "phone": "+16173384333", "image_url": "https://s3-media4.fl.yelpcdn.com/bphoto/kl0QKGbMFVZE3Rexu_tOWg/o.jpg"}, {"rating": 4.5, "display_phone": "(617) 635-4505", "categories": [{"title": "Landmarks & Historical Buildings", "alias": "landmarks"}], "coordinates": {"longitude": -71.0570919513702, "latitude": 42.3606210188223}, "is_closed": false, "name": "New England Holocaust Memorial", "distance": 1836.2022224399998, "review_count": 82, "id": "new-england-holocaust-memorial-boston", "location": {"display_address": ["Congress St", "Between North St and Hanover St", "Boston, MA 02109"], "state": "MA", "city": "Boston", "address2": "Between North St and Hanover St", "country": "US", "zip_code": "02109", "address1": "Congress St", "address3": ""}, "url": "https://www.yelp.com/biz/new-england-holocaust-memorial-boston?adjust_creative=8_C4NSGbL05eUQksKleGYw&utm_campaign=yelp_api_v3&utm_medium=api_v3_business_search&utm_source=8_C4NSGbL05eUQksKleGYw", "transactions": [], "phone": "+16176354505", "image_url": "https://s3-media1.fl.yelpcdn.com/bphoto/bQIBMIkrpe_r3N-q1eBLJg/o.jpg"}, {"rating": 4.5, "display_phone": "(617) 338-6700", "price": "$", "categories": [{"title": "Italian", "alias": "italian"}, {"title": "Pizza", "alias": "pizza"}], "coordinates": {"longitude": -71.0546112, "latitude": 42.3580513}, "is_closed": false, "name": "Casa Razdora", "distance": 1772.578896748, "review_count": 275, "id": "casa-razdora-boston", "location": {"display_address": ["115 Water St", "Boston, MA 02109"], "state": "MA", "city": "Boston", "address2": "", "country": "US", "zip_code": "02109", "address1": "115 Water St", "address3": ""}, "url": "https://www.yelp.com/biz/casa-razdora-boston?adjust_creative=8_C4NSGbL05eUQksKleGYw&utm_campaign=yelp_api_v3&utm_medium=api_v3_business_search&utm_source=8_C4NSGbL05eUQksKleGYw", "transactions": [], "phone": "+16173386700", "image_url": "https://s3-media4.fl.yelpcdn.com/bphoto/6MDK76SqbCrL6G9oWYtPww/o.jpg"}, {"rating": 4.0, "display_phone": "(617) 867-9300", "price": "$$$$", "categories": [{"title": "French", "alias": "french"}, {"title": "Bars", "alias": "bars"}], "coordinates": {"longitude": -71.072759141675, "latitude": 42.3481578332115}, "is_closed": false, "name": "Mistral", "distance": 129.527810367, "review_count": 817, "id": "mistral-boston", "location": {"display_address": ["223 Columbus Ave", "Boston, MA 02116"], "state": "MA", "city": "Boston", "address2": "", "country": "US", "zip_code": "02116", "address1": "223 Columbus Ave", "address3": ""}, "url": "https://www.yelp.com/biz/mistral-boston?adjust_creative=8_C4NSGbL05eUQksKleGYw&utm_campaign=yelp_api_v3&utm_medium=api_v3_business_search&utm_source=8_C4NSGbL05eUQksKleGYw", "transactions": [], "phone": "+16178679300", "image_url": "https://s3-media1.fl.yelpcdn.com/bphoto/z8m4-NF9diw6igl5B938zw/o.jpg"}, {"rating": 4.0, "display_phone": "(617) 262-3023", "price": "$$$$", "categories": [{"title": "French", "alias": "french"}], "coordinates": {"longitude": -71.0815322399139, "latitude": 42.3488797992468}, "is_closed": false, "name": "L'Espalier", "distance": 815.1737920318, "review_count": 736, "id": "l-espalier-boston", "location": {"display_address": ["774 Boylston St", "Boston, MA 02199"], "state": "MA", "city": "Boston", "address2": "", "country": "US", "zip_code": "02199", "address1": "774 Boylston St", "address3": ""}, "url": "https://www.yelp.com/biz/l-espalier-boston?adjust_creative=8_C4NSGbL05eUQksKleGYw&utm_campaign=yelp_api_v3&utm_medium=api_v3_business_search&utm_source=8_C4NSGbL05eUQksKleGYw", "transactions": [], "phone": "+16172623023", "image_url": "https://s3-media1.fl.yelpcdn.com/bphoto/U3tYPwwCERJKE9pE8TLM-A/o.jpg"}, {"rating": 4.5, "display_phone": "(617) 532-5300", "price": "$$$", "categories": [{"title": "Seafood", "alias": "seafood"}], "coordinates": {"longitude": -71.095118452365, "latitude": 42.348682243174}, "is_closed": false, "name": "Island Creek Oyster Bar", "distance": 1964.0515716539999, "review_count": 2056, "id": "island-creek-oyster-bar-boston", "location": {"display_address": ["500 Commonwealth Ave", "Boston, MA 02215"], "state": "MA", "city": "Boston", "address2": "", "country": "US", "zip_code": "02215", "address1": "500 Commonwealth Ave", "address3": ""}, "url": "https://www.yelp.com/biz/island-creek-oyster-bar-boston?adjust_creative=8_C4NSGbL05eUQksKleGYw&utm_campaign=yelp_api_v3&utm_medium=api_v3_business_search&utm_source=8_C4NSGbL05eUQksKleGYw", "transactions": [], "phone": "+16175325300", "image_url": "https://s3-media4.fl.yelpcdn.com/bphoto/lvklNXiwAOu44sJWqxkAMQ/o.jpg"}, {"rating": 4.5, "display_phone": "", "categories": [{"title": "Local Flavor", "alias": "localflavor"}], "coordinates": {"longitude": -71.0578079223633, "latitude": 42.3589553833008}, "is_closed": false, "name": "City of Boston", "distance": 1552.9688431499999, "review_count": 116, "id": "city-of-boston-boston-3", "location": {"display_address": ["Boston, MA 02201"], "state": "MA", "city": "Boston", "address2": "", "country": "US", "zip_code": "02201", "address1": "", "address3": ""}, "url": "https://www.yelp.com/biz/city-of-boston-boston-3?adjust_creative=8_C4NSGbL05eUQksKleGYw&utm_campaign=yelp_api_v3&utm_medium=api_v3_business_search&utm_source=8_C4NSGbL05eUQksKleGYw", "transactions": [], "phone": "", "image_url": "https://s3-media1.fl.yelpcdn.com/bphoto/5xZdVMjDriRqcf2RLAjjCA/o.jpg"}, {"rating": 4.5, "display_phone": "(617) 422-5898", "price": "$", "categories": [{"title": "Sandwiches", "alias": "sandwiches"}, {"title": "Vegan", "alias": "vegan"}, {"title": "Bubble Tea", "alias": "bubbletea"}], "coordinates": {"longitude": -71.0624636, "latitude": 42.3513507}, "is_closed": false, "name": "Cuong's Vegan Sandwiches", "distance": 830.8554102059999, "review_count": 46, "id": "cuongs-vegan-sandwiches-boston-2", "location": {"display_address": ["5 Beach St", "Boston, MA 02111"], "state": "MA", "city": "Boston", "address2": "", "country": "US", "zip_code": "02111", "address1": "5 Beach St", "address3": ""}, "url": "https://www.yelp.com/biz/cuongs-vegan-sandwiches-boston-2?adjust_creative=8_C4NSGbL05eUQksKleGYw&utm_campaign=yelp_api_v3&utm_medium=api_v3_business_search&utm_source=8_C4NSGbL05eUQksKleGYw", "transactions": [], "phone": "+16174225898", "image_url": "https://s3-media2.fl.yelpcdn.com/bphoto/j6-8TUB4cvwfZpoWC3V2Kw/o.jpg"}, {"rating": 4.0, "display_phone": "(617) 927-0066", "price": "$$", "categories": [{"title": "Ice Cream & Frozen Yogurt", "alias": "icecream"}, {"title": "Pizza", "alias": "pizza"}, {"title": "Italian", "alias": "italian"}], "coordinates": {"longitude": -71.070559652418, "latitude": 42.3447380009299}, "is_closed": false, "name": "Picco", "distance": 349.859009219, "review_count": 992, "id": "picco-boston-2", "location": {"display_address": ["513 Tremont St", "Boston, MA 02116"], "state": "MA", "city": "Boston", "address2": "", "country": "US", "zip_code": "02116", "address1": "513 Tremont St", "address3": ""}, "url": "https://www.yelp.com/biz/picco-boston-2?adjust_creative=8_C4NSGbL05eUQksKleGYw&utm_campaign=yelp_api_v3&utm_medium=api_v3_business_search&utm_source=8_C4NSGbL05eUQksKleGYw", "transactions": ["delivery"], "phone": "+16179270066", "image_url": "https://s3-media1.fl.yelpcdn.com/bphoto/LG0wkaRRzin3frM0DsB_Fg/o.jpg"}, {"rating": 4.5, "display_phone": "(304) 563-4951", "categories": [{"title": "Parks", "alias": "parks"}], "coordinates": {"longitude": -71.0657501220703, "latitude": 42.3553726380041}, "is_closed": false, "name": "Boston Common", "distance": 951.2474641015999, "review_count": 362, "id": "boston-common-boston", "location": {"display_address": ["Beacon St", "Boston, MA 02139"], "state": "MA", "city": "Boston", "address2": null, "country": "US", "zip_code": "02139", "address1": "Beacon St", "address3": ""}, "url": "https://www.yelp.com/biz/boston-common-boston?adjust_creative=8_C4NSGbL05eUQksKleGYw&utm_campaign=yelp_api_v3&utm_medium=api_v3_business_search&utm_source=8_C4NSGbL05eUQksKleGYw", "transactions": [], "phone": "+13045634951", "image_url": "https://s3-media1.fl.yelpcdn.com/bphoto/Jhx9n_PE3WjKId1LxLpwLw/o.jpg"}, {"rating": 4.5, "display_phone": "(617) 737-0099", "price": "$$$$", "categories": [{"title": "French", "alias": "french"}, {"title": "Italian", "alias": "italian"}, {"title": "Wine Bars", "alias": "wine_bars"}], "coordinates": {"longitude": -71.0483829, "latitude": 42.3504581}, "is_closed": false, "name": "Menton", "distance": 1900.7575169259999, "review_count": 359, "id": "menton-boston", "location": {"display_address": ["354 Congress St", "Boston, MA 02210"], "state": "MA", "city": "Boston", "address2": "", "country": "US", "zip_code": "02210", "address1": "354 Congress St", "address3": ""}, "url": "https://www.yelp.com/biz/menton-boston?adjust_creative=8_C4NSGbL05eUQksKleGYw&utm_campaign=yelp_api_v3&utm_medium=api_v3_business_search&utm_source=8_C4NSGbL05eUQksKleGYw", "transactions": [], "phone": "+16177370099", "image_url": "https://s3-media2.fl.yelpcdn.com/bphoto/yyMAE_WG-RYkT18S68eqcg/o.jpg"}, {"rating": 4.0, "display_phone": "(617) 536-4300", "price": "$$$", "categories": [{"title": "Spanish", "alias": "spanish"}], "coordinates": {"longitude": -71.0758940796503, "latitude": 42.3369631861411}, "is_closed": false, "name": "Toro", "distance": 1268.7742050779998, "review_count": 1687, "id": "toro-boston", "location": {"display_address": ["1704 Washington St", "Boston, MA 02118"], "state": "MA", "city": "Boston", "address2": null, "country": "US", "zip_code": "02118", "address1": "1704 Washington St", "address3": ""}, "url": "https://www.yelp.com/biz/toro-boston?adjust_creative=8_C4NSGbL05eUQksKleGYw&utm_campaign=yelp_api_v3&utm_medium=api_v3_business_search&utm_source=8_C4NSGbL05eUQksKleGYw", "transactions": [], "phone": "+16175364300", "image_url": "https://s3-media2.fl.yelpcdn.com/bphoto/vavJneJjBulHvZAGit-bdQ/o.jpg"}, {"rating": 4.5, "display_phone": "(617) 951-2124", "price": "$", "categories": [{"title": "Sandwiches", "alias": "sandwiches"}, {"title": "Korean", "alias": "korean"}, {"title": "Delis", "alias": "delis"}], "coordinates": {"longitude": -71.0585443675518, "latitude": 42.3549818247557}, "is_closed": false, "name": "Grass Roots Cafe", "distance": 1293.387290104, "review_count": 102, "id": "grass-roots-cafe-boston", "location": {"display_address": ["101 Arch St", "Boston, MA 02110"], "state": "MA", "city": "Boston", "address2": "", "country": "US", "zip_code": "02110", "address1": "101 Arch St", "address3": ""}, "url": "https://www.yelp.com/biz/grass-roots-cafe-boston?adjust_creative=8_C4NSGbL05eUQksKleGYw&utm_campaign=yelp_api_v3&utm_medium=api_v3_business_search&utm_source=8_C4NSGbL05eUQksKleGYw", "transactions": [], "phone": "+16179512124", "image_url": "https://s3-media2.fl.yelpcdn.com/bphoto/P6kopthOeQ41rqmd1RULqQ/o.jpg"}, {"rating": 4.0, "display_phone": "(617) 267-4300", "price": "$$", "categories": [{"title": "Bakeries", "alias": "bakeries"}, {"title": "Coffee & Tea", "alias": "coffee"}, {"title": "Sandwiches", "alias": "sandwiches"}], "coordinates": {"longitude": -71.074548, "latitude": 42.338443}, "is_closed": false, "name": "Flour Bakery & Cafe", "distance": 1079.855391818, "review_count": 783, "id": "flour-bakery-and-cafe-boston-2", "location": {"display_address": ["1595 Washington St", "Boston, MA 02118"], "state": "MA", "city": "Boston", "address2": "", "country": "US", "zip_code": "02118", "address1": "1595 Washington St", "address3": ""}, "url": "https://www.yelp.com/biz/flour-bakery-and-cafe-boston-2?adjust_creative=8_C4NSGbL05eUQksKleGYw&utm_campaign=yelp_api_v3&utm_medium=api_v3_business_search&utm_source=8_C4NSGbL05eUQksKleGYw", "transactions": ["pickup"], "phone": "+16172674300", "image_url": "https://s3-media1.fl.yelpcdn.com/bphoto/GFa1WcFY1r5vgBhI3APOGQ/o.jpg"}, {"rating": 4.5, "display_phone": "(617) 553-5900", "price": "$$$", "categories": [{"title": "American (New)", "alias": "newamerican"}, {"title": "Seafood", "alias": "seafood"}], "coordinates": {"longitude": -71.0473232766807, "latitude": 42.3496337161869}, "is_closed": false, "name": "Row 34", "distance": 1975.6220825179998, "review_count": 786, "id": "row-34-boston", "location": {"display_address": ["383 Congress St", "Boston, MA 02210"], "state": "MA", "city": "Boston", "address2": "", "country": "US", "zip_code": "02210", "address1": "383 Congress St", "address3": ""}, "url": "https://www.yelp.com/biz/row-34-boston?adjust_creative=8_C4NSGbL05eUQksKleGYw&utm_campaign=yelp_api_v3&utm_medium=api_v3_business_search&utm_source=8_C4NSGbL05eUQksKleGYw", "transactions": [], "phone": "+16175535900", "image_url": "https://s3-media3.fl.yelpcdn.com/bphoto/wXUa2ADitbHQfq5PSbHYaw/o.jpg"}, {"rating": 4.5, "display_phone": "(617) 303-0113", "price": "$$", "categories": [{"title": "Desserts", "alias": "desserts"}, {"title": "Chocolatiers & Shops", "alias": "chocolate"}, {"title": "Coffee & Tea", "alias": "coffee"}], "coordinates": {"longitude": -71.0754537, "latitude": 42.3511188}, "is_closed": false, "name": "L.A. Burdick Handmade Chocolates", "distance": 502.53337744359993, "review_count": 236, "id": "l-a-burdick-handmade-chocolates-boston-3", "location": {"display_address": ["220 Clarendon St", "Boston, MA 02116"], "state": "MA", "city": "Boston", "address2": "", "country": "US", "zip_code": "02116", "address1": "220 Clarendon St", "address3": ""}, "url": "https://www.yelp.com/biz/l-a-burdick-handmade-chocolates-boston-3?adjust_creative=8_C4NSGbL05eUQksKleGYw&utm_campaign=yelp_api_v3&utm_medium=api_v3_business_search&utm_source=8_C4NSGbL05eUQksKleGYw", "transactions": [], "phone": "+16173030113", "image_url": "https://s3-media2.fl.yelpcdn.com/bphoto/utTTy8X-82UNTP4R3uU2KA/o.jpg"}, {"rating": 4.5, "display_phone": "(617) 292-0098", "price": "$$", "categories": [{"title": "Coffee & Tea", "alias": "coffee"}], "coordinates": {"longitude": -71.0585168749094, "latitude": 42.3571470379829}, "is_closed": false, "name": "DavidsTea", "distance": 1494.5329030799999, "review_count": 87, "id": "davidstea-boston-5", "location": {"display_address": ["298 Washington St", "Boston, MA 02108"], "state": "MA", "city": "Boston", "address2": null, "country": "US", "zip_code": "02108", "address1": "298 Washington St", "address3": ""}, "url": "https://www.yelp.com/biz/davidstea-boston-5?adjust_creative=8_C4NSGbL05eUQksKleGYw&utm_campaign=yelp_api_v3&utm_medium=api_v3_business_search&utm_source=8_C4NSGbL05eUQksKleGYw", "transactions": [], "phone": "+16172920098", "image_url": "https://s3-media1.fl.yelpcdn.com/bphoto/-mIzYfosMit_jsvhYi8oTg/o.jpg"}, {"rating": 4.5, "display_phone": "(617) 247-3333", "price": "$$", "categories": [{"title": "Coffee & Tea", "alias": "coffee"}, {"title": "Breakfast & Brunch", "alias": "breakfast_brunch"}, {"title": "Sandwiches", "alias": "sandwiches"}], "coordinates": {"longitude": -71.0746758944958, "latitude": 42.351734691006}, "is_closed": false, "name": "Thinking Cup", "distance": 516.520730746, "review_count": 485, "id": "thinking-cup-boston-5", "location": {"display_address": ["85 Newbury St", "Boston, MA 02116"], "state": "MA", "city": "Boston", "address2": "", "country": "US", "zip_code": "02116", "address1": "85 Newbury St", "address3": ""}, "url": "https://www.yelp.com/biz/thinking-cup-boston-5?adjust_creative=8_C4NSGbL05eUQksKleGYw&utm_campaign=yelp_api_v3&utm_medium=api_v3_business_search&utm_source=8_C4NSGbL05eUQksKleGYw", "transactions": [], "phone": "+16172473333", "image_url": "https://s3-media1.fl.yelpcdn.com/bphoto/MBpcihmxh4hxnpj7S9YYug/o.jpg"}, {"rating": 4.0, "display_phone": "(617) 818-7782", "price": "$", "categories": [{"title": "Japanese", "alias": "japanese"}, {"title": "Sushi Bars", "alias": "sushi"}], "coordinates": {"longitude": -71.0609107137522, "latitude": 42.3515687774432}, "is_closed": false, "name": "Avana Sushi", "distance": 944.670831818, "review_count": 789, "id": "avana-sushi-boston", "location": {"display_address": ["42 Beach St", "Boston, MA 02111"], "state": "MA", "city": "Boston", "address2": "", "country": "US", "zip_code": "02111", "address1": "42 Beach St", "address3": ""}, "url": "https://www.yelp.com/biz/avana-sushi-boston?adjust_creative=8_C4NSGbL05eUQksKleGYw&utm_campaign=yelp_api_v3&utm_medium=api_v3_business_search&utm_source=8_C4NSGbL05eUQksKleGYw", "transactions": ["delivery", "pickup"], "phone": "+16178187782", "image_url": "https://s3-media1.fl.yelpcdn.com/bphoto/y8RWhhblmgUTajfeg1E23g/o.jpg"}, {"rating": 4.5, "display_phone": "(857) 250-4497", "price": "$$", "categories": [{"title": "British", "alias": "british"}], "coordinates": {"longitude": -71.0891945599281, "latitude": 42.349712092998}, "is_closed": false, "name": "Cornish Pasty", "distance": 1489.850850218, "review_count": 88, "id": "cornish-pasty-boston-3", "location": {"display_address": ["51 Massachusetts Ave", "Boston, MA 02115"], "state": "MA", "city": "Boston", "address2": "", "country": "US", "zip_code": "02115", "address1": "51 Massachusetts Ave", "address3": null}, "url": "https://www.yelp.com/biz/cornish-pasty-boston-3?adjust_creative=8_C4NSGbL05eUQksKleGYw&utm_campaign=yelp_api_v3&utm_medium=api_v3_business_search&utm_source=8_C4NSGbL05eUQksKleGYw", "transactions": [], "phone": "+18572504497", "image_url": "https://s3-media1.fl.yelpcdn.com/bphoto/eX6vG1D066nA4cB5-NyrvA/o.jpg"}, {"rating": 4.5, "display_phone": "(617) 720-5555", "price": "$", "categories": [{"title": "Sandwiches", "alias": "sandwiches"}, {"title": "Salad", "alias": "salad"}, {"title": "Italian", "alias": "italian"}], "coordinates": {"longitude": -71.05507, "latitude": 42.35927}, "is_closed": false, "name": "Al's State Street Cafe", "distance": 1838.0045223060001, "review_count": 402, "id": "als-state-street-cafe-boston", "location": {"display_address": ["110 State St", "Boston, MA 02109"], "state": "MA", "city": "Boston", "address2": "", "country": "US", "zip_code": "02109", "address1": "110 State St", "address3": ""}, "url": "https://www.yelp.com/biz/als-state-street-cafe-boston?adjust_creative=8_C4NSGbL05eUQksKleGYw&utm_campaign=yelp_api_v3&utm_medium=api_v3_business_search&utm_source=8_C4NSGbL05eUQksKleGYw", "transactions": ["pickup"], "phone": "+16177205555", "image_url": "https://s3-media2.fl.yelpcdn.com/bphoto/3oellu-CceBkOi5FaM6yPg/o.jpg"}, {"rating": 4.5, "display_phone": "(617) 982-7955", "price": "$", "categories": [{"title": "Ice Cream & Frozen Yogurt", "alias": "icecream"}, {"title": "Bakeries", "alias": "bakeries"}, {"title": "Coffee & Tea", "alias": "coffee"}], "coordinates": {"longitude": -71.075637, "latitude": 42.342132}, "is_closed": false, "name": "FoMu", "distance": 730.512900272, "review_count": 78, "id": "fomu-boston-2", "location": {"display_address": ["655 Tremont St", "Boston, MA 02118"], "state": "MA", "city": "Boston", "address2": "", "country": "US", "zip_code": "02118", "address1": "655 Tremont St", "address3": ""}, "url": "https://www.yelp.com/biz/fomu-boston-2?adjust_creative=8_C4NSGbL05eUQksKleGYw&utm_campaign=yelp_api_v3&utm_medium=api_v3_business_search&utm_source=8_C4NSGbL05eUQksKleGYw", "transactions": [], "phone": "+16179827955", "image_url": "https://s3-media3.fl.yelpcdn.com/bphoto/5RqMQVR_awL3il60Z0pF9w/o.jpg"}, {"rating": 4.5, "display_phone": "(617) 356-1100", "price": "$$$", "categories": [{"title": "Greek", "alias": "greek"}], "coordinates": {"longitude": -71.07043, "latitude": 42.34239}, "is_closed": false, "name": "KAVA neo-taverna", "distance": 608.445265942, "review_count": 121, "id": "kava-neo-taverna-boston-2", "location": {"display_address": ["315 Shawmut Ave", "Boston, MA 02118"], "state": "MA", "city": "Boston", "address2": "", "country": "US", "zip_code": "02118", "address1": "315 Shawmut Ave", "address3": ""}, "url": "https://www.yelp.com/biz/kava-neo-taverna-boston-2?adjust_creative=8_C4NSGbL05eUQksKleGYw&utm_campaign=yelp_api_v3&utm_medium=api_v3_business_search&utm_source=8_C4NSGbL05eUQksKleGYw", "transactions": [], "phone": "+16173561100", "image_url": "https://s3-media1.fl.yelpcdn.com/bphoto/tL9Wgu2Le7WqEC6FvkomQA/o.jpg"}, {"rating": 4.5, "display_phone": "(617) 350-0007", "price": "$$$", "categories": [{"title": "Italian", "alias": "italian"}], "coordinates": {"longitude": -71.07076, "latitude": 42.3493148}, "is_closed": false, "name": "Da Vinci", "distance": 168.4285998196, "review_count": 333, "id": "da-vinci-boston", "location": {"display_address": ["162 Columbus Ave", "Boston, MA 02116"], "state": "MA", "city": "Boston", "address2": "", "country": "US", "zip_code": "02116", "address1": "162 Columbus Ave", "address3": ""}, "url": "https://www.yelp.com/biz/da-vinci-boston?adjust_creative=8_C4NSGbL05eUQksKleGYw&utm_campaign=yelp_api_v3&utm_medium=api_v3_business_search&utm_source=8_C4NSGbL05eUQksKleGYw", "transactions": ["delivery"], "phone": "+16173500007", "image_url": "https://s3-media3.fl.yelpcdn.com/bphoto/ORybKO4sJzqAHZpZT9ncIw/o.jpg"}, {"rating": 4.0, "display_phone": "(617) 523-9026", "price": "$$", "categories": [{"title": "Italian", "alias": "italian"}], "coordinates": {"longitude": -71.05344, "latitude": 42.3645799}, "is_closed": false, "name": "Giacomo's Ristorante", "distance": 2372.09634904, "review_count": 2506, "id": "giacomos-ristorante-boston", "location": {"display_address": ["355 Hanover St", "Boston, MA 02113"], "state": "MA", "city": "Boston", "address2": "", "country": "US", "zip_code": "02113", "address1": "355 Hanover St", "address3": ""}, "url": "https://www.yelp.com/biz/giacomos-ristorante-boston?adjust_creative=8_C4NSGbL05eUQksKleGYw&utm_campaign=yelp_api_v3&utm_medium=api_v3_business_search&utm_source=8_C4NSGbL05eUQksKleGYw", "transactions": [], "phone": "+16175239026", "image_url": "https://s3-media4.fl.yelpcdn.com/bphoto/g-lo6_IuVNaiKMCikW4bSQ/o.jpg"}, {"rating": 4.0, "display_phone": "(617) 267-4000", "price": "$$$", "categories": [{"title": "Seafood", "alias": "seafood"}, {"title": "Bars", "alias": "bars"}, {"title": "American (Traditional)", "alias": "tradamerican"}], "coordinates": {"longitude": -71.0811272917217, "latitude": 42.3492217873536}, "is_closed": false, "name": "Atlantic Fish Company", "distance": 826.8703624980001, "review_count": 1916, "id": "atlantic-fish-company-boston", "location": {"display_address": ["761 Boylston St", "Boston, MA 02116"], "state": "MA", "city": "Boston", "address2": "", "country": "US", "zip_code": "02116", "address1": "761 Boylston St", "address3": ""}, "url": "https://www.yelp.com/biz/atlantic-fish-company-boston?adjust_creative=8_C4NSGbL05eUQksKleGYw&utm_campaign=yelp_api_v3&utm_medium=api_v3_business_search&utm_source=8_C4NSGbL05eUQksKleGYw", "transactions": ["delivery"], "phone": "+16172674000", "image_url": "https://s3-media4.fl.yelpcdn.com/bphoto/mO_5bQ5_k5W90YmLePH5fg/o.jpg"}, {"rating": 4.5, "display_phone": "(857) 239-8052", "price": "$", "categories": [{"title": "Bakeries", "alias": "bakeries"}, {"title": "Coffee & Tea", "alias": "coffee"}], "coordinates": {"longitude": -71.0799805819988, "latitude": 42.3420690000057}, "is_closed": false, "name": "Cafe Madeleine", "distance": 963.2503402499999, "review_count": 158, "id": "cafe-madeleine-boston-2", "location": {"display_address": ["517 Columbus Ave", "Boston, MA 02118"], "state": "MA", "city": "Boston", "address2": "", "country": "US", "zip_code": "02118", "address1": "517 Columbus Ave", "address3": ""}, "url": "https://www.yelp.com/biz/cafe-madeleine-boston-2?adjust_creative=8_C4NSGbL05eUQksKleGYw&utm_campaign=yelp_api_v3&utm_medium=api_v3_business_search&utm_source=8_C4NSGbL05eUQksKleGYw", "transactions": [], "phone": "+18572398052", "image_url": "https://s3-media3.fl.yelpcdn.com/bphoto/gApq6XJZkNE_R5HFgBuH4w/o.jpg"}, {"rating": 4.0, "display_phone": "(617) 423-5501", "price": "$$", "categories": [{"title": "Seafood", "alias": "seafood"}, {"title": "Seafood Markets", "alias": "seafoodmarkets"}], "coordinates": {"longitude": -71.050886414287, "latitude": 42.355005189947}, "is_closed": false, "name": "James Hook & Co", "distance": 1852.526079928, "review_count": 763, "id": "james-hook-and-co-boston", "location": {"display_address": ["440 Atlantic Ave", "Boston, MA 02110"], "state": "MA", "city": "Boston", "address2": "", "country": "US", "zip_code": "02110", "address1": "440 Atlantic Ave", "address3": ""}, "url": "https://www.yelp.com/biz/james-hook-and-co-boston?adjust_creative=8_C4NSGbL05eUQksKleGYw&utm_campaign=yelp_api_v3&utm_medium=api_v3_business_search&utm_source=8_C4NSGbL05eUQksKleGYw", "transactions": [], "phone": "+16174235501", "image_url": "https://s3-media1.fl.yelpcdn.com/bphoto/go6uoS1w6jh0_mOhJxkmnw/o.jpg"}, {"rating": 4.0, "display_phone": "(617) 437-7700", "price": "$$", "categories": [{"title": "Coffee & Tea", "alias": "coffee"}, {"title": "Bakeries", "alias": "bakeries"}, {"title": "Sandwiches", "alias": "sandwiches"}], "coordinates": {"longitude": -71.0738261386231, "latitude": 42.3482569197856}, "is_closed": false, "name": "Flour Bakery + Caf\u00e9", "distance": 217.42915649699998, "review_count": 689, "id": "flour-bakery-caf\u00e9-boston-5", "location": {"display_address": ["131 Clarendon St", "Boston, MA 02116"], "state": "MA", "city": "Boston", "address2": "", "country": "US", "zip_code": "02116", "address1": "131 Clarendon St", "address3": ""}, "url": "https://www.yelp.com/biz/flour-bakery-caf%C3%A9-boston-5?adjust_creative=8_C4NSGbL05eUQksKleGYw&utm_campaign=yelp_api_v3&utm_medium=api_v3_business_search&utm_source=8_C4NSGbL05eUQksKleGYw", "transactions": [], "phone": "+16174377700", "image_url": "https://s3-media2.fl.yelpcdn.com/bphoto/DvnaJURRickMCvb-nJJa1w/o.jpg"}, {"rating": 4.5, "display_phone": "", "categories": [{"title": "Local Flavor", "alias": "localflavor"}, {"title": "Landmarks & Historical Buildings", "alias": "landmarks"}], "coordinates": {"longitude": -71.0547208786011, "latitude": 42.3636176318038}, "is_closed": false, "name": "The North End", "distance": 2218.160724964, "review_count": 84, "id": "the-north-end-boston", "location": {"display_address": ["Boston, MA 02455"], "state": "MA", "city": "Boston", "address2": "", "country": "US", "zip_code": "02455", "address1": "", "address3": ""}, "url": "https://www.yelp.com/biz/the-north-end-boston?adjust_creative=8_C4NSGbL05eUQksKleGYw&utm_campaign=yelp_api_v3&utm_medium=api_v3_business_search&utm_source=8_C4NSGbL05eUQksKleGYw", "transactions": [], "phone": "", "image_url": "https://s3-media2.fl.yelpcdn.com/bphoto/2yGKCsw853-Jr93TlJqdJQ/o.jpg"}, {"rating": 4.0, "display_phone": "(617) 482-5555", "price": "$$", "categories": [{"title": "Coffee & Tea", "alias": "coffee"}], "coordinates": {"longitude": -71.0639215260744, "latitude": 42.3539183288813}, "is_closed": false, "name": "Thinking Cup", "distance": 904.6272339379999, "review_count": 952, "id": "thinking-cup-boston-2", "location": {"display_address": ["165 Tremont St", "Boston, MA 02111"], "state": "MA", "city": "Boston", "address2": "", "country": "US", "zip_code": "02111", "address1": "165 Tremont St", "address3": ""}, "url": "https://www.yelp.com/biz/thinking-cup-boston-2?adjust_creative=8_C4NSGbL05eUQksKleGYw&utm_campaign=yelp_api_v3&utm_medium=api_v3_business_search&utm_source=8_C4NSGbL05eUQksKleGYw", "transactions": [], "phone": "+16174825555", "image_url": "https://s3-media2.fl.yelpcdn.com/bphoto/aTDgCaha3DYkCrzGgpSngQ/o.jpg"}, {"rating": 4.0, "display_phone": "(617) 742-9991", "price": "$$$$", "categories": [{"title": "French", "alias": "french"}, {"title": "Italian", "alias": "italian"}], "coordinates": {"longitude": -71.0627899169922, "latitude": 42.3576202392578}, "is_closed": false, "name": "No. 9 Park", "distance": 1290.1366968917998, "review_count": 542, "id": "no-9-park-boston", "location": {"display_address": ["9 Park St", "Boston, MA 02108"], "state": "MA", "city": "Boston", "address2": "", "country": "US", "zip_code": "02108", "address1": "9 Park St", "address3": ""}, "url": "https://www.yelp.com/biz/no-9-park-boston?adjust_creative=8_C4NSGbL05eUQksKleGYw&utm_campaign=yelp_api_v3&utm_medium=api_v3_business_search&utm_source=8_C4NSGbL05eUQksKleGYw", "transactions": [], "phone": "+16177429991", "image_url": "https://s3-media2.fl.yelpcdn.com/bphoto/yK04LH8kqNrrG9RkCJUGQQ/o.jpg"}, {"rating": 4.5, "display_phone": "", "price": "$", "categories": [{"title": "Coffee & Tea", "alias": "coffee"}, {"title": "Sandwiches", "alias": "sandwiches"}, {"title": "Vegetarian", "alias": "vegetarian"}], "coordinates": {"longitude": -71.0646584630013, "latitude": 42.3774761706591}, "is_closed": false, "name": "Clover Food Lab", "distance": 1491.335627302, "review_count": 96, "id": "clover-food-lab-boston-10", "location": {"display_address": ["27 School Street", "Boston, MA 02201"], "state": "MA", "city": "Boston", "address2": "", "country": "US", "zip_code": "02201", "address1": "27 School Street", "address3": ""}, "url": "https://www.yelp.com/biz/clover-food-lab-boston-10?adjust_creative=8_C4NSGbL05eUQksKleGYw&utm_campaign=yelp_api_v3&utm_medium=api_v3_business_search&utm_source=8_C4NSGbL05eUQksKleGYw", "transactions": [], "phone": "", "image_url": "https://s3-media2.fl.yelpcdn.com/bphoto/xcudC6XVeWb3eCx1IWGb0A/o.jpg"}, {"rating": 4.5, "display_phone": "(857) 284-7064", "price": "$$", "categories": [{"title": "Sandwiches", "alias": "sandwiches"}, {"title": "Caterers", "alias": "catering"}, {"title": "Seafood", "alias": "seafood"}], "coordinates": {"longitude": -71.0560854227807, "latitude": 42.363244212396}, "is_closed": false, "name": "Pauli's", "distance": 2117.5433397579995, "review_count": 552, "id": "paulis-boston", "location": {"display_address": ["65 Salem St", "Boston, MA 02113"], "state": "MA", "city": "Boston", "address2": null, "country": "US", "zip_code": "02113", "address1": "65 Salem St", "address3": ""}, "url": "https://www.yelp.com/biz/paulis-boston?adjust_creative=8_C4NSGbL05eUQksKleGYw&utm_campaign=yelp_api_v3&utm_medium=api_v3_business_search&utm_source=8_C4NSGbL05eUQksKleGYw", "transactions": ["delivery", "pickup"], "phone": "+18572847064", "image_url": "https://s3-media4.fl.yelpcdn.com/bphoto/mMhGo-iXq8n6l6HYopCpSw/o.jpg"}, {"rating": 4.5, "display_phone": "(617) 269-0110", "price": "$$", "categories": [{"title": "Polish", "alias": "polish"}, {"title": "Austrian", "alias": "austrian"}, {"title": "Hungarian", "alias": "hungarian"}], "coordinates": {"longitude": -71.05712, "latitude": 42.32878}, "is_closed": false, "name": "Cafe Polonia", "distance": 2413.030877544, "review_count": 357, "id": "cafe-polonia-boston", "location": {"display_address": ["611 Dorchester Ave", "Boston, MA 02127"], "state": "MA", "city": "Boston", "address2": "", "country": "US", "zip_code": "02127", "address1": "611 Dorchester Ave", "address3": ""}, "url": "https://www.yelp.com/biz/cafe-polonia-boston?adjust_creative=8_C4NSGbL05eUQksKleGYw&utm_campaign=yelp_api_v3&utm_medium=api_v3_business_search&utm_source=8_C4NSGbL05eUQksKleGYw", "transactions": [], "phone": "+16172690110", "image_url": "https://s3-media1.fl.yelpcdn.com/bphoto/3m2OxYFwijxSX1QB-nXrpw/o.jpg"}, {"rating": 4.5, "display_phone": "(617) 982-3473", "price": "$", "categories": [{"title": "Food Trucks", "alias": "foodtrucks"}, {"title": "Pizza", "alias": "pizza"}], "coordinates": {"longitude": -71.0556462478491, "latitude": 42.3531626418461}, "is_closed": false, "name": "Stoked Wood Fired Pizza", "distance": 1411.3477761002, "review_count": 53, "id": "stoked-wood-fired-pizza-boston", "location": {"display_address": ["Boston, MA 02110"], "state": "MA", "city": "Boston", "address2": "", "country": "US", "zip_code": "02110", "address1": "", "address3": ""}, "url": "https://www.yelp.com/biz/stoked-wood-fired-pizza-boston?adjust_creative=8_C4NSGbL05eUQksKleGYw&utm_campaign=yelp_api_v3&utm_medium=api_v3_business_search&utm_source=8_C4NSGbL05eUQksKleGYw", "transactions": [], "phone": "+16179823473", "image_url": "https://s3-media3.fl.yelpcdn.com/bphoto/vrGWscFZKXXdrIrKF1gfvQ/o.jpg"}, {"rating": 4.0, "display_phone": "(617) 369-7075", "price": "$$", "categories": [{"title": "Caribbean", "alias": "caribbean"}, {"title": "Venezuelan", "alias": "venezuelan"}], "coordinates": {"longitude": -71.07596, "latitude": 42.33892}, "is_closed": false, "name": "Orinoco", "distance": 1060.1540607522, "review_count": 503, "id": "orinoco-boston", "location": {"display_address": ["477 Shawmut Ave", "Boston, MA 02118"], "state": "MA", "city": "Boston", "address2": null, "country": "US", "zip_code": "02118", "address1": "477 Shawmut Ave", "address3": ""}, "url": "https://www.yelp.com/biz/orinoco-boston?adjust_creative=8_C4NSGbL05eUQksKleGYw&utm_campaign=yelp_api_v3&utm_medium=api_v3_business_search&utm_source=8_C4NSGbL05eUQksKleGYw", "transactions": ["delivery", "pickup"], "phone": "+16173697075", "image_url": "https://s3-media4.fl.yelpcdn.com/bphoto/h9q39McxW0JiV1m38IpNJw/o.jpg"}, {"rating": 4.0, "display_phone": "(617) 412-4600", "price": "$$$$", "categories": [{"title": "Italian", "alias": "italian"}], "coordinates": {"longitude": -71.0779036594912, "latitude": 42.3488367161261}, "is_closed": false, "name": "Sorellina", "distance": 558.3565218368, "review_count": 567, "id": "sorellina-boston", "location": {"display_address": ["1 Huntington Ave", "Boston, MA 02116"], "state": "MA", "city": "Boston", "address2": null, "country": "US", "zip_code": "02116", "address1": "1 Huntington Ave", "address3": ""}, "url": "https://www.yelp.com/biz/sorellina-boston?adjust_creative=8_C4NSGbL05eUQksKleGYw&utm_campaign=yelp_api_v3&utm_medium=api_v3_business_search&utm_source=8_C4NSGbL05eUQksKleGYw", "transactions": [], "phone": "+16174124600", "image_url": "https://s3-media2.fl.yelpcdn.com/bphoto/vqP9W3fewWzlIQzTnkH8mQ/o.jpg"}, {"rating": 4.5, "display_phone": "(617) 654-9944", "price": "$", "categories": [{"title": "Dive Bars", "alias": "divebars"}], "coordinates": {"longitude": -71.0537415, "latitude": 42.3546486}, "is_closed": false, "name": "Biddy Early's", "distance": 1642.704354078, "review_count": 193, "id": "biddy-earlys-boston", "location": {"display_address": ["141 Pearl St", "Boston, MA 02110"], "state": "MA", "city": "Boston", "address2": "", "country": "US", "zip_code": "02110", "address1": "141 Pearl St", "address3": ""}, "url": "https://www.yelp.com/biz/biddy-earlys-boston?adjust_creative=8_C4NSGbL05eUQksKleGYw&utm_campaign=yelp_api_v3&utm_medium=api_v3_business_search&utm_source=8_C4NSGbL05eUQksKleGYw", "transactions": [], "phone": "+16176549944", "image_url": "https://s3-media3.fl.yelpcdn.com/bphoto/ddH6AEmjdX1eceIwWYLj5g/o.jpg"}, {"rating": 4.5, "display_phone": "", "categories": [{"title": "Active Life", "alias": "active"}, {"title": "Local Flavor", "alias": "localflavor"}], "coordinates": {"longitude": -71.0749053955078, "latitude": 42.3612747192383}, "is_closed": false, "name": "The Charles River", "distance": 1523.532566144, "review_count": 39, "id": "the-charles-river-boston", "location": {"display_address": ["Storrow Dr", "Boston, MA 02114"], "state": "MA", "city": "Boston", "address2": null, "country": "US", "zip_code": "02114", "address1": "Storrow Dr", "address3": ""}, "url": "https://www.yelp.com/biz/the-charles-river-boston?adjust_creative=8_C4NSGbL05eUQksKleGYw&utm_campaign=yelp_api_v3&utm_medium=api_v3_business_search&utm_source=8_C4NSGbL05eUQksKleGYw", "transactions": [], "phone": "", "image_url": "https://s3-media4.fl.yelpcdn.com/bphoto/9-DD7MSpMbtypl-MabdPxw/o.jpg"}, {"rating": 4.5, "display_phone": "(617) 420-5200", "price": "$", "categories": [{"title": "Salad", "alias": "salad"}, {"title": "Pizza", "alias": "pizza"}, {"title": "Fast Food", "alias": "hotdogs"}], "coordinates": {"longitude": -71.0969848632812, "latitude": 42.3444633483887}, "is_closed": false, "name": "Blaze Fast Fire'd Pizza", "distance": 2149.553112358, "review_count": 83, "id": "blaze-fast-fired-pizza-boston-2", "location": {"display_address": ["1282 Boylston St", "Boston, MA 02215"], "state": "MA", "city": "Boston", "address2": "", "country": "US", "zip_code": "02215", "address1": "1282 Boylston St", "address3": null}, "url": "https://www.yelp.com/biz/blaze-fast-fired-pizza-boston-2?adjust_creative=8_C4NSGbL05eUQksKleGYw&utm_campaign=yelp_api_v3&utm_medium=api_v3_business_search&utm_source=8_C4NSGbL05eUQksKleGYw", "transactions": [], "phone": "+16174205200", "image_url": "https://s3-media1.fl.yelpcdn.com/bphoto/160aGhxp0SUrehsS_ueimg/o.jpg"}, {"rating": 4.0, "display_phone": "(617) 936-3432", "price": "$$", "categories": [{"title": "Coffee & Tea", "alias": "coffee"}], "coordinates": {"longitude": -71.0623134436442, "latitude": 42.3535129107984}, "is_closed": false, "name": "Caff\u00e8 Nero", "distance": 967.1573349679999, "review_count": 307, "id": "caff\u00e8-nero-boston-8", "location": {"display_address": ["560 Washington St", "Boston, MA 02111"], "state": "MA", "city": "Boston", "address2": "", "country": "US", "zip_code": "02111", "address1": "560 Washington St", "address3": ""}, "url": "https://www.yelp.com/biz/caff%C3%A8-nero-boston-8?adjust_creative=8_C4NSGbL05eUQksKleGYw&utm_campaign=yelp_api_v3&utm_medium=api_v3_business_search&utm_source=8_C4NSGbL05eUQksKleGYw", "transactions": [], "phone": "+16179363432", "image_url": "https://s3-media1.fl.yelpcdn.com/bphoto/gUbKNlGXv_yVWiwj_3dNJQ/o.jpg"}, {"rating": 4.5, "display_phone": "(857) 362-7477", "price": "$$", "categories": [{"title": "Seafood Markets", "alias": "seafoodmarkets"}, {"title": "Seafood", "alias": "seafood"}], "coordinates": {"longitude": -71.0554885864258, "latitude": 42.3639030456543}, "is_closed": false, "name": "North End Fish Market", "distance": 2205.53046371, "review_count": 188, "id": "north-end-fish-market-boston", "location": {"display_address": ["99 Salem St", "Boston, MA 02113"], "state": "MA", "city": "Boston", "address2": "", "country": "US", "zip_code": "02113", "address1": "99 Salem St", "address3": ""}, "url": "https://www.yelp.com/biz/north-end-fish-market-boston?adjust_creative=8_C4NSGbL05eUQksKleGYw&utm_campaign=yelp_api_v3&utm_medium=api_v3_business_search&utm_source=8_C4NSGbL05eUQksKleGYw", "transactions": ["delivery", "pickup"], "phone": "+18573627477", "image_url": "https://s3-media3.fl.yelpcdn.com/bphoto/sl8uGbwVMlpE3A4xU29byQ/o.jpg"}, {"rating": 4.0, "display_phone": "(617) 267-0047", "price": "$$$", "categories": [{"title": "Lounges", "alias": "lounges"}], "coordinates": {"longitude": -71.06141, "latitude": 42.35549}, "is_closed": false, "name": "Yvonne's", "distance": 1172.085379746, "review_count": 426, "id": "yvonnes-boston", "location": {"display_address": ["2 Winter Pl", "Boston, MA 02108"], "state": "MA", "city": "Boston", "address2": null, "country": "US", "zip_code": "02108", "address1": "2 Winter Pl", "address3": ""}, "url": "https://www.yelp.com/biz/yvonnes-boston?adjust_creative=8_C4NSGbL05eUQksKleGYw&utm_campaign=yelp_api_v3&utm_medium=api_v3_business_search&utm_source=8_C4NSGbL05eUQksKleGYw", "transactions": [], "phone": "+16172670047", "image_url": "https://s3-media1.fl.yelpcdn.com/bphoto/90APKneSvVTf6QXt4KUyiQ/o.jpg"}, {"rating": 4.5, "display_phone": "(617) 248-9537", "price": "$", "categories": [{"title": "Mexican", "alias": "mexican"}, {"title": "Food Trucks", "alias": "foodtrucks"}], "coordinates": {"longitude": -71.051844, "latitude": 42.363278}, "is_closed": false, "name": "Tenoch Mexican", "distance": 2342.427039602, "review_count": 227, "id": "tenoch-mexican-boston", "location": {"display_address": ["3 Lewis St", "Boston, MA 02110"], "state": "MA", "city": "Boston", "address2": "", "country": "US", "zip_code": "02110", "address1": "3 Lewis St", "address3": ""}, "url": "https://www.yelp.com/biz/tenoch-mexican-boston?adjust_creative=8_C4NSGbL05eUQksKleGYw&utm_campaign=yelp_api_v3&utm_medium=api_v3_business_search&utm_source=8_C4NSGbL05eUQksKleGYw", "transactions": [], "phone": "+16172489537", "image_url": "https://s3-media2.fl.yelpcdn.com/bphoto/jmwfNcxMhGTPGB0sReNAyg/o.jpg"}, {"rating": 4.5, "display_phone": "(617) 227-5709", "price": "$", "categories": [{"title": "Pizza", "alias": "pizza"}, {"title": "Salad", "alias": "salad"}, {"title": "Italian", "alias": "italian"}], "coordinates": {"longitude": -71.0544499754906, "latitude": 42.36377812922}, "is_closed": false, "name": "Galleria Umberto", "distance": 2245.9722123059996, "review_count": 471, "id": "galleria-umberto-boston", "location": {"display_address": ["289 Hanover St", "Boston, MA 02113"], "state": "MA", "city": "Boston", "address2": "", "country": "US", "zip_code": "02113", "address1": "289 Hanover St", "address3": ""}, "url": "https://www.yelp.com/biz/galleria-umberto-boston?adjust_creative=8_C4NSGbL05eUQksKleGYw&utm_campaign=yelp_api_v3&utm_medium=api_v3_business_search&utm_source=8_C4NSGbL05eUQksKleGYw", "transactions": [], "phone": "+16172275709", "image_url": "https://s3-media1.fl.yelpcdn.com/bphoto/C2Lhz7qkKESCAYpov_qdFA/o.jpg"}, {"rating": 4.5, "display_phone": "", "categories": [{"title": "Parks", "alias": "parks"}], "coordinates": {"longitude": -71.0725625172882, "latitude": 42.3603070472907}, "is_closed": false, "name": "Charles River Bike Paths", "distance": 1390.01592612, "review_count": 73, "id": "charles-river-bike-paths-boston", "location": {"display_address": ["Storrow and Memorial Dr", "Boston, MA 02228"], "state": "MA", "city": "Boston", "address2": null, "country": "US", "zip_code": "02228", "address1": "Storrow and Memorial Dr", "address3": ""}, "url": "https://www.yelp.com/biz/charles-river-bike-paths-boston?adjust_creative=8_C4NSGbL05eUQksKleGYw&utm_campaign=yelp_api_v3&utm_medium=api_v3_business_search&utm_source=8_C4NSGbL05eUQksKleGYw", "transactions": [], "phone": "", "image_url": "https://s3-media2.fl.yelpcdn.com/bphoto/HrngKNGEFep_yf4WzR3z_w/o.jpg"}], "total": 24769}