{"region": {"center": {"longitude": -71.07124328613281, "latitude": 42.34784169448538}}, "businesses": [{"rating": 3.5, "display_phone": "(617) 723-5555", "price": "$$", "categories": [{"title": "Cafes", "alias": "cafes"}, {"title": "Bakeries", "alias": "bakeries"}], "coordinates": {"longitude": -71.0706329345703, "latitude": 42.3578910827637}, "is_closed": false, "name": "Tatte Bakery & Cafe", "distance": 1128.4888419479998, "review_count": 190, "id": "tatte-bakery-and-cafe-boston", "location": {"display_address": ["70 Charles St", "Boston, MA 02114"], "state": "MA", "city": "Boston", "address2": "", "country": "US", "zip_code": "02114", "address1": "70 Charles St", "address3": ""}, "url": "https://www.yelp.com/biz/tatte-bakery-and-cafe-boston?adjust_creative=8_C4NSGbL05eUQksKleGYw&utm_campaign=yelp_api_v3&utm_medium=api_v3_business_search&utm_source=8_C4NSGbL05eUQksKleGYw", "transactions": [], "phone": "+16177235555", "image_url": "https://s3-media4.fl.yelpcdn.com/bphoto/Cwy9YVbMWKM6V8lbzYY3WA/o.jpg"}, {"rating": 4.5, "display_phone": "(617) 432-0402", "price": "$", "categories": [{"title": "Street Vendors", "alias": "streetvendors"}, {"title": "Lebanese", "alias": "lebanese"}, {"title": "American (New)", "alias": "newamerican"}], "coordinates": {"longitude": -71.1032426066765, "latitude": 42.3373908671469}, "is_closed": false, "name": "Sami's", "distance": 2875.184562542, "review_count": 51, "id": "samis-boston-6", "location": {"display_address": ["107 Ave Louis Pasteur", "Boston, MA 02115"], "state": "MA", "city": "Boston", "address2": "", "country": "US", "zip_code": "02115", "address1": "107 Ave Louis Pasteur", "address3": null}, "url": "https://www.yelp.com/biz/samis-boston-6?adjust_creative=8_C4NSGbL05eUQksKleGYw&utm_campaign=yelp_api_v3&utm_medium=api_v3_business_search&utm_source=8_C4NSGbL05eUQksKleGYw", "transactions": [], "phone": "+16174320402", "image_url": "https://s3-media3.fl.yelpcdn.com/bphoto/INaW9G9tV5sxUp4UdDji3A/o.jpg"}, {"rating": 3.5, "display_phone": "(617) 542-7903", "price": "$", "categories": [{"title": "Vietnamese", "alias": "vietnamese"}, {"title": "Coffee & Tea", "alias": "coffee"}, {"title": "Delis", "alias": "delis"}], "coordinates": {"longitude": -71.06106, "latitude": 42.35132}, "is_closed": false, "name": "163 Vietnamese Sandwiches & Bubble Tea", "distance": 918.9369380424, "review_count": 294, "id": "163-vietnamese-sandwiches-and-bubble-tea-boston", "location": {"display_address": ["66 Harrison Ave", "Boston, MA 02111"], "state": "MA", "city": "Boston", "address2": "", "country": "US", "zip_code": "02111", "address1": "66 Harrison Ave", "address3": ""}, "url": "https://www.yelp.com/biz/163-vietnamese-sandwiches-and-bubble-tea-boston?adjust_creative=8_C4NSGbL05eUQksKleGYw&utm_campaign=yelp_api_v3&utm_medium=api_v3_business_search&utm_source=8_C4NSGbL05eUQksKleGYw", "transactions": [], "phone": "+16175427903", "image_url": "https://s3-media4.fl.yelpcdn.com/bphoto/_U2Jrx7zLOHiiuF2ggOTCA/o.jpg"}, {"rating": 3.5, "display_phone": "(617) 338-6223", "price": "$$", "categories": [{"title": "Chinese", "alias": "chinese"}], "coordinates": {"longitude": -71.0606415876193, "latitude": 42.3514616954526}, "is_closed": false, "name": "Gourmet Dumpling House", "distance": 959.9647117059999, "review_count": 1383, "id": "gourmet-dumpling-house-boston-3", "location": {"display_address": ["52 Beach St", "Boston, MA 02111"], "state": "MA", "city": "Boston", "address2": "", "country": "US", "zip_code": "02111", "address1": "52 Beach St", "address3": null}, "url": "https://www.yelp.com/biz/gourmet-dumpling-house-boston-3?adjust_creative=8_C4NSGbL05eUQksKleGYw&utm_campaign=yelp_api_v3&utm_medium=api_v3_business_search&utm_source=8_C4NSGbL05eUQksKleGYw", "transactions": [], "phone": "+16173386223", "image_url": "https://s3-media4.fl.yelpcdn.com/bphoto/Q9cH-gAGdub8JTN7jlr7kQ/o.jpg"}, {"rating": 4.0, "display_phone": "(857) 317-5340", "price": "$", "categories": [{"title": "Coffee & Tea", "alias": "coffee"}], "coordinates": {"longitude": -71.05712890625, "latitude": 42.3502922058105}, "is_closed": false, "name": "La Colombe Coffee", "distance": 1194.176870393, "review_count": 43, "id": "la-colombe-coffee-boston", "location": {"display_address": ["745 Atlantic Ave", "Boston, MA 02111"], "state": "MA", "city": "Boston", "address2": "", "country": "US", "zip_code": "02111", "address1": "745 Atlantic Ave", "address3": ""}, "url": "https://www.yelp.com/biz/la-colombe-coffee-boston?adjust_creative=8_C4NSGbL05eUQksKleGYw&utm_campaign=yelp_api_v3&utm_medium=api_v3_business_search&utm_source=8_C4NSGbL05eUQksKleGYw", "transactions": [], "phone": "+18573175340", "image_url": "https://s3-media2.fl.yelpcdn.com/bphoto/Ljz8ircYsiXMQLby72Cm5A/o.jpg"}, {"rating": 4.0, "display_phone": "(617) 742-2090", "price": "$", "categories": [{"title": "Bars", "alias": "bars"}, {"title": "Irish", "alias": "irish"}, {"title": "Music Venues", "alias": "musicvenues"}], "coordinates": {"longitude": -71.0565719604492, "latitude": 42.361701965332}, "is_closed": false, "name": "Durty Nelly's", "distance": 1967.988339162, "review_count": 144, "id": "durty-nellys-boston", "location": {"display_address": ["108 Blackstone St", "Boston, MA 02109"], "state": "MA", "city": "Boston", "address2": "", "country": "US", "zip_code": "02109", "address1": "108 Blackstone St", "address3": ""}, "url": "https://www.yelp.com/biz/durty-nellys-boston?adjust_creative=8_C4NSGbL05eUQksKleGYw&utm_campaign=yelp_api_v3&utm_medium=api_v3_business_search&utm_source=8_C4NSGbL05eUQksKleGYw", "transactions": [], "phone": "+16177422090", "image_url": "https://s3-media2.fl.yelpcdn.com/bphoto/yG1Ch038ecPN6GAus21Q8w/o.jpg"}, {"rating": 3.5, "display_phone": "", "price": "$", "categories": [{"title": "Irish Pub", "alias": "irish_pubs"}], "coordinates": {"longitude": -71.0646311837185, "latitude": 42.3515171507333}, "is_closed": false, "name": "The Tam", "distance": 679.954759969, "review_count": 293, "id": "the-tam-boston", "location": {"display_address": ["222 Tremont St", "Boston, MA 02118"], "state": "MA", "city": "Boston", "address2": null, "country": "US", "zip_code": "02118", "address1": "222 Tremont St", "address3": ""}, "url": "https://www.yelp.com/biz/the-tam-boston?adjust_creative=8_C4NSGbL05eUQksKleGYw&utm_campaign=yelp_api_v3&utm_medium=api_v3_business_search&utm_source=8_C4NSGbL05eUQksKleGYw", "transactions": [], "phone": "", "image_url": "https://s3-media1.fl.yelpcdn.com/bphoto/ytZ4_IVDIMCaOyT90Y2abg/o.jpg"}, {"rating": 4.5, "display_phone": "(617) 615-9792", "price": "$", "categories": [{"title": "Mediterranean", "alias": "mediterranean"}, {"title": "Armenian", "alias": "armenian"}, {"title": "Greek", "alias": "greek"}], "coordinates": {"longitude": -71.0543838, "latitude": 42.3571268}, "is_closed": false, "name": "Flame Cafe", "distance": 1727.9061932919997, "review_count": 66, "id": "flame-cafe-boston-6", "location": {"display_address": ["2 Oliver St", "Boston, MA 02109"], "state": "MA", "city": "Boston", "address2": "", "country": "US", "zip_code": "02109", "address1": "2 Oliver St", "address3": ""}, "url": "https://www.yelp.com/biz/flame-cafe-boston-6?adjust_creative=8_C4NSGbL05eUQksKleGYw&utm_campaign=yelp_api_v3&utm_medium=api_v3_business_search&utm_source=8_C4NSGbL05eUQksKleGYw", "transactions": ["delivery", "pickup"], "phone": "+16176159792", "image_url": "https://s3-media3.fl.yelpcdn.com/bphoto/JOn9GryUDC03U15cl01jbQ/o.jpg"}, {"rating": 3.5, "display_phone": "(617) 450-9000", "price": "$$", "categories": [{"title": "Gastropubs", "alias": "gastropubs"}], "coordinates": {"longitude": -71.0983946174383, "latitude": 42.3443535715342}, "is_closed": false, "name": "Citizen Public House & Oyster Bar", "distance": 2256.9184601839997, "review_count": 505, "id": "citizen-public-house-and-oyster-bar-boston", "location": {"display_address": ["1310 Boylston St", "Boston, MA 02215"], "state": "MA", "city": "Boston", "address2": "", "country": "US", "zip_code": "02215", "address1": "1310 Boylston St", "address3": ""}, "url": "https://www.yelp.com/biz/citizen-public-house-and-oyster-bar-boston?adjust_creative=8_C4NSGbL05eUQksKleGYw&utm_campaign=yelp_api_v3&utm_medium=api_v3_business_search&utm_source=8_C4NSGbL05eUQksKleGYw", "transactions": [], "phone": "+16174509000", "image_url": "https://s3-media1.fl.yelpcdn.com/bphoto/E5edyo7D_R-ariIuwJ4RzQ/o.jpg"}, {"rating": 4.0, "display_phone": "(857) 350-3029", "price": "$", "categories": [{"title": "Cafes", "alias": "cafes"}, {"title": "Coffee & Tea", "alias": "coffee"}, {"title": "American (Traditional)", "alias": "tradamerican"}], "coordinates": {"longitude": -71.0529154596387, "latitude": 42.3659527825682}, "is_closed": false, "name": "My Cousin's Place", "distance": 2514.33303692, "review_count": 58, "id": "my-cousins-place-boston", "location": {"display_address": ["396 Hanover St", "Boston, MA 02113"], "state": "MA", "city": "Boston", "address2": "", "country": "US", "zip_code": "02113", "address1": "396 Hanover St", "address3": ""}, "url": "https://www.yelp.com/biz/my-cousins-place-boston?adjust_creative=8_C4NSGbL05eUQksKleGYw&utm_campaign=yelp_api_v3&utm_medium=api_v3_business_search&utm_source=8_C4NSGbL05eUQksKleGYw", "transactions": [], "phone": "+18573503029", "image_url": "https://s3-media3.fl.yelpcdn.com/bphoto/Vf8PnD6rZMCRAseAleoi0Q/o.jpg"}, {"rating": 4.0, "display_phone": "(617) 247-2400", "price": "$$$", "categories": [{"title": "Italian", "alias": "italian"}], "coordinates": {"longitude": -71.0799281, "latitude": 42.3465561}, "is_closed": false, "name": "Lucca Back Bay", "distance": 727.698164612, "review_count": 248, "id": "lucca-back-bay-boston", "location": {"display_address": ["116 Huntington Ave", "Boston, MA 02116"], "state": "MA", "city": "Boston", "address2": "", "country": "US", "zip_code": "02116", "address1": "116 Huntington Ave", "address3": ""}, "url": "https://www.yelp.com/biz/lucca-back-bay-boston?adjust_creative=8_C4NSGbL05eUQksKleGYw&utm_campaign=yelp_api_v3&utm_medium=api_v3_business_search&utm_source=8_C4NSGbL05eUQksKleGYw", "transactions": [], "phone": "+16172472400", "image_url": "https://s3-media4.fl.yelpcdn.com/bphoto/0wbRrXZZwGbP3LbRc3dm0A/o.jpg"}, {"rating": 4.0, "display_phone": "(857) 753-4982", "price": "$$", "categories": [{"title": "Salad", "alias": "salad"}, {"title": "Vegetarian", "alias": "vegetarian"}, {"title": "Vegan", "alias": "vegan"}], "coordinates": {"longitude": -71.0823976993595, "latitude": 42.3484877679796}, "is_closed": false, "name": "sweetgreen", "distance": 919.451025612, "review_count": 48, "id": "sweetgreen-boston-4", "location": {"display_address": ["800 Boylston St", "Ste 17", "Boston, MA 02199"], "state": "MA", "city": "Boston", "address2": "Ste 17", "country": "US", "zip_code": "02199", "address1": "800 Boylston St", "address3": ""}, "url": "https://www.yelp.com/biz/sweetgreen-boston-4?adjust_creative=8_C4NSGbL05eUQksKleGYw&utm_campaign=yelp_api_v3&utm_medium=api_v3_business_search&utm_source=8_C4NSGbL05eUQksKleGYw", "transactions": [], "phone": "+18577534982", "image_url": "https://s3-media3.fl.yelpcdn.com/bphoto/6Sigzl7dxjSVFbOJv-lthg/o.jpg"}, {"rating": 4.5, "display_phone": "(617) 482-0152", "price": "$", "categories": [{"title": "Banks & Credit Unions", "alias": "banks"}, {"title": "Coffee & Tea", "alias": "coffee"}, {"title": "Internet Cafes", "alias": "internetcafe"}], "coordinates": {"longitude": -71.062045, "latitude": 42.356238}, "is_closed": false, "name": "Capital One Caf\u00e9", "distance": 1201.3772989539998, "review_count": 28, "id": "capital-one-caf\u00e9-boston-5", "location": {"display_address": ["129 Tremont St", "Boston, MA 02108"], "state": "MA", "city": "Boston", "address2": null, "country": "US", "zip_code": "02108", "address1": "129 Tremont St", "address3": ""}, "url": "https://www.yelp.com/biz/capital-one-caf%C3%A9-boston-5?adjust_creative=8_C4NSGbL05eUQksKleGYw&utm_campaign=yelp_api_v3&utm_medium=api_v3_business_search&utm_source=8_C4NSGbL05eUQksKleGYw", "transactions": [], "phone": "+16174820152", "image_url": "https://s3-media2.fl.yelpcdn.com/bphoto/WRQ-9LluyivReFiQZFUujw/o.jpg"}, {"rating": 4.0, "display_phone": "(857) 990-3679", "price": "$$", "categories": [{"title": "Vietnamese", "alias": "vietnamese"}], "coordinates": {"longitude": -71.09348, "latitude": 42.34851}, "is_closed": false, "name": "Pho Countryside Boston", "distance": 1829.326478224, "review_count": 34, "id": "pho-countryside-boston-boston", "location": {"display_address": ["468 Commonwealth Ave", "Boston, MA 02215"], "state": "MA", "city": "Boston", "address2": "", "country": "US", "zip_code": "02215", "address1": "468 Commonwealth Ave", "address3": null}, "url": "https://www.yelp.com/biz/pho-countryside-boston-boston?adjust_creative=8_C4NSGbL05eUQksKleGYw&utm_campaign=yelp_api_v3&utm_medium=api_v3_business_search&utm_source=8_C4NSGbL05eUQksKleGYw", "transactions": [], "phone": "+18579903679", "image_url": "https://s3-media2.fl.yelpcdn.com/bphoto/5aa9t-6bNF1J7Psj1-kM7g/o.jpg"}, {"rating": 4.5, "display_phone": "", "categories": [{"title": "Local Flavor", "alias": "localflavor"}, {"title": "Landmarks & Historical Buildings", "alias": "landmarks"}], "coordinates": {"longitude": -71.0962867, "latitude": 42.3491291}, "is_closed": false, "name": "Citgo Sign", "distance": 1995.4602557639998, "review_count": 38, "id": "citgo-sign-boston", "location": {"display_address": ["666 Beacon St", "Boston, MA 02215"], "state": "MA", "city": "Boston", "address2": "", "country": "US", "zip_code": "02215", "address1": "666 Beacon St", "address3": ""}, "url": "https://www.yelp.com/biz/citgo-sign-boston?adjust_creative=8_C4NSGbL05eUQksKleGYw&utm_campaign=yelp_api_v3&utm_medium=api_v3_business_search&utm_source=8_C4NSGbL05eUQksKleGYw", "transactions": [], "phone": "", "image_url": "https://s3-media2.fl.yelpcdn.com/bphoto/rNOMWdvmaiO1HCQdFNK6rw/o.jpg"}, {"rating": 4.5, "display_phone": "(617) 223-8666", "categories": [{"title": "Parks", "alias": "parks"}, {"title": "Landmarks & Historical Buildings", "alias": "landmarks"}, {"title": "Beaches", "alias": "beaches"}], "coordinates": {"longitude": -71.0514327, "latitude": 42.358323}, "is_closed": false, "name": "Boston Harbor Islands", "distance": 2002.146419728, "review_count": 11, "id": "boston-harbor-islands-boston", "location": {"display_address": ["National Park Service", "191w Atlantic Ave", "Boston, MA 02110"], "state": "MA", "city": "Boston", "address2": "191w Atlantic Ave", "country": "US", "zip_code": "02110", "address1": "National Park Service", "address3": ""}, "url": "https://www.yelp.com/biz/boston-harbor-islands-boston?adjust_creative=8_C4NSGbL05eUQksKleGYw&utm_campaign=yelp_api_v3&utm_medium=api_v3_business_search&utm_source=8_C4NSGbL05eUQksKleGYw", "transactions": [], "phone": "+16172238666", "image_url": "https://s3-media1.fl.yelpcdn.com/bphoto/t6jvIS1K2wzK67Oybn5q3A/o.jpg"}, {"rating": 4.0, "display_phone": "(617) 536-5700", "price": "$$$", "categories": [{"title": "Bars", "alias": "bars"}], "coordinates": {"longitude": -71.07158, "latitude": 42.35281}, "is_closed": false, "name": "The Bar at Taj Boston", "distance": 551.2381857092, "review_count": 46, "id": "the-bar-at-taj-boston-boston", "location": {"display_address": ["15 Arlington St", "Boston, MA 02116"], "state": "MA", "city": "Boston", "address2": "", "country": "US", "zip_code": "02116", "address1": "15 Arlington St", "address3": ""}, "url": "https://www.yelp.com/biz/the-bar-at-taj-boston-boston?adjust_creative=8_C4NSGbL05eUQksKleGYw&utm_campaign=yelp_api_v3&utm_medium=api_v3_business_search&utm_source=8_C4NSGbL05eUQksKleGYw", "transactions": [], "phone": "+16175365700", "image_url": "https://s3-media4.fl.yelpcdn.com/bphoto/xs886lMf3raFs3Qr5JTVMw/o.jpg"}, {"rating": 4.5, "display_phone": "(617) 348-1234", "price": "$$$", "categories": [{"title": "Seafood", "alias": "seafood"}, {"title": "Breakfast & Brunch", "alias": "breakfast_brunch"}], "coordinates": {"longitude": -71.0527829, "latitude": 42.3574703}, "is_closed": false, "name": "Fin Point", "distance": 1856.9065424740002, "review_count": 29, "id": "fin-point-boston", "location": {"display_address": ["89 Broad St", "Boston, MA 02110"], "state": "MA", "city": "Boston", "address2": null, "country": "US", "zip_code": "02110", "address1": "89 Broad St", "address3": ""}, "url": "https://www.yelp.com/biz/fin-point-boston?adjust_creative=8_C4NSGbL05eUQksKleGYw&utm_campaign=yelp_api_v3&utm_medium=api_v3_business_search&utm_source=8_C4NSGbL05eUQksKleGYw", "transactions": [], "phone": "+16173481234", "image_url": "https://s3-media2.fl.yelpcdn.com/bphoto/26RHOBIQqgvtaQaCoxndDA/o.jpg"}, {"rating": 4.0, "display_phone": "(617) 523-4111", "price": "$$", "categories": [{"title": "Italian", "alias": "italian"}, {"title": "Pizza", "alias": "pizza"}], "coordinates": {"longitude": -71.0553588867188, "latitude": 42.3642807006836}, "is_closed": false, "name": "Benevento's", "distance": 2244.138852178, "review_count": 305, "id": "beneventos-boston", "location": {"display_address": ["111 Salem St", "Boston, MA 02113"], "state": "MA", "city": "Boston", "address2": "", "country": "US", "zip_code": "02113", "address1": "111 Salem St", "address3": ""}, "url": "https://www.yelp.com/biz/beneventos-boston?adjust_creative=8_C4NSGbL05eUQksKleGYw&utm_campaign=yelp_api_v3&utm_medium=api_v3_business_search&utm_source=8_C4NSGbL05eUQksKleGYw", "transactions": [], "phone": "+16175234111", "image_url": "https://s3-media4.fl.yelpcdn.com/bphoto/N04c4Itn0M7r-FQszjyQNw/o.jpg"}, {"rating": 4.0, "display_phone": "(617) 573-9406", "price": "$$$", "categories": [{"title": "Italian", "alias": "italian"}, {"title": "Mediterranean", "alias": "mediterranean"}, {"title": "Pasta Shops", "alias": "pastashops"}], "coordinates": {"longitude": -71.0553512573242, "latitude": 42.3644332885742}, "is_closed": false, "name": "Ristorante Euno", "distance": 2268.36151132, "review_count": 174, "id": "ristorante-euno-boston", "location": {"display_address": ["119 Salem St", "Boston, MA 02113"], "state": "MA", "city": "Boston", "address2": "", "country": "US", "zip_code": "02113", "address1": "119 Salem St", "address3": ""}, "url": "https://www.yelp.com/biz/ristorante-euno-boston?adjust_creative=8_C4NSGbL05eUQksKleGYw&utm_campaign=yelp_api_v3&utm_medium=api_v3_business_search&utm_source=8_C4NSGbL05eUQksKleGYw", "transactions": [], "phone": "+16175739406", "image_url": "https://s3-media1.fl.yelpcdn.com/bphoto/m8tzHDZy_XuwA35yBoJmpg/o.jpg"}, {"rating": 3.5, "display_phone": "(857) 239-8064", "price": "$$$", "categories": [{"title": "Seafood", "alias": "seafood"}], "coordinates": {"longitude": -71.0841064, "latitude": 42.3486099}, "is_closed": false, "name": "Select Oyster Bar", "distance": 1061.085820332, "review_count": 202, "id": "select-oyster-bar-boston", "location": {"display_address": ["50 Gloucester St", "Boston, MA 02115"], "state": "MA", "city": "Boston", "address2": "", "country": "US", "zip_code": "02115", "address1": "50 Gloucester St", "address3": ""}, "url": "https://www.yelp.com/biz/select-oyster-bar-boston?adjust_creative=8_C4NSGbL05eUQksKleGYw&utm_campaign=yelp_api_v3&utm_medium=api_v3_business_search&utm_source=8_C4NSGbL05eUQksKleGYw", "transactions": [], "phone": "+18572398064", "image_url": "https://s3-media1.fl.yelpcdn.com/bphoto/NYNNIEhNpsx-FrSDsj8UPA/o.jpg"}, {"rating": 4.0, "display_phone": "(617) 720-1713", "categories": [{"title": "Landmarks & Historical Buildings", "alias": "landmarks"}, {"title": "Museums", "alias": "museums"}], "coordinates": {"longitude": -71.0574688454484, "latitude": 42.358739412865}, "is_closed": false, "name": "The Old State House", "distance": 1657.75377522, "review_count": 55, "id": "the-old-state-house-boston", "location": {"display_address": ["206 Washington St", "Boston, MA 02108"], "state": "MA", "city": "Boston", "address2": null, "country": "US", "zip_code": "02108", "address1": "206 Washington St", "address3": ""}, "url": "https://www.yelp.com/biz/the-old-state-house-boston?adjust_creative=8_C4NSGbL05eUQksKleGYw&utm_campaign=yelp_api_v3&utm_medium=api_v3_business_search&utm_source=8_C4NSGbL05eUQksKleGYw", "transactions": [], "phone": "+16177201713", "image_url": "https://s3-media1.fl.yelpcdn.com/bphoto/l2CiL_qSFDws_vUGFXBkGQ/o.jpg"}, {"rating": 3.5, "display_phone": "(617) 536-0230", "price": "$$", "categories": [{"title": "Middle Eastern", "alias": "mideastern"}, {"title": "Salad", "alias": "salad"}, {"title": "Sandwiches", "alias": "sandwiches"}], "coordinates": {"longitude": -71.0841445922852, "latitude": 42.3486671447754}, "is_closed": false, "name": "Caf\u00e9 Jaffa", "distance": 1065.3948281819999, "review_count": 337, "id": "caf\u00e9-jaffa-boston-2", "location": {"display_address": ["48 Gloucester St", "Boston, MA 02115"], "state": "MA", "city": "Boston", "address2": "", "country": "US", "zip_code": "02115", "address1": "48 Gloucester St", "address3": ""}, "url": "https://www.yelp.com/biz/caf%C3%A9-jaffa-boston-2?adjust_creative=8_C4NSGbL05eUQksKleGYw&utm_campaign=yelp_api_v3&utm_medium=api_v3_business_search&utm_source=8_C4NSGbL05eUQksKleGYw", "transactions": ["delivery"], "phone": "+16175360230", "image_url": "https://s3-media1.fl.yelpcdn.com/bphoto/G9_8tcdPGcwAwE1FYPxR2w/o.jpg"}, {"rating": 4.0, "display_phone": "(617) 562-8828", "price": "$", "categories": [{"title": "Vietnamese", "alias": "vietnamese"}], "coordinates": {"longitude": -71.1247024, "latitude": 42.3523273}, "is_closed": false, "name": "Pho Viet's", "distance": 4487.801661584, "review_count": 360, "id": "pho-viets-boston-3", "location": {"display_address": ["1095 Commonwealth Ave", "Boston, MA 02228"], "state": "MA", "city": "Boston", "address2": "", "country": "US", "zip_code": "02228", "address1": "1095 Commonwealth Ave", "address3": ""}, "url": "https://www.yelp.com/biz/pho-viets-boston-3?adjust_creative=8_C4NSGbL05eUQksKleGYw&utm_campaign=yelp_api_v3&utm_medium=api_v3_business_search&utm_source=8_C4NSGbL05eUQksKleGYw", "transactions": [], "phone": "+16175628828", "image_url": "https://s3-media3.fl.yelpcdn.com/bphoto/Z3OiMwb8MtPD9WudZASl3Q/o.jpg"}, {"rating": 4.5, "display_phone": "(617) 202-3808", "price": "$$", "categories": [{"title": "Sushi Bars", "alias": "sushi"}, {"title": "Japanese", "alias": "japanese"}, {"title": "Seafood", "alias": "seafood"}], "coordinates": {"longitude": -71.1313152, "latitude": 42.350904}, "is_closed": false, "name": "Oppa Sushi", "distance": 4948.493100258, "review_count": 128, "id": "oppa-sushi-boston-2", "location": {"display_address": ["185 Harvard Ave", "Boston, MA 02134"], "state": "MA", "city": "Boston", "address2": "", "country": "US", "zip_code": "02134", "address1": "185 Harvard Ave", "address3": ""}, "url": "https://www.yelp.com/biz/oppa-sushi-boston-2?adjust_creative=8_C4NSGbL05eUQksKleGYw&utm_campaign=yelp_api_v3&utm_medium=api_v3_business_search&utm_source=8_C4NSGbL05eUQksKleGYw", "transactions": ["pickup", "delivery"], "phone": "+16172023808", "image_url": "https://s3-media3.fl.yelpcdn.com/bphoto/3VVMm4sMYxgPuGjD1fDq0Q/o.jpg"}, {"rating": 3.5, "display_phone": "(617) 778-2200", "price": "$$$$", "categories": [{"title": "Steakhouses", "alias": "steak"}, {"title": "Seafood", "alias": "seafood"}], "coordinates": {"longitude": -71.05287385159, "latitude": 42.3531183164592}, "is_closed": false, "name": "Smith & Wollensky", "distance": 1619.6935279559998, "review_count": 243, "id": "smith-and-wollensky-boston-2", "location": {"display_address": ["294 Congress St", "Boston, MA 02210"], "state": "MA", "city": "Boston", "address2": "", "country": "US", "zip_code": "02210", "address1": "294 Congress St", "address3": ""}, "url": "https://www.yelp.com/biz/smith-and-wollensky-boston-2?adjust_creative=8_C4NSGbL05eUQksKleGYw&utm_campaign=yelp_api_v3&utm_medium=api_v3_business_search&utm_source=8_C4NSGbL05eUQksKleGYw", "transactions": [], "phone": "+16177782200", "image_url": "https://s3-media2.fl.yelpcdn.com/bphoto/xSgTJbGb9TFb9hYFOSe5Kg/o.jpg"}, {"rating": 4.0, "display_phone": "", "price": "$", "categories": [{"title": "Food Stands", "alias": "foodstands"}], "coordinates": {"longitude": -71.062858581543, "latitude": 42.356143951416}, "is_closed": false, "name": "Clover", "distance": 1151.814776842, "review_count": 67, "id": "clover-boston-2", "location": {"display_address": ["138 Tremont St", "Boston, MA 02111"], "state": "MA", "city": "Boston", "address2": "", "country": "US", "zip_code": "02111", "address1": "138 Tremont St", "address3": ""}, "url": "https://www.yelp.com/biz/clover-boston-2?adjust_creative=8_C4NSGbL05eUQksKleGYw&utm_campaign=yelp_api_v3&utm_medium=api_v3_business_search&utm_source=8_C4NSGbL05eUQksKleGYw", "transactions": [], "phone": "", "image_url": "https://s3-media2.fl.yelpcdn.com/bphoto/wovPQ5CSGRpEHQwnUUrK3Q/o.jpg"}, {"rating": 3.5, "display_phone": "(617) 536-7200", "price": "$$$$", "categories": [{"title": "Sushi Bars", "alias": "sushi"}, {"title": "Japanese", "alias": "japanese"}, {"title": "Asian Fusion", "alias": "asianfusion"}], "coordinates": {"longitude": -71.08873, "latitude": 42.34859}, "is_closed": false, "name": "UNI", "distance": 1439.2365761357999, "review_count": 283, "id": "uni-boston-2", "location": {"display_address": ["370 Commonwealth Ave", "Boston, MA 02215"], "state": "MA", "city": "Boston", "address2": "", "country": "US", "zip_code": "02215", "address1": "370 Commonwealth Ave", "address3": ""}, "url": "https://www.yelp.com/biz/uni-boston-2?adjust_creative=8_C4NSGbL05eUQksKleGYw&utm_campaign=yelp_api_v3&utm_medium=api_v3_business_search&utm_source=8_C4NSGbL05eUQksKleGYw", "transactions": [], "phone": "+16175367200", "image_url": "https://s3-media2.fl.yelpcdn.com/bphoto/BIZdneD2AaB17mvI0d22zw/o.jpg"}, {"rating": 3.5, "display_phone": "(617) 371-1230", "price": "$$", "categories": [{"title": "Japanese", "alias": "japanese"}, {"title": "Sushi Bars", "alias": "sushi"}], "coordinates": {"longitude": -71.0624064, "latitude": 42.3581615}, "is_closed": false, "name": "Zen Japanese Grill & Sushi Bar", "distance": 1351.3664994819999, "review_count": 242, "id": "zen-japanese-grill-and-sushi-bar-boston", "location": {"display_address": ["21 A Beacon St", "Boston, MA 02108"], "state": "MA", "city": "Boston", "address2": null, "country": "US", "zip_code": "02108", "address1": "21 A Beacon St", "address3": ""}, "url": "https://www.yelp.com/biz/zen-japanese-grill-and-sushi-bar-boston?adjust_creative=8_C4NSGbL05eUQksKleGYw&utm_campaign=yelp_api_v3&utm_medium=api_v3_business_search&utm_source=8_C4NSGbL05eUQksKleGYw", "transactions": ["delivery", "pickup"], "phone": "+16173711230", "image_url": "https://s3-media2.fl.yelpcdn.com/bphoto/hfLqov6qPTrl7LtX2JxtgA/o.jpg"}, {"rating": 4.0, "display_phone": "(617) 277-9200", "price": "$$", "categories": [{"title": "Pizza", "alias": "pizza"}, {"title": "Italian", "alias": "italian"}], "coordinates": {"longitude": -71.10545, "latitude": 42.334502}, "is_closed": false, "name": "Penguin Pizza", "distance": 3178.997859884, "review_count": 465, "id": "penguin-pizza-boston", "location": {"display_address": ["735 Huntington Ave", "Boston, MA 02115"], "state": "MA", "city": "Boston", "address2": null, "country": "US", "zip_code": "02115", "address1": "735 Huntington Ave", "address3": ""}, "url": "https://www.yelp.com/biz/penguin-pizza-boston?adjust_creative=8_C4NSGbL05eUQksKleGYw&utm_campaign=yelp_api_v3&utm_medium=api_v3_business_search&utm_source=8_C4NSGbL05eUQksKleGYw", "transactions": ["delivery"], "phone": "+16172779200", "image_url": "https://s3-media4.fl.yelpcdn.com/bphoto/3zVOt1WdWa_mTrZBPCzyHQ/o.jpg"}, {"rating": 3.5, "display_phone": "(617) 399-0015", "price": "$$$", "categories": [{"title": "Bars", "alias": "bars"}, {"title": "American (Traditional)", "alias": "tradamerican"}], "coordinates": {"longitude": -71.0740035028749, "latitude": 42.3488638811714}, "is_closed": false, "name": "Post 390", "distance": 253.8450284292, "review_count": 546, "id": "post-390-boston", "location": {"display_address": ["406 Stuart St", "Boston, MA 02116"], "state": "MA", "city": "Boston", "address2": "", "country": "US", "zip_code": "02116", "address1": "406 Stuart St", "address3": ""}, "url": "https://www.yelp.com/biz/post-390-boston?adjust_creative=8_C4NSGbL05eUQksKleGYw&utm_campaign=yelp_api_v3&utm_medium=api_v3_business_search&utm_source=8_C4NSGbL05eUQksKleGYw", "transactions": ["delivery"], "phone": "+16173990015", "image_url": "https://s3-media2.fl.yelpcdn.com/bphoto/vegy5fZIGL6bjusT6qNaww/o.jpg"}, {"rating": 4.0, "display_phone": "(617) 266-0001", "price": "$$", "categories": [{"title": "Greek", "alias": "greek"}, {"title": "Salad", "alias": "salad"}, {"title": "Soup", "alias": "soup"}], "coordinates": {"longitude": -71.1002963036299, "latitude": 42.3445875942707}, "is_closed": false, "name": "Saloniki Greek", "distance": 2421.6389153359996, "review_count": 225, "id": "saloniki-greek-boston", "location": {"display_address": ["4 Kilmarnock St", "Boston, MA 02215"], "state": "MA", "city": "Boston", "address2": null, "country": "US", "zip_code": "02215", "address1": "4 Kilmarnock St", "address3": ""}, "url": "https://www.yelp.com/biz/saloniki-greek-boston?adjust_creative=8_C4NSGbL05eUQksKleGYw&utm_campaign=yelp_api_v3&utm_medium=api_v3_business_search&utm_source=8_C4NSGbL05eUQksKleGYw", "transactions": [], "phone": "+16172660001", "image_url": "https://s3-media2.fl.yelpcdn.com/bphoto/0hwJgowKM4JkTcZ9yjfwhg/o.jpg"}, {"rating": 4.0, "display_phone": "(617) 204-9808", "price": "$", "categories": [{"title": "Breakfast & Brunch", "alias": "breakfast_brunch"}, {"title": "Coffee & Tea", "alias": "coffee"}, {"title": "Sandwiches", "alias": "sandwiches"}], "coordinates": {"longitude": -71.058278, "latitude": 42.353787}, "is_closed": false, "name": "Olga's Kafe", "distance": 1253.5541938959998, "review_count": 45, "id": "olgas-kafe-boston-2", "location": {"display_address": ["99 Summer St", "Boston, MA 02110"], "state": "MA", "city": "Boston", "address2": "", "country": "US", "zip_code": "02110", "address1": "99 Summer St", "address3": ""}, "url": "https://www.yelp.com/biz/olgas-kafe-boston-2?adjust_creative=8_C4NSGbL05eUQksKleGYw&utm_campaign=yelp_api_v3&utm_medium=api_v3_business_search&utm_source=8_C4NSGbL05eUQksKleGYw", "transactions": [], "phone": "+16172049808", "image_url": "https://s3-media3.fl.yelpcdn.com/bphoto/rVmPFmKvQEeYXUeJoWF5hw/o.jpg"}, {"rating": 3.5, "display_phone": "(617) 426-0048", "price": "$$", "categories": [{"title": "American (Traditional)", "alias": "tradamerican"}, {"title": "Gastropubs", "alias": "gastropubs"}, {"title": "Pubs", "alias": "pubs"}], "coordinates": {"longitude": -71.0616226196289, "latitude": 42.3552131652832}, "is_closed": false, "name": "Stoddard's Fine Food & Ale", "distance": 1134.071481474, "review_count": 491, "id": "stoddards-fine-food-and-ale-boston", "location": {"display_address": ["48 Temple Pl", "Boston, MA 02111"], "state": "MA", "city": "Boston", "address2": "", "country": "US", "zip_code": "02111", "address1": "48 Temple Pl", "address3": ""}, "url": "https://www.yelp.com/biz/stoddards-fine-food-and-ale-boston?adjust_creative=8_C4NSGbL05eUQksKleGYw&utm_campaign=yelp_api_v3&utm_medium=api_v3_business_search&utm_source=8_C4NSGbL05eUQksKleGYw", "transactions": [], "phone": "+16174260048", "image_url": "https://s3-media2.fl.yelpcdn.com/bphoto/wxRN1rnP52MKUICmi7FBHA/o.jpg"}, {"rating": 4.5, "display_phone": "(978) 846-0860", "price": "$", "categories": [{"title": "Desserts", "alias": "desserts"}, {"title": "Donuts", "alias": "donuts"}, {"title": "Food Stands", "alias": "foodstands"}], "coordinates": {"longitude": -71.0619843, "latitude": 42.3564967}, "is_closed": false, "name": "Daddy's Fried Dough", "distance": 1226.698010778, "review_count": 23, "id": "daddys-fried-dough-boston-2", "location": {"display_address": ["Park Street T Station Boston Common", "Tremont St and Park St", "Boston, MA 02108"], "state": "MA", "city": "Boston", "address2": "Tremont St and Park St", "country": "US", "zip_code": "02108", "address1": "Park Street T Station Boston Common", "address3": ""}, "url": "https://www.yelp.com/biz/daddys-fried-dough-boston-2?adjust_creative=8_C4NSGbL05eUQksKleGYw&utm_campaign=yelp_api_v3&utm_medium=api_v3_business_search&utm_source=8_C4NSGbL05eUQksKleGYw", "transactions": [], "phone": "+19788460860", "image_url": "https://s3-media2.fl.yelpcdn.com/bphoto/D-JiXOm1cEmWJY1pM08WgA/o.jpg"}, {"rating": 3.5, "display_phone": "(617) 236-2063", "price": "$$", "categories": [{"title": "American (New)", "alias": "newamerican"}], "coordinates": {"longitude": -71.07257, "latitude": 42.3436382}, "is_closed": false, "name": "Stephi's on Tremont", "distance": 480.0032933664, "review_count": 410, "id": "stephis-on-tremont-boston", "location": {"display_address": ["571 Tremont St", "Boston, MA 02118"], "state": "MA", "city": "Boston", "address2": "", "country": "US", "zip_code": "02118", "address1": "571 Tremont St", "address3": ""}, "url": "https://www.yelp.com/biz/stephis-on-tremont-boston?adjust_creative=8_C4NSGbL05eUQksKleGYw&utm_campaign=yelp_api_v3&utm_medium=api_v3_business_search&utm_source=8_C4NSGbL05eUQksKleGYw", "transactions": ["delivery"], "phone": "+16172362063", "image_url": "https://s3-media2.fl.yelpcdn.com/bphoto/e6pdrh7EOjpzx9n_lVhpLQ/o.jpg"}, {"rating": 4.0, "display_phone": "(617) 572-2074", "price": "$", "categories": [{"title": "Burgers", "alias": "burgers"}, {"title": "Fast Food", "alias": "hotdogs"}, {"title": "Hot Dogs", "alias": "hotdog"}], "coordinates": {"longitude": -71.0862731933594, "latitude": 42.3421478271484}, "is_closed": false, "name": "Five Guys Burgers and Fries", "distance": 1361.5949012529998, "review_count": 44, "id": "five-guys-burgers-and-fries-boston-4", "location": {"display_address": ["263 Huntington Ave", "Boston, MA 02115"], "state": "MA", "city": "Boston", "address2": "", "country": "US", "zip_code": "02115", "address1": "263 Huntington Ave", "address3": ""}, "url": "https://www.yelp.com/biz/five-guys-burgers-and-fries-boston-4?adjust_creative=8_C4NSGbL05eUQksKleGYw&utm_campaign=yelp_api_v3&utm_medium=api_v3_business_search&utm_source=8_C4NSGbL05eUQksKleGYw", "transactions": [], "phone": "+16175722074", "image_url": "https://s3-media1.fl.yelpcdn.com/bphoto/VFWXsKmN_4rC0jP77CJJPg/o.jpg"}, {"rating": 3.5, "display_phone": "(617) 338-6500", "price": "$", "categories": [{"title": "Grocery", "alias": "grocery"}, {"title": "Delis", "alias": "delis"}, {"title": "Sandwiches", "alias": "sandwiches"}], "coordinates": {"longitude": -71.06273, "latitude": 42.355712}, "is_closed": false, "name": "Lambert's Marketplace", "distance": 1120.4000898938, "review_count": 137, "id": "lamberts-marketplace-boston-5", "location": {"display_address": ["140 Tremont St", "Boston, MA 02111"], "state": "MA", "city": "Boston", "address2": null, "country": "US", "zip_code": "02111", "address1": "140 Tremont St", "address3": ""}, "url": "https://www.yelp.com/biz/lamberts-marketplace-boston-5?adjust_creative=8_C4NSGbL05eUQksKleGYw&utm_campaign=yelp_api_v3&utm_medium=api_v3_business_search&utm_source=8_C4NSGbL05eUQksKleGYw", "transactions": [], "phone": "+16173386500", "image_url": "https://s3-media4.fl.yelpcdn.com/bphoto/29xSx0lsRebsfWt-ZZI0ow/o.jpg"}, {"rating": 3.5, "display_phone": "(617) 423-0838", "price": "$", "categories": [{"title": "Cantonese", "alias": "cantonese"}, {"title": "Noodles", "alias": "noodles"}, {"title": "Barbeque", "alias": "bbq"}], "coordinates": {"longitude": -71.0616302490234, "latitude": 42.3510131835938}, "is_closed": false, "name": "Hong Kong Eatery", "distance": 865.05806949, "review_count": 362, "id": "hong-kong-eatery-boston", "location": {"display_address": ["79 Harrison Ave", "Boston, MA 02111"], "state": "MA", "city": "Boston", "address2": "", "country": "US", "zip_code": "02111", "address1": "79 Harrison Ave", "address3": ""}, "url": "https://www.yelp.com/biz/hong-kong-eatery-boston?adjust_creative=8_C4NSGbL05eUQksKleGYw&utm_campaign=yelp_api_v3&utm_medium=api_v3_business_search&utm_source=8_C4NSGbL05eUQksKleGYw", "transactions": [], "phone": "+16174230838", "image_url": "https://s3-media4.fl.yelpcdn.com/bphoto/LXHrfmoTFbx6XQ3bWzG4fQ/o.jpg"}, {"rating": 4.0, "display_phone": "(617) 708-0796", "price": "$$", "categories": [{"title": "Cuban", "alias": "cuban"}], "coordinates": {"longitude": -71.0731128, "latitude": 42.3325728}, "is_closed": false, "name": "Do\u00f1a Habana", "distance": 1704.906471616, "review_count": 79, "id": "do\u00f1a-habana-boston", "location": {"display_address": ["811 Massachusetts Ave", "Boston, MA 02118"], "state": "MA", "city": "Boston", "address2": "", "country": "US", "zip_code": "02118", "address1": "811 Massachusetts Ave", "address3": ""}, "url": "https://www.yelp.com/biz/do%C3%B1a-habana-boston?adjust_creative=8_C4NSGbL05eUQksKleGYw&utm_campaign=yelp_api_v3&utm_medium=api_v3_business_search&utm_source=8_C4NSGbL05eUQksKleGYw", "transactions": [], "phone": "+16177080796", "image_url": "https://s3-media1.fl.yelpcdn.com/bphoto/fXDcA7UEezB6CTXNMnOGSQ/o.jpg"}, {"rating": 4.5, "display_phone": "(617) 318-6300", "price": "$", "categories": [{"title": "Burgers", "alias": "burgers"}, {"title": "Fast Food", "alias": "hotdogs"}], "coordinates": {"longitude": -71.0964813232422, "latitude": 42.3319091796875}, "is_closed": false, "name": "Beta Burger", "distance": 2724.585100286, "review_count": 60, "id": "beta-burger-boston", "location": {"display_address": ["1437 Tremont St", "Boston, MA 02120"], "state": "MA", "city": "Boston", "address2": null, "country": "US", "zip_code": "02120", "address1": "1437 Tremont St", "address3": ""}, "url": "https://www.yelp.com/biz/beta-burger-boston?adjust_creative=8_C4NSGbL05eUQksKleGYw&utm_campaign=yelp_api_v3&utm_medium=api_v3_business_search&utm_source=8_C4NSGbL05eUQksKleGYw", "transactions": ["delivery", "pickup"], "phone": "+16173186300", "image_url": "https://s3-media2.fl.yelpcdn.com/bphoto/PhTTJcn7Fd2H_gUM-iT0Aw/o.jpg"}, {"rating": 3.5, "display_phone": "(617) 951-1368", "price": "$$$$", "categories": [{"title": "Seafood", "alias": "seafood"}, {"title": "Steakhouses", "alias": "steak"}], "coordinates": {"longitude": -71.0384720380287, "latitude": 42.348867116523}, "is_closed": false, "name": "Del Frisco's Double Eagle Steak House", "distance": 2695.291410804, "review_count": 657, "id": "del-friscos-double-eagle-steak-house-boston-3", "location": {"display_address": ["250 Northern Ave", "Ste 200", "Boston, MA 02210"], "state": "MA", "city": "Boston", "address2": "Ste 200", "country": "US", "zip_code": "02210", "address1": "250 Northern Ave", "address3": ""}, "url": "https://www.yelp.com/biz/del-friscos-double-eagle-steak-house-boston-3?adjust_creative=8_C4NSGbL05eUQksKleGYw&utm_campaign=yelp_api_v3&utm_medium=api_v3_business_search&utm_source=8_C4NSGbL05eUQksKleGYw", "transactions": [], "phone": "+16179511368", "image_url": "https://s3-media4.fl.yelpcdn.com/bphoto/hm3IlPXwhtO7bs_3mbYcjw/o.jpg"}, {"rating": 3.5, "display_phone": "(617) 351-2500", "price": "$$", "categories": [{"title": "American (New)", "alias": "newamerican"}, {"title": "Wine Bars", "alias": "wine_bars"}, {"title": "Breakfast & Brunch", "alias": "breakfast_brunch"}], "coordinates": {"longitude": -71.08625, "latitude": 42.34884}, "is_closed": false, "name": "Sonsie", "distance": 1238.8978540489998, "review_count": 951, "id": "sonsie-boston", "location": {"display_address": ["327 Newbury St", "Boston, MA 02115"], "state": "MA", "city": "Boston", "address2": "", "country": "US", "zip_code": "02115", "address1": "327 Newbury St", "address3": ""}, "url": "https://www.yelp.com/biz/sonsie-boston?adjust_creative=8_C4NSGbL05eUQksKleGYw&utm_campaign=yelp_api_v3&utm_medium=api_v3_business_search&utm_source=8_C4NSGbL05eUQksKleGYw", "transactions": [], "phone": "+16173512500", "image_url": "https://s3-media4.fl.yelpcdn.com/bphoto/F5gBtjLQ66I0hytDgbaLzA/o.jpg"}, {"rating": 4.5, "display_phone": "(617) 572-6420", "categories": [{"title": "Landmarks & Historical Buildings", "alias": "landmarks"}], "coordinates": {"longitude": -71.07511, "latitude": 42.34926}, "is_closed": false, "name": "John Hancock Tower", "distance": 1473.87541484, "review_count": 18, "id": "john-hancock-tower-boston", "location": {"display_address": ["200 Clarendon St", "Boston, MA 02228"], "state": "MA", "city": "Boston", "address2": null, "country": "US", "zip_code": "02228", "address1": "200 Clarendon St", "address3": ""}, "url": "https://www.yelp.com/biz/john-hancock-tower-boston?adjust_creative=8_C4NSGbL05eUQksKleGYw&utm_campaign=yelp_api_v3&utm_medium=api_v3_business_search&utm_source=8_C4NSGbL05eUQksKleGYw", "transactions": [], "phone": "+16175726420", "image_url": "https://s3-media3.fl.yelpcdn.com/bphoto/N0oHXa4-S5mXgkP6ftsw2A/o.jpg"}, {"rating": 4.0, "display_phone": "(201) 694-9060", "price": "$", "categories": [{"title": "Food Trucks", "alias": "foodtrucks"}, {"title": "Sandwiches", "alias": "sandwiches"}], "coordinates": {"longitude": -71.0705763, "latitude": 42.3377967}, "is_closed": false, "name": "The Bacon Truck", "distance": 1118.6066896779998, "review_count": 40, "id": "the-bacon-truck-boston", "location": {"display_address": ["560 Harrison Ave", "Boston, MA 02118"], "state": "MA", "city": "Boston", "address2": "", "country": "US", "zip_code": "02118", "address1": "560 Harrison Ave", "address3": ""}, "url": "https://www.yelp.com/biz/the-bacon-truck-boston?adjust_creative=8_C4NSGbL05eUQksKleGYw&utm_campaign=yelp_api_v3&utm_medium=api_v3_business_search&utm_source=8_C4NSGbL05eUQksKleGYw", "transactions": [], "phone": "+12016949060", "image_url": "https://s3-media2.fl.yelpcdn.com/bphoto/vyIrCDrtf12y9DRec9VnlA/o.jpg"}, {"rating": 3.5, "display_phone": "(617) 266-1300", "price": "$$", "categories": [{"title": "Southern", "alias": "southern"}, {"title": "Bars", "alias": "bars"}, {"title": "Barbeque", "alias": "bbq"}], "coordinates": {"longitude": -71.101050100398, "latitude": 42.3438762985484}, "is_closed": false, "name": "Sweet Cheeks Q", "distance": 2489.1238523579996, "review_count": 1139, "id": "sweet-cheeks-q-boston", "location": {"display_address": ["1381 Boylston St", "Boston, MA 02215"], "state": "MA", "city": "Boston", "address2": "", "country": "US", "zip_code": "02215", "address1": "1381 Boylston St", "address3": ""}, "url": "https://www.yelp.com/biz/sweet-cheeks-q-boston?adjust_creative=8_C4NSGbL05eUQksKleGYw&utm_campaign=yelp_api_v3&utm_medium=api_v3_business_search&utm_source=8_C4NSGbL05eUQksKleGYw", "transactions": [], "phone": "+16172661300", "image_url": "https://s3-media4.fl.yelpcdn.com/bphoto/dEI03PQc0LzR2C20W_b3lw/o.jpg"}, {"rating": 3.5, "display_phone": "(617) 262-3900", "price": "$$$", "categories": [{"title": "Asian Fusion", "alias": "asianfusion"}, {"title": "Sushi Bars", "alias": "sushi"}, {"title": "Cocktail Bars", "alias": "cocktailbars"}], "coordinates": {"longitude": -71.073356628418, "latitude": 42.348503112793}, "is_closed": false, "name": "Red Lantern", "distance": 188.54150349699998, "review_count": 536, "id": "red-lantern-boston", "location": {"display_address": ["39 Stanhope St", "Boston, MA 02116"], "state": "MA", "city": "Boston", "address2": "", "country": "US", "zip_code": "02116", "address1": "39 Stanhope St", "address3": ""}, "url": "https://www.yelp.com/biz/red-lantern-boston?adjust_creative=8_C4NSGbL05eUQksKleGYw&utm_campaign=yelp_api_v3&utm_medium=api_v3_business_search&utm_source=8_C4NSGbL05eUQksKleGYw", "transactions": ["delivery"], "phone": "+16172623900", "image_url": "https://s3-media2.fl.yelpcdn.com/bphoto/ruevXFXLxhcBoBcFikvlrA/o.jpg"}, {"rating": 4.0, "display_phone": "(617) 242-2229", "price": "$$", "categories": [{"title": "Pizza", "alias": "pizza"}, {"title": "Italian", "alias": "italian"}], "coordinates": {"longitude": -71.062565, "latitude": 42.373618}, "is_closed": false, "name": "Todd English's Figs", "distance": 2953.43823724, "review_count": 315, "id": "todd-englishs-figs-boston", "location": {"display_address": ["67 Main St", "Boston, MA 02129"], "state": "MA", "city": "Boston", "address2": "", "country": "US", "zip_code": "02129", "address1": "67 Main St", "address3": ""}, "url": "https://www.yelp.com/biz/todd-englishs-figs-boston?adjust_creative=8_C4NSGbL05eUQksKleGYw&utm_campaign=yelp_api_v3&utm_medium=api_v3_business_search&utm_source=8_C4NSGbL05eUQksKleGYw", "transactions": ["delivery", "pickup"], "phone": "+16172422229", "image_url": "https://s3-media4.fl.yelpcdn.com/bphoto/qSd3xWgsYXHs0Z-CEI5RZw/o.jpg"}, {"rating": 4.5, "display_phone": "(617) 562-1668", "price": "$", "categories": [{"title": "Taiwanese", "alias": "taiwanese"}, {"title": "Bubble Tea", "alias": "bubbletea"}], "coordinates": {"longitude": -71.128802412403, "latitude": 42.3524595116339}, "is_closed": false, "name": "Dolphin Bay", "distance": 4757.59206292, "review_count": 236, "id": "dolphin-bay-boston", "location": {"display_address": ["72 Brighton Ave", "Boston, MA 02134"], "state": "MA", "city": "Boston", "address2": "", "country": "US", "zip_code": "02134", "address1": "72 Brighton Ave", "address3": ""}, "url": "https://www.yelp.com/biz/dolphin-bay-boston?adjust_creative=8_C4NSGbL05eUQksKleGYw&utm_campaign=yelp_api_v3&utm_medium=api_v3_business_search&utm_source=8_C4NSGbL05eUQksKleGYw", "transactions": [], "phone": "+16175621668", "image_url": "https://s3-media1.fl.yelpcdn.com/bphoto/uvMsA_Ju5MwcD0Os0jTbVg/o.jpg"}, {"rating": 4.0, "display_phone": "(617) 742-2987", "price": "$", "categories": [{"title": "Italian", "alias": "italian"}, {"title": "Breakfast & Brunch", "alias": "breakfast_brunch"}], "coordinates": {"longitude": -71.0513610839844, "latitude": 42.3639907836914}, "is_closed": false, "name": "Anthony's Cafe", "distance": 2427.123546056, "review_count": 112, "id": "anthonys-cafe-boston", "location": {"display_address": ["252 Commercial St", "Boston, MA 02109"], "state": "MA", "city": "Boston", "address2": "", "country": "US", "zip_code": "02109", "address1": "252 Commercial St", "address3": ""}, "url": "https://www.yelp.com/biz/anthonys-cafe-boston?adjust_creative=8_C4NSGbL05eUQksKleGYw&utm_campaign=yelp_api_v3&utm_medium=api_v3_business_search&utm_source=8_C4NSGbL05eUQksKleGYw", "transactions": [], "phone": "+16177422987", "image_url": "https://s3-media4.fl.yelpcdn.com/bphoto/Hw5sGFWdKldns8z9iqnL3w/o.jpg"}], "total": 24769}