{"region": {"center": {"longitude": -71.07124328613281, "latitude": 42.34784169448538}}, "businesses": [{"rating": 3.5, "display_phone": "(617) 351-2500", "price": "$$", "categories": [{"title": "American (New)", "alias": "newamerican"}, {"title": "Wine Bars", "alias": "wine_bars"}, {"title": "Breakfast & Brunch", "alias": "breakfast_brunch"}], "coordinates": {"longitude": -71.08625, "latitude": 42.34884}, "is_closed": false, "name": "Sonsie", "distance": 1238.8978540489998, "review_count": 951, "id": "sonsie-boston", "location": {"display_address": ["327 Newbury St", "Boston, MA 02115"], "state": "MA", "city": "Boston", "address2": "", "country": "US", "zip_code": "02115", "address1": "327 Newbury St", "address3": ""}, "url": "https://www.yelp.com/biz/sonsie-boston?adjust_creative=8_C4NSGbL05eUQksKleGYw&utm_campaign=yelp_api_v3&utm_medium=api_v3_business_search&utm_source=8_C4NSGbL05eUQksKleGYw", "transactions": [], "phone": "+16173512500", "image_url": "https://s3-media4.fl.yelpcdn.com/bphoto/F5gBtjLQ66I0hytDgbaLzA/o.jpg"}, {"rating": 4.5, "display_phone": "(617) 572-6420", "categories": [{"title": "Landmarks & Historical Buildings", "alias": "landmarks"}], "coordinates": {"longitude": -71.07511, "latitude": 42.34926}, "is_closed": false, "name": "John Hancock Tower", "distance": 1473.87541484, "review_count": 18, "id": "john-hancock-tower-boston", "location": {"display_address": ["200 Clarendon St", "Boston, MA 02228"], "state": "MA", "city": "Boston", "address2": null, "country": "US", "zip_code": "02228", "address1": "200 Clarendon St", "address3": ""}, "url": "https://www.yelp.com/biz/john-hancock-tower-boston?adjust_creative=8_C4NSGbL05eUQksKleGYw&utm_campaign=yelp_api_v3&utm_medium=api_v3_business_search&utm_source=8_C4NSGbL05eUQksKleGYw", "transactions": [], "phone": "+16175726420", "image_url": "https://s3-media3.fl.yelpcdn.com/bphoto/N0oHXa4-S5mXgkP6ftsw2A/o.jpg"}, {"rating": 4.0, "display_phone": "(201) 694-9060", "price": "$", "categories": [{"title": "Food Trucks", "alias": "foodtrucks"}, {"title": "Sandwiches", "alias": "sandwiches"}], "coordinates": {"longitude": -71.0705763, "latitude": 42.3377967}, "is_closed": false, "name": "The Bacon Truck", "distance": 1118.6066896779998, "review_count": 40, "id": "the-bacon-truck-boston", "location": {"display_address": ["560 Harrison Ave", "Boston, MA 02118"], "state": "MA", "city": "Boston", "address2": "", "country": "US", "zip_code": "02118", "address1": "560 Harrison Ave", "address3": ""}, "url": "https://www.yelp.com/biz/the-bacon-truck-boston?adjust_creative=8_C4NSGbL05eUQksKleGYw&utm_campaign=yelp_api_v3&utm_medium=api_v3_business_search&utm_source=8_C4NSGbL05eUQksKleGYw", "transactions": [], "phone": "+12016949060", "image_url": "https://s3-media2.fl.yelpcdn.com/bphoto/vyIrCDrtf12y9DRec9VnlA/o.jpg"}, {"rating": 3.5, "display_phone": "(617) 266-1300", "price": "$$", "categories": [{"title": "Southern", "alias": "southern"}, {"title": "Bars", "alias": "bars"}, {"title": "Barbeque", "alias": "bbq"}], "coordinates": {"longitude": -71.101050100398, "latitude": 42.3438762985484}, "is_closed": false, "name": "Sweet Cheeks Q", "distance": 2489.1238523579996, "review_count": 1139, "id": "sweet-cheeks-q-boston", "location": {"display_address": ["1381 Boylston St", "Boston, MA 02215"], "state": "MA", "city": "Boston", "address2": "", "country": "US", "zip_code": "02215", "address1": "1381 Boylston St", "address3": ""}, "url": "https://www.yelp.com/biz/sweet-cheeks-q-boston?adjust_creative=8_C4NSGbL05eUQksKleGYw&utm_campaign=yelp_api_v3&utm_medium=api_v3_business_search&utm_source=8_C4NSGbL05eUQksKleGYw", "transactions": [], "phone": "+16172661300", "image_url": "https://s3-media4.fl.yelpcdn.com/bphoto/dEI03PQc0LzR2C20W_b3lw/o.jpg"}, {"rating": 3.5, "display_phone": "(617) 262-3900", "price": "$$$", "categories": [{"title": "Asian Fusion", "alias": "asianfusion"}, {"title": "Sushi Bars", "alias": "sushi"}, {"title": "Cocktail Bars", "alias": "cocktailbars"}], "coordinates": {"longitude": -71.073356628418, "latitude": 42.348503112793}, "is_closed": false, "name": "Red Lantern", "distance": 188.54150349699998, "review_count": 536, "id": "red-lantern-boston", "location": {"display_address": ["39 Stanhope St", "Boston, MA 02116"], "state": "MA", "city": "Boston", "address2": "", "country": "US", "zip_code": "02116", "address1": "39 Stanhope St", "address3": ""}, "url": "https://www.yelp.com/biz/red-lantern-boston?adjust_creative=8_C4NSGbL05eUQksKleGYw&utm_campaign=yelp_api_v3&utm_medium=api_v3_business_search&utm_source=8_C4NSGbL05eUQksKleGYw", "transactions": ["delivery"], "phone": "+16172623900", "image_url": "https://s3-media2.fl.yelpcdn.com/bphoto/ruevXFXLxhcBoBcFikvlrA/o.jpg"}, {"rating": 4.0, "display_phone": "(617) 242-2229", "price": "$$", "categories": [{"title": "Pizza", "alias": "pizza"}, {"title": "Italian", "alias": "italian"}], "coordinates": {"longitude": -71.062565, "latitude": 42.373618}, "is_closed": false, "name": "Todd English's Figs", "distance": 2953.43823724, "review_count": 315, "id": "todd-englishs-figs-boston", "location": {"display_address": ["67 Main St", "Boston, MA 02129"], "state": "MA", "city": "Boston", "address2": "", "country": "US", "zip_code": "02129", "address1": "67 Main St", "address3": ""}, "url": "https://www.yelp.com/biz/todd-englishs-figs-boston?adjust_creative=8_C4NSGbL05eUQksKleGYw&utm_campaign=yelp_api_v3&utm_medium=api_v3_business_search&utm_source=8_C4NSGbL05eUQksKleGYw", "transactions": ["delivery", "pickup"], "phone": "+16172422229", "image_url": "https://s3-media4.fl.yelpcdn.com/bphoto/qSd3xWgsYXHs0Z-CEI5RZw/o.jpg"}, {"rating": 4.5, "display_phone": "(617) 562-1668", "price": "$", "categories": [{"title": "Taiwanese", "alias": "taiwanese"}, {"title": "Bubble Tea", "alias": "bubbletea"}], "coordinates": {"longitude": -71.128802412403, "latitude": 42.3524595116339}, "is_closed": false, "name": "Dolphin Bay", "distance": 4757.59206292, "review_count": 236, "id": "dolphin-bay-boston", "location": {"display_address": ["72 Brighton Ave", "Boston, MA 02134"], "state": "MA", "city": "Boston", "address2": "", "country": "US", "zip_code": "02134", "address1": "72 Brighton Ave", "address3": ""}, "url": "https://www.yelp.com/biz/dolphin-bay-boston?adjust_creative=8_C4NSGbL05eUQksKleGYw&utm_campaign=yelp_api_v3&utm_medium=api_v3_business_search&utm_source=8_C4NSGbL05eUQksKleGYw", "transactions": [], "phone": "+16175621668", "image_url": "https://s3-media1.fl.yelpcdn.com/bphoto/uvMsA_Ju5MwcD0Os0jTbVg/o.jpg"}, {"rating": 4.0, "display_phone": "(617) 742-2987", "price": "$", "categories": [{"title": "Italian", "alias": "italian"}, {"title": "Breakfast & Brunch", "alias": "breakfast_brunch"}], "coordinates": {"longitude": -71.0513610839844, "latitude": 42.3639907836914}, "is_closed": false, "name": "Anthony's Cafe", "distance": 2427.123546056, "review_count": 112, "id": "anthonys-cafe-boston", "location": {"display_address": ["252 Commercial St", "Boston, MA 02109"], "state": "MA", "city": "Boston", "address2": "", "country": "US", "zip_code": "02109", "address1": "252 Commercial St", "address3": ""}, "url": "https://www.yelp.com/biz/anthonys-cafe-boston?adjust_creative=8_C4NSGbL05eUQksKleGYw&utm_campaign=yelp_api_v3&utm_medium=api_v3_business_search&utm_source=8_C4NSGbL05eUQksKleGYw", "transactions": [], "phone": "+16177422987", "image_url": "https://s3-media4.fl.yelpcdn.com/bphoto/Hw5sGFWdKldns8z9iqnL3w/o.jpg"}, {"rating": 4.5, "display_phone": "(617) 268-2435", "price": "$", "categories": [{"title": "Delis", "alias": "delis"}, {"title": "Imported Food", "alias": "importedfood"}], "coordinates": {"longitude": -71.05669, "latitude": 42.32826}, "is_closed": false, "name": "Baltic Deli & Cafe", "distance": 2482.246016, "review_count": 34, "id": "baltic-deli-and-cafe-boston", "location": {"display_address": ["632 Dorchester Ave", "Boston, MA 02127"], "state": "MA", "city": "Boston", "address2": "", "country": "US", "zip_code": "02127", "address1": "632 Dorchester Ave", "address3": ""}, "url": "https://www.yelp.com/biz/baltic-deli-and-cafe-boston?adjust_creative=8_C4NSGbL05eUQksKleGYw&utm_campaign=yelp_api_v3&utm_medium=api_v3_business_search&utm_source=8_C4NSGbL05eUQksKleGYw", "transactions": [], "phone": "+16172682435", "image_url": "https://s3-media3.fl.yelpcdn.com/bphoto/V_zy7by-ctvtltQloctj8w/o.jpg"}, {"rating": 4.5, "display_phone": "(617) 671-5939", "price": "$$", "categories": [{"title": "Pizza", "alias": "pizza"}, {"title": "Mediterranean", "alias": "mediterranean"}], "coordinates": {"longitude": -71.1255544, "latitude": 42.352078}, "is_closed": false, "name": "Tarboosh", "distance": 4488.144611938, "review_count": 52, "id": "tarboosh-boston", "location": {"display_address": ["2 Brighton Ave", "Boston, MA 02134"], "state": "MA", "city": "Boston", "address2": "", "country": "US", "zip_code": "02134", "address1": "2 Brighton Ave", "address3": ""}, "url": "https://www.yelp.com/biz/tarboosh-boston?adjust_creative=8_C4NSGbL05eUQksKleGYw&utm_campaign=yelp_api_v3&utm_medium=api_v3_business_search&utm_source=8_C4NSGbL05eUQksKleGYw", "transactions": [], "phone": "+16176715939", "image_url": "https://s3-media1.fl.yelpcdn.com/bphoto/PThnOahD431NKBUW1NI7eQ/o.jpg"}, {"rating": 4.0, "display_phone": "(617) 720-5472", "price": "$$$", "categories": [{"title": "Italian", "alias": "italian"}], "coordinates": {"longitude": -71.05523, "latitude": 42.36522}, "is_closed": false, "name": "Trattoria Di Monica", "distance": 2339.846462912, "review_count": 381, "id": "trattoria-di-monica-boston", "location": {"display_address": ["67 Prince St", "Boston, MA 02113"], "state": "MA", "city": "Boston", "address2": null, "country": "US", "zip_code": "02113", "address1": "67 Prince St", "address3": ""}, "url": "https://www.yelp.com/biz/trattoria-di-monica-boston?adjust_creative=8_C4NSGbL05eUQksKleGYw&utm_campaign=yelp_api_v3&utm_medium=api_v3_business_search&utm_source=8_C4NSGbL05eUQksKleGYw", "transactions": [], "phone": "+16177205472", "image_url": "https://s3-media3.fl.yelpcdn.com/bphoto/wZ_u_7Qe0pOwILsTUa5UnA/o.jpg"}, {"rating": 3.5, "display_phone": "(617) 426-8899", "price": "$", "categories": [{"title": "Bakeries", "alias": "bakeries"}, {"title": "Dim Sum", "alias": "dimsum"}, {"title": "Cantonese", "alias": "cantonese"}], "coordinates": {"longitude": -71.0601959228516, "latitude": 42.3510971069336}, "is_closed": false, "name": "Great Taste Bakery & Restaurant", "distance": 979.4092403879998, "review_count": 243, "id": "great-taste-bakery-and-restaurant-boston", "location": {"display_address": ["63 Beach St", "Boston, MA 02111"], "state": "MA", "city": "Boston", "address2": "", "country": "US", "zip_code": "02111", "address1": "63 Beach St", "address3": ""}, "url": "https://www.yelp.com/biz/great-taste-bakery-and-restaurant-boston?adjust_creative=8_C4NSGbL05eUQksKleGYw&utm_campaign=yelp_api_v3&utm_medium=api_v3_business_search&utm_source=8_C4NSGbL05eUQksKleGYw", "transactions": [], "phone": "+16174268899", "image_url": "https://s3-media2.fl.yelpcdn.com/bphoto/a4PUpcJ2bkoQWhxLykMVIw/o.jpg"}, {"rating": 3.5, "display_phone": "(617) 391-0501", "price": "$$", "categories": [{"title": "American (New)", "alias": "newamerican"}, {"title": "Sandwiches", "alias": "sandwiches"}, {"title": "Bars", "alias": "bars"}], "coordinates": {"longitude": -71.0805817, "latitude": 42.3393478}, "is_closed": false, "name": "Parish Cafe", "distance": 1236.6508130739999, "review_count": 227, "id": "parish-cafe-boston-2", "location": {"display_address": ["493 Massachusetts Ave", "Boston, MA 02118"], "state": "MA", "city": "Boston", "address2": null, "country": "US", "zip_code": "02118", "address1": "493 Massachusetts Ave", "address3": null}, "url": "https://www.yelp.com/biz/parish-cafe-boston-2?adjust_creative=8_C4NSGbL05eUQksKleGYw&utm_campaign=yelp_api_v3&utm_medium=api_v3_business_search&utm_source=8_C4NSGbL05eUQksKleGYw", "transactions": [], "phone": "+16173910501", "image_url": "https://s3-media3.fl.yelpcdn.com/bphoto/xFm9MRsoyHC8RYl-gqAC2w/o.jpg"}, {"rating": 3.5, "display_phone": "(617) 477-2900", "price": "$$$", "categories": [{"title": "Seafood", "alias": "seafood"}, {"title": "American (Traditional)", "alias": "tradamerican"}, {"title": "Wine Bars", "alias": "wine_bars"}], "coordinates": {"longitude": -71.0378647, "latitude": 42.3485739}, "is_closed": false, "name": "Legal Harborside", "distance": 2753.372652338, "review_count": 908, "id": "legal-harborside-boston-6", "location": {"display_address": ["270 Northern Ave", "Boston, MA 02210"], "state": "MA", "city": "Boston", "address2": "", "country": "US", "zip_code": "02210", "address1": "270 Northern Ave", "address3": ""}, "url": "https://www.yelp.com/biz/legal-harborside-boston-6?adjust_creative=8_C4NSGbL05eUQksKleGYw&utm_campaign=yelp_api_v3&utm_medium=api_v3_business_search&utm_source=8_C4NSGbL05eUQksKleGYw", "transactions": [], "phone": "+16174772900", "image_url": "https://s3-media4.fl.yelpcdn.com/bphoto/KK2qO--580Yc_IjTt4ymBQ/o.jpg"}, {"rating": 3.5, "display_phone": "(617) 542-2823", "price": "$$", "categories": [{"title": "Seafood", "alias": "seafood"}, {"title": "Chinese", "alias": "chinese"}], "coordinates": {"longitude": -71.0600296407938, "latitude": 42.3509638756514}, "is_closed": false, "name": "New Jumbo Seafood Restaurant", "distance": 992.501382222, "review_count": 278, "id": "new-jumbo-seafood-restaurant-boston", "location": {"display_address": ["5 Hudson St", "Boston, MA 02111"], "state": "MA", "city": "Boston", "address2": "", "country": "US", "zip_code": "02111", "address1": "5 Hudson St", "address3": ""}, "url": "https://www.yelp.com/biz/new-jumbo-seafood-restaurant-boston?adjust_creative=8_C4NSGbL05eUQksKleGYw&utm_campaign=yelp_api_v3&utm_medium=api_v3_business_search&utm_source=8_C4NSGbL05eUQksKleGYw", "transactions": ["delivery", "pickup"], "phone": "+16175422823", "image_url": "https://s3-media2.fl.yelpcdn.com/bphoto/cPSizy1W-JRCGo-Jf44saw/o.jpg"}, {"rating": 4.5, "display_phone": "(617) 652-8462", "price": "$", "categories": [{"title": "Food Trucks", "alias": "foodtrucks"}, {"title": "Vietnamese", "alias": "vietnamese"}], "coordinates": {"longitude": -71.075655, "latitude": 42.351175}, "is_closed": false, "name": "Bon Me", "distance": 510.3438585184, "review_count": 20, "id": "bon-me-boston-14", "location": {"display_address": ["220 Clarendon St", "Boston, MA 02116"], "state": "MA", "city": "Boston", "address2": "", "country": "US", "zip_code": "02116", "address1": "220 Clarendon St", "address3": ""}, "url": "https://www.yelp.com/biz/bon-me-boston-14?adjust_creative=8_C4NSGbL05eUQksKleGYw&utm_campaign=yelp_api_v3&utm_medium=api_v3_business_search&utm_source=8_C4NSGbL05eUQksKleGYw", "transactions": [], "phone": "+16176528462", "image_url": "https://s3-media4.fl.yelpcdn.com/bphoto/IlZ1SIM_hPClarbGsYup8g/o.jpg"}, {"rating": 4.5, "display_phone": "(617) 269-9701", "price": "$", "categories": [{"title": "Italian", "alias": "italian"}, {"title": "Pizza", "alias": "pizza"}], "coordinates": {"longitude": -71.0350112915039, "latitude": 42.331371307373}, "is_closed": false, "name": "Mirisola's", "distance": 3494.841295594, "review_count": 53, "id": "mirisolas-boston", "location": {"display_address": ["200 L St", "Boston, MA 02127"], "state": "MA", "city": "Boston", "address2": "", "country": "US", "zip_code": "02127", "address1": "200 L St", "address3": ""}, "url": "https://www.yelp.com/biz/mirisolas-boston?adjust_creative=8_C4NSGbL05eUQksKleGYw&utm_campaign=yelp_api_v3&utm_medium=api_v3_business_search&utm_source=8_C4NSGbL05eUQksKleGYw", "transactions": [], "phone": "+16172699701", "image_url": "https://s3-media2.fl.yelpcdn.com/bphoto/DDb5SFAUmo5aQguW9gvJlw/o.jpg"}, {"rating": 4.0, "display_phone": "(617) 723-7500", "price": "$$", "categories": [{"title": "Hotels", "alias": "hotels"}, {"title": "Lounges", "alias": "lounges"}], "coordinates": {"longitude": -71.05278, "latitude": 42.35915}, "is_closed": false, "name": "Harborside Inn", "distance": 1967.7915168799998, "review_count": 151, "id": "harborside-inn-boston", "location": {"display_address": ["185 State St", "Boston, MA 02109"], "state": "MA", "city": "Boston", "address2": "", "country": "US", "zip_code": "02109", "address1": "185 State St", "address3": ""}, "url": "https://www.yelp.com/biz/harborside-inn-boston?adjust_creative=8_C4NSGbL05eUQksKleGYw&utm_campaign=yelp_api_v3&utm_medium=api_v3_business_search&utm_source=8_C4NSGbL05eUQksKleGYw", "transactions": [], "phone": "+16177237500", "image_url": "https://s3-media4.fl.yelpcdn.com/bphoto/eEwUjOeWsn-9z5A_8MgTaQ/o.jpg"}, {"rating": 4.0, "display_phone": "(617) 236-0585", "price": "$", "categories": [{"title": "Banks & Credit Unions", "alias": "banks"}, {"title": "Coffee & Tea", "alias": "coffee"}, {"title": "Internet Cafes", "alias": "internetcafe"}], "coordinates": {"longitude": -71.081711, "latitude": 42.349119}, "is_closed": false, "name": "Capital One Caf\u00e9", "distance": 871.807802384, "review_count": 44, "id": "capital-one-caf\u00e9-boston-4", "location": {"display_address": ["799 Boylston St", "Boston, MA 02116"], "state": "MA", "city": "Boston", "address2": null, "country": "US", "zip_code": "02116", "address1": "799 Boylston St", "address3": ""}, "url": "https://www.yelp.com/biz/capital-one-caf%C3%A9-boston-4?adjust_creative=8_C4NSGbL05eUQksKleGYw&utm_campaign=yelp_api_v3&utm_medium=api_v3_business_search&utm_source=8_C4NSGbL05eUQksKleGYw", "transactions": [], "phone": "+16172360585", "image_url": "https://s3-media4.fl.yelpcdn.com/bphoto/SZACJAvjH32at8zm9UTKqQ/o.jpg"}, {"rating": 4.0, "display_phone": "(617) 787-4242", "price": "$$", "categories": [{"title": "Thai", "alias": "thai"}], "coordinates": {"longitude": -71.121633890381, "latitude": 42.352041047903}, "is_closed": false, "name": "Brown Sugar Cafe", "distance": 4167.322843872, "review_count": 760, "id": "brown-sugar-cafe-boston-2", "location": {"display_address": ["1033 Commonwealth Ave", "Boston, MA 02215"], "state": "MA", "city": "Boston", "address2": null, "country": "US", "zip_code": "02215", "address1": "1033 Commonwealth Ave", "address3": ""}, "url": "https://www.yelp.com/biz/brown-sugar-cafe-boston-2?adjust_creative=8_C4NSGbL05eUQksKleGYw&utm_campaign=yelp_api_v3&utm_medium=api_v3_business_search&utm_source=8_C4NSGbL05eUQksKleGYw", "transactions": [], "phone": "+16177874242", "image_url": "https://s3-media2.fl.yelpcdn.com/bphoto/JIsq9skASZW2J2U0igebRg/o.jpg"}, {"rating": 3.5, "display_phone": "(617) 345-3992", "price": "$$$", "categories": [{"title": "Italian", "alias": "italian"}], "coordinates": {"longitude": -71.045152, "latitude": 42.353216}, "is_closed": false, "name": "Strega Waterfront", "distance": 2225.8308394039996, "review_count": 390, "id": "strega-waterfront-boston", "location": {"display_address": ["One Marina Park Dr", "56 Northern Ave On GPS", "Boston, MA 02210"], "state": "MA", "city": "Boston", "address2": "56 Northern Ave On GPS", "country": "US", "zip_code": "02210", "address1": "One Marina Park Dr", "address3": ""}, "url": "https://www.yelp.com/biz/strega-waterfront-boston?adjust_creative=8_C4NSGbL05eUQksKleGYw&utm_campaign=yelp_api_v3&utm_medium=api_v3_business_search&utm_source=8_C4NSGbL05eUQksKleGYw", "transactions": [], "phone": "+16173453992", "image_url": "https://s3-media3.fl.yelpcdn.com/bphoto/ROdulDjqoHIohVn0jChC0g/o.jpg"}, {"rating": 3.5, "display_phone": "(617) 451-2229", "price": "$$", "categories": [{"title": "American (New)", "alias": "newamerican"}], "coordinates": {"longitude": -71.065249890089, "latitude": 42.35017798841}, "is_closed": false, "name": "Abby Lane Food & Spirits", "distance": 567.17325884, "review_count": 307, "id": "abby-lane-food-and-spirits-boston", "location": {"display_address": ["255 Tremont St", "Boston, MA 02116"], "state": "MA", "city": "Boston", "address2": "", "country": "US", "zip_code": "02116", "address1": "255 Tremont St", "address3": ""}, "url": "https://www.yelp.com/biz/abby-lane-food-and-spirits-boston?adjust_creative=8_C4NSGbL05eUQksKleGYw&utm_campaign=yelp_api_v3&utm_medium=api_v3_business_search&utm_source=8_C4NSGbL05eUQksKleGYw", "transactions": [], "phone": "+16174512229", "image_url": "https://s3-media2.fl.yelpcdn.com/bphoto/1JIHnpxjNgDp4K6dImDDcQ/o.jpg"}, {"rating": 4.0, "display_phone": "(617) 523-8997", "price": "$", "categories": [{"title": "Dive Bars", "alias": "divebars"}, {"title": "American (New)", "alias": "newamerican"}], "coordinates": {"longitude": -71.0561828613281, "latitude": 42.3656005859375}, "is_closed": false, "name": "Corner Cafe", "distance": 2330.275717932, "review_count": 50, "id": "corner-cafe-boston", "location": {"display_address": ["87 Prince St", "Boston, MA 02113"], "state": "MA", "city": "Boston", "address2": "", "country": "US", "zip_code": "02113", "address1": "87 Prince St", "address3": ""}, "url": "https://www.yelp.com/biz/corner-cafe-boston?adjust_creative=8_C4NSGbL05eUQksKleGYw&utm_campaign=yelp_api_v3&utm_medium=api_v3_business_search&utm_source=8_C4NSGbL05eUQksKleGYw", "transactions": [], "phone": "+16175238997", "image_url": "https://s3-media2.fl.yelpcdn.com/bphoto/JSdMluF73gNsqRTYDsAalA/o.jpg"}, {"rating": 3.5, "display_phone": "(617) 426-8727", "price": "$$", "categories": [{"title": "Ethiopian", "alias": "ethiopian"}], "coordinates": {"longitude": -71.0710641039558, "latitude": 42.3440274039135}, "is_closed": false, "name": "Addis Red Sea", "distance": 424.419570485, "review_count": 542, "id": "addis-red-sea-boston", "location": {"display_address": ["544 Tremont St", "Boston, MA 02116"], "state": "MA", "city": "Boston", "address2": "", "country": "US", "zip_code": "02116", "address1": "544 Tremont St", "address3": ""}, "url": "https://www.yelp.com/biz/addis-red-sea-boston?adjust_creative=8_C4NSGbL05eUQksKleGYw&utm_campaign=yelp_api_v3&utm_medium=api_v3_business_search&utm_source=8_C4NSGbL05eUQksKleGYw", "transactions": [], "phone": "+16174268727", "image_url": "https://s3-media1.fl.yelpcdn.com/bphoto/wXPFb5LFweZNdaKJP3xY4w/o.jpg"}, {"rating": 3.5, "display_phone": "(617) 482-1015", "price": "$$", "categories": [{"title": "Bakeries", "alias": "bakeries"}, {"title": "American (Traditional)", "alias": "tradamerican"}, {"title": "Breakfast & Brunch", "alias": "breakfast_brunch"}], "coordinates": {"longitude": -71.0704467, "latitude": 42.342109}, "is_closed": false, "name": "South End Buttery", "distance": 640.8605922219999, "review_count": 727, "id": "south-end-buttery-boston", "location": {"display_address": ["314 Shawmut Ave", "Boston, MA 02118"], "state": "MA", "city": "Boston", "address2": null, "country": "US", "zip_code": "02118", "address1": "314 Shawmut Ave", "address3": ""}, "url": "https://www.yelp.com/biz/south-end-buttery-boston?adjust_creative=8_C4NSGbL05eUQksKleGYw&utm_campaign=yelp_api_v3&utm_medium=api_v3_business_search&utm_source=8_C4NSGbL05eUQksKleGYw", "transactions": [], "phone": "+16174821015", "image_url": "https://s3-media1.fl.yelpcdn.com/bphoto/lbCGdgUfVedSaioKaO_7_A/o.jpg"}, {"rating": 4.0, "display_phone": "(617) 536-6614", "price": "$", "categories": [{"title": "Grocery", "alias": "grocery"}, {"title": "Beer, Wine & Spirits", "alias": "beer_and_wine"}, {"title": "Delis", "alias": "delis"}], "coordinates": {"longitude": -71.0890994220972, "latitude": 42.3498956859112}, "is_closed": false, "name": "Marlboro Market", "distance": 1483.5043213676, "review_count": 42, "id": "marlboro-market-boston-2", "location": {"display_address": ["45 Massachusetts Ave", "Boston, MA 02115"], "state": "MA", "city": "Boston", "address2": "", "country": "US", "zip_code": "02115", "address1": "45 Massachusetts Ave", "address3": ""}, "url": "https://www.yelp.com/biz/marlboro-market-boston-2?adjust_creative=8_C4NSGbL05eUQksKleGYw&utm_campaign=yelp_api_v3&utm_medium=api_v3_business_search&utm_source=8_C4NSGbL05eUQksKleGYw", "transactions": [], "phone": "+16175366614", "image_url": "https://s3-media3.fl.yelpcdn.com/bphoto/izzo77coPvKa52nFZH1Jxg/o.jpg"}, {"rating": 4.0, "display_phone": "(617) 945-2615", "price": "$", "categories": [{"title": "Vietnamese", "alias": "vietnamese"}, {"title": "Food Trucks", "alias": "foodtrucks"}, {"title": "Asian Fusion", "alias": "asianfusion"}], "coordinates": {"longitude": -71.051518, "latitude": 42.356684}, "is_closed": false, "name": "Bon Me", "distance": 1895.590408988, "review_count": 42, "id": "bon-me-boston-8", "location": {"display_address": ["Purchase St High St", "Boston, MA 02110"], "state": "MA", "city": "Boston", "address2": "", "country": "US", "zip_code": "02110", "address1": "Purchase St High St", "address3": ""}, "url": "https://www.yelp.com/biz/bon-me-boston-8?adjust_creative=8_C4NSGbL05eUQksKleGYw&utm_campaign=yelp_api_v3&utm_medium=api_v3_business_search&utm_source=8_C4NSGbL05eUQksKleGYw", "transactions": [], "phone": "+16179452615", "image_url": "https://s3-media3.fl.yelpcdn.com/bphoto/3U23AxWtGuhycuuDPG6rDw/o.jpg"}, {"rating": 4.0, "display_phone": "(617) 266-4600", "price": "$$", "categories": [{"title": "Bars", "alias": "bars"}, {"title": "American (New)", "alias": "newamerican"}, {"title": "Breakfast & Brunch", "alias": "breakfast_brunch"}], "coordinates": {"longitude": -71.075429, "latitude": 42.342247}, "is_closed": false, "name": "Sister Sorel", "distance": 711.1315864651999, "review_count": 67, "id": "sister-sorel-boston-2", "location": {"display_address": ["647 Tremont St", "Boston, MA 02118"], "state": "MA", "city": "Boston", "address2": null, "country": "US", "zip_code": "02118", "address1": "647 Tremont St", "address3": ""}, "url": "https://www.yelp.com/biz/sister-sorel-boston-2?adjust_creative=8_C4NSGbL05eUQksKleGYw&utm_campaign=yelp_api_v3&utm_medium=api_v3_business_search&utm_source=8_C4NSGbL05eUQksKleGYw", "transactions": [], "phone": "+16172664600", "image_url": "https://s3-media2.fl.yelpcdn.com/bphoto/SGJnoaYarP3hpyhGHGpG2A/o.jpg"}, {"rating": 3.5, "display_phone": "(617) 345-0005", "price": "$$", "categories": [{"title": "Pizza", "alias": "pizza"}, {"title": "Beer Bar", "alias": "beerbar"}, {"title": "Cocktail Bars", "alias": "cocktailbars"}], "coordinates": {"longitude": -71.0488574567263, "latitude": 42.3505763940776}, "is_closed": false, "name": "Pastoral - Artisan Pizza, Kitchen & Bar", "distance": 1864.446461308, "review_count": 305, "id": "pastoral-artisan-pizza-kitchen-and-bar-boston", "location": {"display_address": ["345 Congress St", "Boston, MA 02210"], "state": "MA", "city": "Boston", "address2": "", "country": "US", "zip_code": "02210", "address1": "345 Congress St", "address3": ""}, "url": "https://www.yelp.com/biz/pastoral-artisan-pizza-kitchen-and-bar-boston?adjust_creative=8_C4NSGbL05eUQksKleGYw&utm_campaign=yelp_api_v3&utm_medium=api_v3_business_search&utm_source=8_C4NSGbL05eUQksKleGYw", "transactions": [], "phone": "+16173450005", "image_url": "https://s3-media4.fl.yelpcdn.com/bphoto/TktQvKuu9TjXcLzy69QfIw/o.jpg"}, {"rating": 4.0, "display_phone": "(617) 585-9909", "price": "$$", "categories": [{"title": "Thai", "alias": "thai"}], "coordinates": {"longitude": -71.0969619750977, "latitude": 42.3423309326172}, "is_closed": false, "name": "Thaitation", "distance": 2204.596885576, "review_count": 256, "id": "thaitation-boston", "location": {"display_address": ["129 Jersey St", "Boston, MA 02215"], "state": "MA", "city": "Boston", "address2": "", "country": "US", "zip_code": "02215", "address1": "129 Jersey St", "address3": ""}, "url": "https://www.yelp.com/biz/thaitation-boston?adjust_creative=8_C4NSGbL05eUQksKleGYw&utm_campaign=yelp_api_v3&utm_medium=api_v3_business_search&utm_source=8_C4NSGbL05eUQksKleGYw", "transactions": ["delivery", "pickup"], "phone": "+16175859909", "image_url": "https://s3-media4.fl.yelpcdn.com/bphoto/Qt30mqTRj3ev-ALCJ01ZKw/o.jpg"}, {"rating": 4.0, "display_phone": "(617) 785-3516", "price": "$", "categories": [{"title": "Mexican", "alias": "mexican"}], "coordinates": {"longitude": -71.074943, "latitude": 42.347446}, "is_closed": false, "name": "Cha Cha Cha Taqueria", "distance": 322.7808498348, "review_count": 56, "id": "cha-cha-cha-taqueria-boston-2", "location": {"display_address": ["145 Dartmouth St", "Boston, MA 02116"], "state": "MA", "city": "Boston", "address2": "", "country": "US", "zip_code": "02116", "address1": "145 Dartmouth St", "address3": ""}, "url": "https://www.yelp.com/biz/cha-cha-cha-taqueria-boston-2?adjust_creative=8_C4NSGbL05eUQksKleGYw&utm_campaign=yelp_api_v3&utm_medium=api_v3_business_search&utm_source=8_C4NSGbL05eUQksKleGYw", "transactions": [], "phone": "+16177853516", "image_url": "https://s3-media2.fl.yelpcdn.com/bphoto/NgoVaqczMKfkO8qe5XeFaA/o.jpg"}, {"rating": 3.5, "display_phone": "(617) 536-9200", "price": "$$", "categories": [{"title": "Italian", "alias": "italian"}], "coordinates": {"longitude": -71.0786285, "latitude": 42.3508987}, "is_closed": false, "name": "Papa Razzi", "distance": 696.843737198, "review_count": 418, "id": "papa-razzi-boston", "location": {"display_address": ["159 Newbury Street", "Boston, MA 02116"], "state": "MA", "city": "Boston", "address2": "", "country": "US", "zip_code": "02116", "address1": "159 Newbury Street", "address3": ""}, "url": "https://www.yelp.com/biz/papa-razzi-boston?adjust_creative=8_C4NSGbL05eUQksKleGYw&utm_campaign=yelp_api_v3&utm_medium=api_v3_business_search&utm_source=8_C4NSGbL05eUQksKleGYw", "transactions": ["delivery"], "phone": "+16175369200", "image_url": "https://s3-media3.fl.yelpcdn.com/bphoto/qazZJFqU743CtOqeMnA1-A/o.jpg"}, {"rating": 3.5, "display_phone": "(617) 742-9200", "price": "$$$", "categories": [{"title": "Italian", "alias": "italian"}, {"title": "Wine Bars", "alias": "wine_bars"}, {"title": "Cocktail Bars", "alias": "cocktailbars"}], "coordinates": {"longitude": -71.0550955, "latitude": 42.3631864}, "is_closed": false, "name": "Lucca Restaurant & Bar", "distance": 2161.4633548959996, "review_count": 363, "id": "lucca-restaurant-and-bar-boston", "location": {"display_address": ["226 Hanover St", "Boston, MA 02113"], "state": "MA", "city": "Boston", "address2": "", "country": "US", "zip_code": "02113", "address1": "226 Hanover St", "address3": ""}, "url": "https://www.yelp.com/biz/lucca-restaurant-and-bar-boston?adjust_creative=8_C4NSGbL05eUQksKleGYw&utm_campaign=yelp_api_v3&utm_medium=api_v3_business_search&utm_source=8_C4NSGbL05eUQksKleGYw", "transactions": [], "phone": "+16177429200", "image_url": "https://s3-media4.fl.yelpcdn.com/bphoto/wOzVPYKv75sxC-6NlZCZQQ/o.jpg"}, {"rating": 3.5, "display_phone": "(617) 867-0600", "price": "$$", "categories": [{"title": "French", "alias": "french"}, {"title": "Breakfast & Brunch", "alias": "breakfast_brunch"}, {"title": "Wine Bars", "alias": "wine_bars"}], "coordinates": {"longitude": -71.0785827636719, "latitude": 42.342830657959}, "is_closed": false, "name": "Petit Robert Bistro", "distance": 821.1204159856001, "review_count": 337, "id": "petit-robert-bistro-boston-3", "location": {"display_address": ["480 Columbus Ave", "Boston, MA 02118"], "state": "MA", "city": "Boston", "address2": "", "country": "US", "zip_code": "02118", "address1": "480 Columbus Ave", "address3": ""}, "url": "https://www.yelp.com/biz/petit-robert-bistro-boston-3?adjust_creative=8_C4NSGbL05eUQksKleGYw&utm_campaign=yelp_api_v3&utm_medium=api_v3_business_search&utm_source=8_C4NSGbL05eUQksKleGYw", "transactions": ["delivery"], "phone": "+16178670600", "image_url": "https://s3-media2.fl.yelpcdn.com/bphoto/Na0r6p93_7ZY5aC_SXlhTQ/o.jpg"}, {"rating": 4.0, "display_phone": "(617) 526-0410", "price": "$$$$", "categories": [{"title": "Steakhouses", "alias": "steak"}, {"title": "Seafood", "alias": "seafood"}], "coordinates": {"longitude": -71.0403496026993, "latitude": 42.349116820038}, "is_closed": false, "name": "Morton's The Steakhouse", "distance": 2542.6001284159997, "review_count": 260, "id": "mortons-the-steakhouse-boston-7", "location": {"display_address": ["2 Seaport Ln", "Boston, MA 02210"], "state": "MA", "city": "Boston", "address2": "", "country": "US", "zip_code": "02210", "address1": "2 Seaport Ln", "address3": ""}, "url": "https://www.yelp.com/biz/mortons-the-steakhouse-boston-7?adjust_creative=8_C4NSGbL05eUQksKleGYw&utm_campaign=yelp_api_v3&utm_medium=api_v3_business_search&utm_source=8_C4NSGbL05eUQksKleGYw", "transactions": [], "phone": "+16175260410", "image_url": "https://s3-media2.fl.yelpcdn.com/bphoto/YyMckZfV-nUHh6pKyPtViA/o.jpg"}, {"rating": 4.0, "display_phone": "(617) 523-9503", "price": "$$", "categories": [{"title": "Italian", "alias": "italian"}, {"title": "Seafood", "alias": "seafood"}, {"title": "Beer Bar", "alias": "beerbar"}], "coordinates": {"longitude": -71.05255, "latitude": 42.36468}, "is_closed": false, "name": "La Summa", "distance": 2416.11662606, "review_count": 246, "id": "la-summa-boston", "location": {"display_address": ["30 Fleet St", "Boston, MA 02113"], "state": "MA", "city": "Boston", "address2": "", "country": "US", "zip_code": "02113", "address1": "30 Fleet St", "address3": ""}, "url": "https://www.yelp.com/biz/la-summa-boston?adjust_creative=8_C4NSGbL05eUQksKleGYw&utm_campaign=yelp_api_v3&utm_medium=api_v3_business_search&utm_source=8_C4NSGbL05eUQksKleGYw", "transactions": [], "phone": "+16175239503", "image_url": "https://s3-media3.fl.yelpcdn.com/bphoto/9PAdgseBKoSn9SEfaXtl6Q/o.jpg"}, {"rating": 4.0, "display_phone": "(857) 250-4959", "price": "$$", "categories": [{"title": "Food Trucks", "alias": "foodtrucks"}, {"title": "Asian Fusion", "alias": "asianfusion"}, {"title": "Chinese", "alias": "chinese"}], "coordinates": {"longitude": -71.1062359253643, "latitude": 42.3474142084205}, "is_closed": false, "name": "Mei Mei Restaurant", "distance": 2876.397683034, "review_count": 166, "id": "mei-mei-restaurant-boston", "location": {"display_address": ["506 Park Dr", "Boston, MA 02215"], "state": "MA", "city": "Boston", "address2": "", "country": "US", "zip_code": "02215", "address1": "506 Park Dr", "address3": ""}, "url": "https://www.yelp.com/biz/mei-mei-restaurant-boston?adjust_creative=8_C4NSGbL05eUQksKleGYw&utm_campaign=yelp_api_v3&utm_medium=api_v3_business_search&utm_source=8_C4NSGbL05eUQksKleGYw", "transactions": [], "phone": "+18572504959", "image_url": "https://s3-media3.fl.yelpcdn.com/bphoto/29p-KgOUhwCnX8J13Ms0sg/o.jpg"}, {"rating": 3.5, "display_phone": "(617) 772-0202", "price": "$$", "categories": [{"title": "Cocktail Bars", "alias": "cocktailbars"}], "coordinates": {"longitude": -71.0608754, "latitude": 42.3573824}, "is_closed": false, "name": "Highball Lounge", "distance": 1360.6433789779999, "review_count": 187, "id": "highball-lounge-boston", "location": {"display_address": ["90 Tremont St", "Fl 2", "Boston, MA 02108"], "state": "MA", "city": "Boston", "address2": "Fl 2", "country": "US", "zip_code": "02108", "address1": "90 Tremont St", "address3": ""}, "url": "https://www.yelp.com/biz/highball-lounge-boston?adjust_creative=8_C4NSGbL05eUQksKleGYw&utm_campaign=yelp_api_v3&utm_medium=api_v3_business_search&utm_source=8_C4NSGbL05eUQksKleGYw", "transactions": [], "phone": "+16177720202", "image_url": "https://s3-media1.fl.yelpcdn.com/bphoto/3hOjz0no2AxivEanJ-wrlw/o.jpg"}, {"rating": 4.0, "display_phone": "(617) 482-1006", "price": "$", "categories": [{"title": "American (Traditional)", "alias": "tradamerican"}, {"title": "Breakfast & Brunch", "alias": "breakfast_brunch"}, {"title": "Sandwiches", "alias": "sandwiches"}], "coordinates": {"longitude": -71.0565126, "latitude": 42.3550833}, "is_closed": false, "name": "Cafe de Boston - Eatery & Catering", "distance": 1453.8980980576, "review_count": 147, "id": "cafe-de-boston-eatery-and-catering-boston-4", "location": {"display_address": ["75 Federal St", "Boston, MA 02110"], "state": "MA", "city": "Boston", "address2": "", "country": "US", "zip_code": "02110", "address1": "75 Federal St", "address3": ""}, "url": "https://www.yelp.com/biz/cafe-de-boston-eatery-and-catering-boston-4?adjust_creative=8_C4NSGbL05eUQksKleGYw&utm_campaign=yelp_api_v3&utm_medium=api_v3_business_search&utm_source=8_C4NSGbL05eUQksKleGYw", "transactions": ["delivery", "pickup"], "phone": "+16174821006", "image_url": "https://s3-media3.fl.yelpcdn.com/bphoto/Jmx4PpIkUFoYuc2aA-cdkw/o.jpg"}, {"rating": 4.0, "display_phone": "(617) 232-9992", "price": "$", "categories": [{"title": "Thai", "alias": "thai"}], "coordinates": {"longitude": -71.1070277453648, "latitude": 42.3498264818139}, "is_closed": false, "name": "Nud Pob Thai Cuisine", "distance": 2948.789980518, "review_count": 250, "id": "nud-pob-thai-cuisine-boston", "location": {"display_address": ["738 Commonwealth Ave", "Boston, MA 02215"], "state": "MA", "city": "Boston", "address2": "", "country": "US", "zip_code": "02215", "address1": "738 Commonwealth Ave", "address3": ""}, "url": "https://www.yelp.com/biz/nud-pob-thai-cuisine-boston?adjust_creative=8_C4NSGbL05eUQksKleGYw&utm_campaign=yelp_api_v3&utm_medium=api_v3_business_search&utm_source=8_C4NSGbL05eUQksKleGYw", "transactions": ["delivery", "pickup"], "phone": "+16172329992", "image_url": "https://s3-media4.fl.yelpcdn.com/bphoto/yRFILpH5LQrtOTQBTDPscw/o.jpg"}, {"rating": 3.5, "display_phone": "(617) 451-1234", "price": "$$$", "categories": [{"title": "American (New)", "alias": "newamerican"}], "coordinates": {"longitude": -71.053072, "latitude": 42.353533}, "is_closed": false, "name": "Trade", "distance": 1621.9807219639997, "review_count": 438, "id": "trade-boston", "location": {"display_address": ["540 Atlantic Ave", "Boston, MA 02110"], "state": "MA", "city": "Boston", "address2": "", "country": "US", "zip_code": "02110", "address1": "540 Atlantic Ave", "address3": ""}, "url": "https://www.yelp.com/biz/trade-boston?adjust_creative=8_C4NSGbL05eUQksKleGYw&utm_campaign=yelp_api_v3&utm_medium=api_v3_business_search&utm_source=8_C4NSGbL05eUQksKleGYw", "transactions": [], "phone": "+16174511234", "image_url": "https://s3-media4.fl.yelpcdn.com/bphoto/7wd-rhTharObgmLOviiCiw/o.jpg"}, {"rating": 5.0, "display_phone": "(339) 224-4404", "price": "$", "categories": [{"title": "Vietnamese", "alias": "vietnamese"}, {"title": "Food Trucks", "alias": "foodtrucks"}], "coordinates": {"longitude": -71.0547743438, "latitude": 42.3561009969}, "is_closed": false, "name": "Saigon Alley", "distance": 1635.7016329360001, "review_count": 15, "id": "saigon-alley-boston", "location": {"display_address": ["Boston, MA 02116"], "state": "MA", "city": "Boston", "address2": "", "country": "US", "zip_code": "02116", "address1": "", "address3": ""}, "url": "https://www.yelp.com/biz/saigon-alley-boston?adjust_creative=8_C4NSGbL05eUQksKleGYw&utm_campaign=yelp_api_v3&utm_medium=api_v3_business_search&utm_source=8_C4NSGbL05eUQksKleGYw", "transactions": [], "phone": "+13392244404", "image_url": "https://s3-media4.fl.yelpcdn.com/bphoto/lziS7uNjflDYFIXBe34uNw/o.jpg"}, {"rating": 4.5, "display_phone": "(617) 903-3638", "price": "$$", "categories": [{"title": "American (New)", "alias": "newamerican"}, {"title": "Gastropubs", "alias": "gastropubs"}, {"title": "Wine Bars", "alias": "wine_bars"}], "coordinates": {"longitude": -71.134942010915, "latitude": 42.3494633823329}, "is_closed": false, "name": "The Glenville Stops", "distance": 5237.761504548, "review_count": 201, "id": "the-glenville-stops-boston", "location": {"display_address": ["87 Glenville Ave", "Boston, MA 02134"], "state": "MA", "city": "Boston", "address2": "", "country": "US", "zip_code": "02134", "address1": "87 Glenville Ave", "address3": ""}, "url": "https://www.yelp.com/biz/the-glenville-stops-boston?adjust_creative=8_C4NSGbL05eUQksKleGYw&utm_campaign=yelp_api_v3&utm_medium=api_v3_business_search&utm_source=8_C4NSGbL05eUQksKleGYw", "transactions": [], "phone": "+16179033638", "image_url": "https://s3-media3.fl.yelpcdn.com/bphoto/XLu6hpJRjS4hdvcWqKaRhQ/o.jpg"}, {"rating": 4.0, "display_phone": "(617) 367-6500", "price": "$$$", "categories": [{"title": "Japanese", "alias": "japanese"}, {"title": "Sushi Bars", "alias": "sushi"}, {"title": "Asian Fusion", "alias": "asianfusion"}], "coordinates": {"longitude": -71.0559069509264, "latitude": 42.3636849645937}, "is_closed": false, "name": "Crudo", "distance": 2165.8819588, "review_count": 113, "id": "crudo-boston", "location": {"display_address": ["78 Salem St", "Boston, MA 02113"], "state": "MA", "city": "Boston", "address2": "", "country": "US", "zip_code": "02113", "address1": "78 Salem St", "address3": ""}, "url": "https://www.yelp.com/biz/crudo-boston?adjust_creative=8_C4NSGbL05eUQksKleGYw&utm_campaign=yelp_api_v3&utm_medium=api_v3_business_search&utm_source=8_C4NSGbL05eUQksKleGYw", "transactions": [], "phone": "+16173676500", "image_url": "https://s3-media3.fl.yelpcdn.com/bphoto/uPSP8NjwNzVKKdUZ-Tocgw/o.jpg"}, {"rating": 4.0, "display_phone": "(617) 742-1768", "price": "$$", "categories": [{"title": "Desserts", "alias": "desserts"}, {"title": "Coffee & Tea", "alias": "coffee"}, {"title": "Cocktail Bars", "alias": "cocktailbars"}], "coordinates": {"longitude": -71.0548, "latitude": 42.36322}, "is_closed": false, "name": "Caffe Paradiso", "distance": 2179.953384024, "review_count": 155, "id": "caffe-paradiso-boston", "location": {"display_address": ["255 Hanover St", "Boston, MA 02113"], "state": "MA", "city": "Boston", "address2": "", "country": "US", "zip_code": "02113", "address1": "255 Hanover St", "address3": ""}, "url": "https://www.yelp.com/biz/caffe-paradiso-boston?adjust_creative=8_C4NSGbL05eUQksKleGYw&utm_campaign=yelp_api_v3&utm_medium=api_v3_business_search&utm_source=8_C4NSGbL05eUQksKleGYw", "transactions": [], "phone": "+16177421768", "image_url": "https://s3-media1.fl.yelpcdn.com/bphoto/a8EZjU8RaAQYmdzM6zwbAA/o.jpg"}, {"rating": 4.5, "display_phone": "(617) 242-5601", "categories": [{"title": "Parks", "alias": "parks"}], "coordinates": {"longitude": -71.0562391217041, "latitude": 42.3600406170855}, "is_closed": false, "name": "Boston National Historical Park", "distance": 1832.939768392, "review_count": 15, "id": "boston-national-historical-park-boston", "location": {"display_address": ["Charlestown Navy Yard", "Boston, MA 02455"], "state": "MA", "city": "Boston", "address2": null, "country": "US", "zip_code": "02455", "address1": "Charlestown Navy Yard", "address3": ""}, "url": "https://www.yelp.com/biz/boston-national-historical-park-boston?adjust_creative=8_C4NSGbL05eUQksKleGYw&utm_campaign=yelp_api_v3&utm_medium=api_v3_business_search&utm_source=8_C4NSGbL05eUQksKleGYw", "transactions": [], "phone": "+16172425601", "image_url": "https://s3-media3.fl.yelpcdn.com/bphoto/_F4ijFc8i_8SrmqRnPIOTw/o.jpg"}, {"rating": 4.0, "display_phone": "(617) 319-4392", "price": "$", "categories": [{"title": "Indian", "alias": "indpak"}, {"title": "Halal", "alias": "halal"}], "coordinates": {"longitude": -71.0574984, "latitude": 42.3558752}, "is_closed": false, "name": "D'Guru Restaurant", "distance": 1432.225534706, "review_count": 110, "id": "d-guru-restaurant-boston", "location": {"display_address": ["187 Devonshire St", "Boston, MA 02110"], "state": "MA", "city": "Boston", "address2": "", "country": "US", "zip_code": "02110", "address1": "187 Devonshire St", "address3": ""}, "url": "https://www.yelp.com/biz/d-guru-restaurant-boston?adjust_creative=8_C4NSGbL05eUQksKleGYw&utm_campaign=yelp_api_v3&utm_medium=api_v3_business_search&utm_source=8_C4NSGbL05eUQksKleGYw", "transactions": [], "phone": "+16173194392", "image_url": "https://s3-media3.fl.yelpcdn.com/bphoto/x2rx_IUgEOWkHXnndn0qJg/o.jpg"}, {"rating": 3.5, "display_phone": "(617) 482-7467", "price": "$", "categories": [{"title": "Vietnamese", "alias": "vietnamese"}], "coordinates": {"longitude": -71.0627084970474, "latitude": 42.3514122780359}, "is_closed": false, "name": "Pho Pasteur", "distance": 806.1297679403999, "review_count": 943, "id": "pho-pasteur-boston", "location": {"display_address": ["682 Washington St", "Boston, MA 02111"], "state": "MA", "city": "Boston", "address2": "", "country": "US", "zip_code": "02111", "address1": "682 Washington St", "address3": ""}, "url": "https://www.yelp.com/biz/pho-pasteur-boston?adjust_creative=8_C4NSGbL05eUQksKleGYw&utm_campaign=yelp_api_v3&utm_medium=api_v3_business_search&utm_source=8_C4NSGbL05eUQksKleGYw", "transactions": ["delivery"], "phone": "+16174827467", "image_url": "https://s3-media1.fl.yelpcdn.com/bphoto/U1PgH8uoa4aqFC4DHV93jA/o.jpg"}, {"rating": 3.5, "display_phone": "(617) 532-3827", "price": "$$", "categories": [{"title": "Bars", "alias": "bars"}, {"title": "American (Traditional)", "alias": "tradamerican"}], "coordinates": {"longitude": -71.0723568, "latitude": 42.3493362}, "is_closed": false, "name": "Precinct Kitchen + Bar", "distance": 189.4370368334, "review_count": 157, "id": "precinct-kitchen-bar-boston", "location": {"display_address": ["154 Berkeley St", "Boston, MA 02116"], "state": "MA", "city": "Boston", "address2": "", "country": "US", "zip_code": "02116", "address1": "154 Berkeley St", "address3": ""}, "url": "https://www.yelp.com/biz/precinct-kitchen-bar-boston?adjust_creative=8_C4NSGbL05eUQksKleGYw&utm_campaign=yelp_api_v3&utm_medium=api_v3_business_search&utm_source=8_C4NSGbL05eUQksKleGYw", "transactions": [], "phone": "+16175323827", "image_url": "https://s3-media3.fl.yelpcdn.com/bphoto/H4Vac5szSUV_wflPnWVwuw/o.jpg"}, {"rating": 4.0, "display_phone": "(617) 695-9888", "price": "$", "categories": [{"title": "Chinese", "alias": "chinese"}], "coordinates": {"longitude": -71.0626823455095, "latitude": 42.3475601524115}, "is_closed": false, "name": "Chinatown Cafe", "distance": 712.8222946955999, "review_count": 120, "id": "chinatown-cafe-boston", "location": {"display_address": ["262 Harrison Ave", "Boston, MA 02111"], "state": "MA", "city": "Boston", "address2": "", "country": "US", "zip_code": "02111", "address1": "262 Harrison Ave", "address3": ""}, "url": "https://www.yelp.com/biz/chinatown-cafe-boston?adjust_creative=8_C4NSGbL05eUQksKleGYw&utm_campaign=yelp_api_v3&utm_medium=api_v3_business_search&utm_source=8_C4NSGbL05eUQksKleGYw", "transactions": [], "phone": "+16176959888", "image_url": "https://s3-media3.fl.yelpcdn.com/bphoto/9h2Blp3TMnm4ypKWao-btg/o.jpg"}], "total": 24769}