{"region": {"center": {"longitude": -71.07124328613281, "latitude": 42.34784169448538}}, "businesses": [{"rating": 3.5, "display_phone": "(617) 345-0005", "price": "$$", "categories": [{"title": "Pizza", "alias": "pizza"}, {"title": "Beer Bar", "alias": "beerbar"}, {"title": "Cocktail Bars", "alias": "cocktailbars"}], "coordinates": {"longitude": -71.0488574567263, "latitude": 42.3505763940776}, "is_closed": false, "name": "Pastoral - Artisan Pizza, Kitchen & Bar", "distance": 1864.446461308, "review_count": 305, "id": "pastoral-artisan-pizza-kitchen-and-bar-boston", "location": {"display_address": ["345 Congress St", "Boston, MA 02210"], "state": "MA", "city": "Boston", "address2": "", "country": "US", "zip_code": "02210", "address1": "345 Congress St", "address3": ""}, "url": "https://www.yelp.com/biz/pastoral-artisan-pizza-kitchen-and-bar-boston?adjust_creative=8_C4NSGbL05eUQksKleGYw&utm_campaign=yelp_api_v3&utm_medium=api_v3_business_search&utm_source=8_C4NSGbL05eUQksKleGYw", "transactions": [], "phone": "+16173450005", "image_url": "https://s3-media4.fl.yelpcdn.com/bphoto/TktQvKuu9TjXcLzy69QfIw/o.jpg"}, {"rating": 4.0, "display_phone": "(617) 585-9909", "price": "$$", "categories": [{"title": "Thai", "alias": "thai"}], "coordinates": {"longitude": -71.0969619750977, "latitude": 42.3423309326172}, "is_closed": false, "name": "Thaitation", "distance": 2204.596885576, "review_count": 256, "id": "thaitation-boston", "location": {"display_address": ["129 Jersey St", "Boston, MA 02215"], "state": "MA", "city": "Boston", "address2": "", "country": "US", "zip_code": "02215", "address1": "129 Jersey St", "address3": ""}, "url": "https://www.yelp.com/biz/thaitation-boston?adjust_creative=8_C4NSGbL05eUQksKleGYw&utm_campaign=yelp_api_v3&utm_medium=api_v3_business_search&utm_source=8_C4NSGbL05eUQksKleGYw", "transactions": ["delivery", "pickup"], "phone": "+16175859909", "image_url": "https://s3-media4.fl.yelpcdn.com/bphoto/Qt30mqTRj3ev-ALCJ01ZKw/o.jpg"}, {"rating": 4.0, "display_phone": "(617) 785-3516", "price": "$", "categories": [{"title": "Mexican", "alias": "mexican"}], "coordinates": {"longitude": -71.074943, "latitude": 42.347446}, "is_closed": false, "name": "Cha Cha Cha Taqueria", "distance": 322.7808498348, "review_count": 56, "id": "cha-cha-cha-taqueria-boston-2", "location": {"display_address": ["145 Dartmouth St", "Boston, MA 02116"], "state": "MA", "city": "Boston", "address2": "", "country": "US", "zip_code": "02116", "address1": "145 Dartmouth St", "address3": ""}, "url": "https://www.yelp.com/biz/cha-cha-cha-taqueria-boston-2?adjust_creative=8_C4NSGbL05eUQksKleGYw&utm_campaign=yelp_api_v3&utm_medium=api_v3_business_search&utm_source=8_C4NSGbL05eUQksKleGYw", "transactions": [], "phone": "+16177853516", "image_url": "https://s3-media2.fl.yelpcdn.com/bphoto/NgoVaqczMKfkO8qe5XeFaA/o.jpg"}, {"rating": 3.5, "display_phone": "(617) 536-9200", "price": "$$", "categories": [{"title": "Italian", "alias": "italian"}], "coordinates": {"longitude": -71.0786285, "latitude": 42.3508987}, "is_closed": false, "name": "Papa Razzi", "distance": 696.843737198, "review_count": 418, "id": "papa-razzi-boston", "location": {"display_address": ["159 Newbury Street", "Boston, MA 02116"], "state": "MA", "city": "Boston", "address2": "", "country": "US", "zip_code": "02116", "address1": "159 Newbury Street", "address3": ""}, "url": "https://www.yelp.com/biz/papa-razzi-boston?adjust_creative=8_C4NSGbL05eUQksKleGYw&utm_campaign=yelp_api_v3&utm_medium=api_v3_business_search&utm_source=8_C4NSGbL05eUQksKleGYw", "transactions": ["delivery"], "phone": "+16175369200", "image_url": "https://s3-media3.fl.yelpcdn.com/bphoto/qazZJFqU743CtOqeMnA1-A/o.jpg"}, {"rating": 3.5, "display_phone": "(617) 742-9200", "price": "$$$", "categories": [{"title": "Italian", "alias": "italian"}, {"title": "Wine Bars", "alias": "wine_bars"}, {"title": "Cocktail Bars", "alias": "cocktailbars"}], "coordinates": {"longitude": -71.0550955, "latitude": 42.3631864}, "is_closed": false, "name": "Lucca Restaurant & Bar", "distance": 2161.4633548959996, "review_count": 363, "id": "lucca-restaurant-and-bar-boston", "location": {"display_address": ["226 Hanover St", "Boston, MA 02113"], "state": "MA", "city": "Boston", "address2": "", "country": "US", "zip_code": "02113", "address1": "226 Hanover St", "address3": ""}, "url": "https://www.yelp.com/biz/lucca-restaurant-and-bar-boston?adjust_creative=8_C4NSGbL05eUQksKleGYw&utm_campaign=yelp_api_v3&utm_medium=api_v3_business_search&utm_source=8_C4NSGbL05eUQksKleGYw", "transactions": [], "phone": "+16177429200", "image_url": "https://s3-media4.fl.yelpcdn.com/bphoto/wOzVPYKv75sxC-6NlZCZQQ/o.jpg"}, {"rating": 3.5, "display_phone": "(617) 867-0600", "price": "$$", "categories": [{"title": "French", "alias": "french"}, {"title": "Breakfast & Brunch", "alias": "breakfast_brunch"}, {"title": "Wine Bars", "alias": "wine_bars"}], "coordinates": {"longitude": -71.0785827636719, "latitude": 42.342830657959}, "is_closed": false, "name": "Petit Robert Bistro", "distance": 821.1204159856001, "review_count": 337, "id": "petit-robert-bistro-boston-3", "location": {"display_address": ["480 Columbus Ave", "Boston, MA 02118"], "state": "MA", "city": "Boston", "address2": "", "country": "US", "zip_code": "02118", "address1": "480 Columbus Ave", "address3": ""}, "url": "https://www.yelp.com/biz/petit-robert-bistro-boston-3?adjust_creative=8_C4NSGbL05eUQksKleGYw&utm_campaign=yelp_api_v3&utm_medium=api_v3_business_search&utm_source=8_C4NSGbL05eUQksKleGYw", "transactions": ["delivery"], "phone": "+16178670600", "image_url": "https://s3-media2.fl.yelpcdn.com/bphoto/Na0r6p93_7ZY5aC_SXlhTQ/o.jpg"}, {"rating": 4.0, "display_phone": "(617) 526-0410", "price": "$$$$", "categories": [{"title": "Steakhouses", "alias": "steak"}, {"title": "Seafood", "alias": "seafood"}], "coordinates": {"longitude": -71.0403496026993, "latitude": 42.349116820038}, "is_closed": false, "name": "Morton's The Steakhouse", "distance": 2542.6001284159997, "review_count": 260, "id": "mortons-the-steakhouse-boston-7", "location": {"display_address": ["2 Seaport Ln", "Boston, MA 02210"], "state": "MA", "city": "Boston", "address2": "", "country": "US", "zip_code": "02210", "address1": "2 Seaport Ln", "address3": ""}, "url": "https://www.yelp.com/biz/mortons-the-steakhouse-boston-7?adjust_creative=8_C4NSGbL05eUQksKleGYw&utm_campaign=yelp_api_v3&utm_medium=api_v3_business_search&utm_source=8_C4NSGbL05eUQksKleGYw", "transactions": [], "phone": "+16175260410", "image_url": "https://s3-media2.fl.yelpcdn.com/bphoto/YyMckZfV-nUHh6pKyPtViA/o.jpg"}, {"rating": 4.0, "display_phone": "(617) 523-9503", "price": "$$", "categories": [{"title": "Italian", "alias": "italian"}, {"title": "Seafood", "alias": "seafood"}, {"title": "Beer Bar", "alias": "beerbar"}], "coordinates": {"longitude": -71.05255, "latitude": 42.36468}, "is_closed": false, "name": "La Summa", "distance": 2416.11662606, "review_count": 246, "id": "la-summa-boston", "location": {"display_address": ["30 Fleet St", "Boston, MA 02113"], "state": "MA", "city": "Boston", "address2": "", "country": "US", "zip_code": "02113", "address1": "30 Fleet St", "address3": ""}, "url": "https://www.yelp.com/biz/la-summa-boston?adjust_creative=8_C4NSGbL05eUQksKleGYw&utm_campaign=yelp_api_v3&utm_medium=api_v3_business_search&utm_source=8_C4NSGbL05eUQksKleGYw", "transactions": [], "phone": "+16175239503", "image_url": "https://s3-media3.fl.yelpcdn.com/bphoto/9PAdgseBKoSn9SEfaXtl6Q/o.jpg"}, {"rating": 4.0, "display_phone": "(857) 250-4959", "price": "$$", "categories": [{"title": "Food Trucks", "alias": "foodtrucks"}, {"title": "Asian Fusion", "alias": "asianfusion"}, {"title": "Chinese", "alias": "chinese"}], "coordinates": {"longitude": -71.1062359253643, "latitude": 42.3474142084205}, "is_closed": false, "name": "Mei Mei Restaurant", "distance": 2876.397683034, "review_count": 166, "id": "mei-mei-restaurant-boston", "location": {"display_address": ["506 Park Dr", "Boston, MA 02215"], "state": "MA", "city": "Boston", "address2": "", "country": "US", "zip_code": "02215", "address1": "506 Park Dr", "address3": ""}, "url": "https://www.yelp.com/biz/mei-mei-restaurant-boston?adjust_creative=8_C4NSGbL05eUQksKleGYw&utm_campaign=yelp_api_v3&utm_medium=api_v3_business_search&utm_source=8_C4NSGbL05eUQksKleGYw", "transactions": [], "phone": "+18572504959", "image_url": "https://s3-media3.fl.yelpcdn.com/bphoto/29p-KgOUhwCnX8J13Ms0sg/o.jpg"}, {"rating": 3.5, "display_phone": "(617) 772-0202", "price": "$$", "categories": [{"title": "Cocktail Bars", "alias": "cocktailbars"}], "coordinates": {"longitude": -71.0608754, "latitude": 42.3573824}, "is_closed": false, "name": "Highball Lounge", "distance": 1360.6433789779999, "review_count": 187, "id": "highball-lounge-boston", "location": {"display_address": ["90 Tremont St", "Fl 2", "Boston, MA 02108"], "state": "MA", "city": "Boston", "address2": "Fl 2", "country": "US", "zip_code": "02108", "address1": "90 Tremont St", "address3": ""}, "url": "https://www.yelp.com/biz/highball-lounge-boston?adjust_creative=8_C4NSGbL05eUQksKleGYw&utm_campaign=yelp_api_v3&utm_medium=api_v3_business_search&utm_source=8_C4NSGbL05eUQksKleGYw", "transactions": [], "phone": "+16177720202", "image_url": "https://s3-media1.fl.yelpcdn.com/bphoto/3hOjz0no2AxivEanJ-wrlw/o.jpg"}, {"rating": 4.0, "display_phone": "(617) 482-1006", "price": "$", "categories": [{"title": "American (Traditional)", "alias": "tradamerican"}, {"title": "Breakfast & Brunch", "alias": "breakfast_brunch"}, {"title": "Sandwiches", "alias": "sandwiches"}], "coordinates": {"longitude": -71.0565126, "latitude": 42.3550833}, "is_closed": false, "name": "Cafe de Boston - Eatery & Catering", "distance": 1453.8980980576, "review_count": 147, "id": "cafe-de-boston-eatery-and-catering-boston-4", "location": {"display_address": ["75 Federal St", "Boston, MA 02110"], "state": "MA", "city": "Boston", "address2": "", "country": "US", "zip_code": "02110", "address1": "75 Federal St", "address3": ""}, "url": "https://www.yelp.com/biz/cafe-de-boston-eatery-and-catering-boston-4?adjust_creative=8_C4NSGbL05eUQksKleGYw&utm_campaign=yelp_api_v3&utm_medium=api_v3_business_search&utm_source=8_C4NSGbL05eUQksKleGYw", "transactions": ["delivery", "pickup"], "phone": "+16174821006", "image_url": "https://s3-media3.fl.yelpcdn.com/bphoto/Jmx4PpIkUFoYuc2aA-cdkw/o.jpg"}, {"rating": 4.0, "display_phone": "(617) 232-9992", "price": "$", "categories": [{"title": "Thai", "alias": "thai"}], "coordinates": {"longitude": -71.1070277453648, "latitude": 42.3498264818139}, "is_closed": false, "name": "Nud Pob Thai Cuisine", "distance": 2948.789980518, "review_count": 250, "id": "nud-pob-thai-cuisine-boston", "location": {"display_address": ["738 Commonwealth Ave", "Boston, MA 02215"], "state": "MA", "city": "Boston", "address2": "", "country": "US", "zip_code": "02215", "address1": "738 Commonwealth Ave", "address3": ""}, "url": "https://www.yelp.com/biz/nud-pob-thai-cuisine-boston?adjust_creative=8_C4NSGbL05eUQksKleGYw&utm_campaign=yelp_api_v3&utm_medium=api_v3_business_search&utm_source=8_C4NSGbL05eUQksKleGYw", "transactions": ["delivery", "pickup"], "phone": "+16172329992", "image_url": "https://s3-media4.fl.yelpcdn.com/bphoto/yRFILpH5LQrtOTQBTDPscw/o.jpg"}, {"rating": 3.5, "display_phone": "(617) 451-1234", "price": "$$$", "categories": [{"title": "American (New)", "alias": "newamerican"}], "coordinates": {"longitude": -71.053072, "latitude": 42.353533}, "is_closed": false, "name": "Trade", "distance": 1621.9807219639997, "review_count": 438, "id": "trade-boston", "location": {"display_address": ["540 Atlantic Ave", "Boston, MA 02110"], "state": "MA", "city": "Boston", "address2": "", "country": "US", "zip_code": "02110", "address1": "540 Atlantic Ave", "address3": ""}, "url": "https://www.yelp.com/biz/trade-boston?adjust_creative=8_C4NSGbL05eUQksKleGYw&utm_campaign=yelp_api_v3&utm_medium=api_v3_business_search&utm_source=8_C4NSGbL05eUQksKleGYw", "transactions": [], "phone": "+16174511234", "image_url": "https://s3-media4.fl.yelpcdn.com/bphoto/7wd-rhTharObgmLOviiCiw/o.jpg"}, {"rating": 5.0, "display_phone": "(339) 224-4404", "price": "$", "categories": [{"title": "Vietnamese", "alias": "vietnamese"}, {"title": "Food Trucks", "alias": "foodtrucks"}], "coordinates": {"longitude": -71.0547743438, "latitude": 42.3561009969}, "is_closed": false, "name": "Saigon Alley", "distance": 1635.7016329360001, "review_count": 15, "id": "saigon-alley-boston", "location": {"display_address": ["Boston, MA 02116"], "state": "MA", "city": "Boston", "address2": "", "country": "US", "zip_code": "02116", "address1": "", "address3": ""}, "url": "https://www.yelp.com/biz/saigon-alley-boston?adjust_creative=8_C4NSGbL05eUQksKleGYw&utm_campaign=yelp_api_v3&utm_medium=api_v3_business_search&utm_source=8_C4NSGbL05eUQksKleGYw", "transactions": [], "phone": "+13392244404", "image_url": "https://s3-media4.fl.yelpcdn.com/bphoto/lziS7uNjflDYFIXBe34uNw/o.jpg"}, {"rating": 4.5, "display_phone": "(617) 903-3638", "price": "$$", "categories": [{"title": "American (New)", "alias": "newamerican"}, {"title": "Gastropubs", "alias": "gastropubs"}, {"title": "Wine Bars", "alias": "wine_bars"}], "coordinates": {"longitude": -71.134942010915, "latitude": 42.3494633823329}, "is_closed": false, "name": "The Glenville Stops", "distance": 5237.761504548, "review_count": 201, "id": "the-glenville-stops-boston", "location": {"display_address": ["87 Glenville Ave", "Boston, MA 02134"], "state": "MA", "city": "Boston", "address2": "", "country": "US", "zip_code": "02134", "address1": "87 Glenville Ave", "address3": ""}, "url": "https://www.yelp.com/biz/the-glenville-stops-boston?adjust_creative=8_C4NSGbL05eUQksKleGYw&utm_campaign=yelp_api_v3&utm_medium=api_v3_business_search&utm_source=8_C4NSGbL05eUQksKleGYw", "transactions": [], "phone": "+16179033638", "image_url": "https://s3-media3.fl.yelpcdn.com/bphoto/XLu6hpJRjS4hdvcWqKaRhQ/o.jpg"}, {"rating": 4.0, "display_phone": "(617) 367-6500", "price": "$$$", "categories": [{"title": "Japanese", "alias": "japanese"}, {"title": "Sushi Bars", "alias": "sushi"}, {"title": "Asian Fusion", "alias": "asianfusion"}], "coordinates": {"longitude": -71.0559069509264, "latitude": 42.3636849645937}, "is_closed": false, "name": "Crudo", "distance": 2165.8819588, "review_count": 113, "id": "crudo-boston", "location": {"display_address": ["78 Salem St", "Boston, MA 02113"], "state": "MA", "city": "Boston", "address2": "", "country": "US", "zip_code": "02113", "address1": "78 Salem St", "address3": ""}, "url": "https://www.yelp.com/biz/crudo-boston?adjust_creative=8_C4NSGbL05eUQksKleGYw&utm_campaign=yelp_api_v3&utm_medium=api_v3_business_search&utm_source=8_C4NSGbL05eUQksKleGYw", "transactions": [], "phone": "+16173676500", "image_url": "https://s3-media3.fl.yelpcdn.com/bphoto/uPSP8NjwNzVKKdUZ-Tocgw/o.jpg"}, {"rating": 4.0, "display_phone": "(617) 742-1768", "price": "$$", "categories": [{"title": "Desserts", "alias": "desserts"}, {"title": "Coffee & Tea", "alias": "coffee"}, {"title": "Cocktail Bars", "alias": "cocktailbars"}], "coordinates": {"longitude": -71.0548, "latitude": 42.36322}, "is_closed": false, "name": "Caffe Paradiso", "distance": 2179.953384024, "review_count": 155, "id": "caffe-paradiso-boston", "location": {"display_address": ["255 Hanover St", "Boston, MA 02113"], "state": "MA", "city": "Boston", "address2": "", "country": "US", "zip_code": "02113", "address1": "255 Hanover St", "address3": ""}, "url": "https://www.yelp.com/biz/caffe-paradiso-boston?adjust_creative=8_C4NSGbL05eUQksKleGYw&utm_campaign=yelp_api_v3&utm_medium=api_v3_business_search&utm_source=8_C4NSGbL05eUQksKleGYw", "transactions": [], "phone": "+16177421768", "image_url": "https://s3-media1.fl.yelpcdn.com/bphoto/a8EZjU8RaAQYmdzM6zwbAA/o.jpg"}, {"rating": 4.5, "display_phone": "(617) 242-5601", "categories": [{"title": "Parks", "alias": "parks"}], "coordinates": {"longitude": -71.0562391217041, "latitude": 42.3600406170855}, "is_closed": false, "name": "Boston National Historical Park", "distance": 1832.939768392, "review_count": 15, "id": "boston-national-historical-park-boston", "location": {"display_address": ["Charlestown Navy Yard", "Boston, MA 02455"], "state": "MA", "city": "Boston", "address2": null, "country": "US", "zip_code": "02455", "address1": "Charlestown Navy Yard", "address3": ""}, "url": "https://www.yelp.com/biz/boston-national-historical-park-boston?adjust_creative=8_C4NSGbL05eUQksKleGYw&utm_campaign=yelp_api_v3&utm_medium=api_v3_business_search&utm_source=8_C4NSGbL05eUQksKleGYw", "transactions": [], "phone": "+16172425601", "image_url": "https://s3-media3.fl.yelpcdn.com/bphoto/_F4ijFc8i_8SrmqRnPIOTw/o.jpg"}, {"rating": 4.0, "display_phone": "(617) 319-4392", "price": "$", "categories": [{"title": "Indian", "alias": "indpak"}, {"title": "Halal", "alias": "halal"}], "coordinates": {"longitude": -71.0574984, "latitude": 42.3558752}, "is_closed": false, "name": "D'Guru Restaurant", "distance": 1432.225534706, "review_count": 110, "id": "d-guru-restaurant-boston", "location": {"display_address": ["187 Devonshire St", "Boston, MA 02110"], "state": "MA", "city": "Boston", "address2": "", "country": "US", "zip_code": "02110", "address1": "187 Devonshire St", "address3": ""}, "url": "https://www.yelp.com/biz/d-guru-restaurant-boston?adjust_creative=8_C4NSGbL05eUQksKleGYw&utm_campaign=yelp_api_v3&utm_medium=api_v3_business_search&utm_source=8_C4NSGbL05eUQksKleGYw", "transactions": [], "phone": "+16173194392", "image_url": "https://s3-media3.fl.yelpcdn.com/bphoto/x2rx_IUgEOWkHXnndn0qJg/o.jpg"}, {"rating": 3.5, "display_phone": "(617) 482-7467", "price": "$", "categories": [{"title": "Vietnamese", "alias": "vietnamese"}], "coordinates": {"longitude": -71.0627084970474, "latitude": 42.3514122780359}, "is_closed": false, "name": "Pho Pasteur", "distance": 806.1297679403999, "review_count": 943, "id": "pho-pasteur-boston", "location": {"display_address": ["682 Washington St", "Boston, MA 02111"], "state": "MA", "city": "Boston", "address2": "", "country": "US", "zip_code": "02111", "address1": "682 Washington St", "address3": ""}, "url": "https://www.yelp.com/biz/pho-pasteur-boston?adjust_creative=8_C4NSGbL05eUQksKleGYw&utm_campaign=yelp_api_v3&utm_medium=api_v3_business_search&utm_source=8_C4NSGbL05eUQksKleGYw", "transactions": ["delivery"], "phone": "+16174827467", "image_url": "https://s3-media1.fl.yelpcdn.com/bphoto/U1PgH8uoa4aqFC4DHV93jA/o.jpg"}, {"rating": 3.5, "display_phone": "(617) 532-3827", "price": "$$", "categories": [{"title": "Bars", "alias": "bars"}, {"title": "American (Traditional)", "alias": "tradamerican"}], "coordinates": {"longitude": -71.0723568, "latitude": 42.3493362}, "is_closed": false, "name": "Precinct Kitchen + Bar", "distance": 189.4370368334, "review_count": 157, "id": "precinct-kitchen-bar-boston", "location": {"display_address": ["154 Berkeley St", "Boston, MA 02116"], "state": "MA", "city": "Boston", "address2": "", "country": "US", "zip_code": "02116", "address1": "154 Berkeley St", "address3": ""}, "url": "https://www.yelp.com/biz/precinct-kitchen-bar-boston?adjust_creative=8_C4NSGbL05eUQksKleGYw&utm_campaign=yelp_api_v3&utm_medium=api_v3_business_search&utm_source=8_C4NSGbL05eUQksKleGYw", "transactions": [], "phone": "+16175323827", "image_url": "https://s3-media3.fl.yelpcdn.com/bphoto/H4Vac5szSUV_wflPnWVwuw/o.jpg"}, {"rating": 4.0, "display_phone": "(617) 695-9888", "price": "$", "categories": [{"title": "Chinese", "alias": "chinese"}], "coordinates": {"longitude": -71.0626823455095, "latitude": 42.3475601524115}, "is_closed": false, "name": "Chinatown Cafe", "distance": 712.8222946955999, "review_count": 120, "id": "chinatown-cafe-boston", "location": {"display_address": ["262 Harrison Ave", "Boston, MA 02111"], "state": "MA", "city": "Boston", "address2": "", "country": "US", "zip_code": "02111", "address1": "262 Harrison Ave", "address3": ""}, "url": "https://www.yelp.com/biz/chinatown-cafe-boston?adjust_creative=8_C4NSGbL05eUQksKleGYw&utm_campaign=yelp_api_v3&utm_medium=api_v3_business_search&utm_source=8_C4NSGbL05eUQksKleGYw", "transactions": [], "phone": "+16176959888", "image_url": "https://s3-media3.fl.yelpcdn.com/bphoto/9h2Blp3TMnm4ypKWao-btg/o.jpg"}, {"rating": 4.0, "display_phone": "", "price": "$", "categories": [{"title": "Vegetarian", "alias": "vegetarian"}, {"title": "Food Trucks", "alias": "foodtrucks"}], "coordinates": {"longitude": -71.0589909553528, "latitude": 42.3602642696616}, "is_closed": false, "name": "Clover", "distance": 1709.1535198759998, "review_count": 48, "id": "clover-boston-4", "location": {"display_address": ["City Hall Plaza", "Boston, MA 02108"], "state": "MA", "city": "Boston", "address2": "", "country": "US", "zip_code": "02108", "address1": "City Hall Plaza", "address3": ""}, "url": "https://www.yelp.com/biz/clover-boston-4?adjust_creative=8_C4NSGbL05eUQksKleGYw&utm_campaign=yelp_api_v3&utm_medium=api_v3_business_search&utm_source=8_C4NSGbL05eUQksKleGYw", "transactions": [], "phone": "", "image_url": "https://s3-media2.fl.yelpcdn.com/bphoto/cdaUbpeFnIuegVyV80Q2fQ/o.jpg"}, {"rating": 3.5, "display_phone": "(617) 262-3749", "price": "$$", "categories": [{"title": "Pubs", "alias": "pubs"}], "coordinates": {"longitude": -71.0959, "latitude": 42.34939}, "is_closed": false, "name": "Cornwall's", "distance": 2029.5138901639998, "review_count": 190, "id": "cornwalls-boston", "location": {"display_address": ["654 Beacon St", "Boston, MA 02215"], "state": "MA", "city": "Boston", "address2": "", "country": "US", "zip_code": "02215", "address1": "654 Beacon St", "address3": ""}, "url": "https://www.yelp.com/biz/cornwalls-boston?adjust_creative=8_C4NSGbL05eUQksKleGYw&utm_campaign=yelp_api_v3&utm_medium=api_v3_business_search&utm_source=8_C4NSGbL05eUQksKleGYw", "transactions": [], "phone": "+16172623749", "image_url": "https://s3-media1.fl.yelpcdn.com/bphoto/znHC-Rosu9AKrRvSck0NYQ/o.jpg"}, {"rating": 4.0, "display_phone": "(617) 723-8585", "price": "$", "categories": [{"title": "Pizza", "alias": "pizza"}], "coordinates": {"longitude": -71.0563858598471, "latitude": 42.3616404086351}, "is_closed": false, "name": "Haymarket Pizza", "distance": 1967.4817189299997, "review_count": 96, "id": "haymarket-pizza-boston", "location": {"display_address": ["106 Blackstone St", "Boston, MA 02109"], "state": "MA", "city": "Boston", "address2": "", "country": "US", "zip_code": "02109", "address1": "106 Blackstone St", "address3": ""}, "url": "https://www.yelp.com/biz/haymarket-pizza-boston?adjust_creative=8_C4NSGbL05eUQksKleGYw&utm_campaign=yelp_api_v3&utm_medium=api_v3_business_search&utm_source=8_C4NSGbL05eUQksKleGYw", "transactions": [], "phone": "+16177238585", "image_url": "https://s3-media4.fl.yelpcdn.com/bphoto/rHqfQzIXY3FUwc3a48po1w/o.jpg"}, {"rating": 4.5, "display_phone": "(617) 423-1149", "price": "$", "categories": [{"title": "Cafes", "alias": "cafes"}], "coordinates": {"longitude": -71.0580597, "latitude": 42.3551598}, "is_closed": false, "name": "Boston News Cafe", "distance": 1347.5176502181998, "review_count": 19, "id": "boston-news-cafe-boston-2", "location": {"display_address": ["80 Arch St", "Boston, MA 02110"], "state": "MA", "city": "Boston", "address2": "", "country": "US", "zip_code": "02110", "address1": "80 Arch St", "address3": ""}, "url": "https://www.yelp.com/biz/boston-news-cafe-boston-2?adjust_creative=8_C4NSGbL05eUQksKleGYw&utm_campaign=yelp_api_v3&utm_medium=api_v3_business_search&utm_source=8_C4NSGbL05eUQksKleGYw", "transactions": ["delivery", "pickup"], "phone": "+16174231149", "image_url": "https://s3-media4.fl.yelpcdn.com/bphoto/E1WIRh5owA3MKJHY9Tfdaw/o.jpg"}, {"rating": 4.0, "display_phone": "(617) 266-6080", "price": "$", "categories": [{"title": "Coffee & Tea", "alias": "coffee"}, {"title": "Sandwiches", "alias": "sandwiches"}, {"title": "Breakfast & Brunch", "alias": "breakfast_brunch"}], "coordinates": {"longitude": -71.0875931299024, "latitude": 42.341126235729}, "is_closed": false, "name": "Temptations Cafe", "distance": 1537.373372946, "review_count": 112, "id": "temptations-cafe-boston", "location": {"display_address": ["313 Huntington Ave", "Boston, MA 02115"], "state": "MA", "city": "Boston", "address2": null, "country": "US", "zip_code": "02115", "address1": "313 Huntington Ave", "address3": ""}, "url": "https://www.yelp.com/biz/temptations-cafe-boston?adjust_creative=8_C4NSGbL05eUQksKleGYw&utm_campaign=yelp_api_v3&utm_medium=api_v3_business_search&utm_source=8_C4NSGbL05eUQksKleGYw", "transactions": ["delivery", "pickup"], "phone": "+16172666080", "image_url": "https://s3-media1.fl.yelpcdn.com/bphoto/mvll0cfJqP8ZZrqCap_Ytg/o.jpg"}, {"rating": 3.5, "display_phone": "(617) 451-6373", "price": "$$", "categories": [{"title": "Malaysian", "alias": "malaysian"}, {"title": "Chinese", "alias": "chinese"}], "coordinates": {"longitude": -71.0629915757408, "latitude": 42.3513510985963}, "is_closed": false, "name": "Penang", "distance": 782.6176645951999, "review_count": 729, "id": "penang-boston", "location": {"display_address": ["685 Washington St", "Boston, MA 02111"], "state": "MA", "city": "Boston", "address2": "", "country": "US", "zip_code": "02111", "address1": "685 Washington St", "address3": ""}, "url": "https://www.yelp.com/biz/penang-boston?adjust_creative=8_C4NSGbL05eUQksKleGYw&utm_campaign=yelp_api_v3&utm_medium=api_v3_business_search&utm_source=8_C4NSGbL05eUQksKleGYw", "transactions": ["delivery"], "phone": "+16174516373", "image_url": "https://s3-media2.fl.yelpcdn.com/bphoto/PzeGx5Vyje-fRDHzgEAM4g/o.jpg"}, {"rating": 4.0, "display_phone": "(617) 742-7678", "price": "$$", "categories": [{"title": "Bars", "alias": "bars"}, {"title": "American (Traditional)", "alias": "tradamerican"}, {"title": "American (New)", "alias": "newamerican"}], "coordinates": {"longitude": -71.061702, "latitude": 42.3642896}, "is_closed": false, "name": "Porters Bar & Grill", "distance": 1989.698818564, "review_count": 157, "id": "porters-bar-and-grill-boston", "location": {"display_address": ["173 Portland St", "Boston, MA 02114"], "state": "MA", "city": "Boston", "address2": "", "country": "US", "zip_code": "02114", "address1": "173 Portland St", "address3": ""}, "url": "https://www.yelp.com/biz/porters-bar-and-grill-boston?adjust_creative=8_C4NSGbL05eUQksKleGYw&utm_campaign=yelp_api_v3&utm_medium=api_v3_business_search&utm_source=8_C4NSGbL05eUQksKleGYw", "transactions": [], "phone": "+16177427678", "image_url": "https://s3-media3.fl.yelpcdn.com/bphoto/DUQf-chZyeD_Juxdh8PW4Q/o.jpg"}, {"rating": 4.0, "display_phone": "(617) 652-8462", "price": "$", "categories": [{"title": "Vietnamese", "alias": "vietnamese"}, {"title": "Food Trucks", "alias": "foodtrucks"}, {"title": "Sandwiches", "alias": "sandwiches"}], "coordinates": {"longitude": -71.0443572998047, "latitude": 42.347484588623}, "is_closed": false, "name": "Bon Me", "distance": 2533.658152574, "review_count": 227, "id": "bon-me-boston", "location": {"display_address": ["Boston, MA 02210"], "state": "MA", "city": "Boston", "address2": "", "country": "US", "zip_code": "02210", "address1": "", "address3": ""}, "url": "https://www.yelp.com/biz/bon-me-boston?adjust_creative=8_C4NSGbL05eUQksKleGYw&utm_campaign=yelp_api_v3&utm_medium=api_v3_business_search&utm_source=8_C4NSGbL05eUQksKleGYw", "transactions": [], "phone": "+16176528462", "image_url": "https://s3-media2.fl.yelpcdn.com/bphoto/wTyJBhEJI6q71y_dQYNg3g/o.jpg"}, {"rating": 3.5, "display_phone": "(617) 482-4428", "price": "$$", "categories": [{"title": "American (New)", "alias": "newamerican"}, {"title": "Cocktail Bars", "alias": "cocktailbars"}], "coordinates": {"longitude": -71.0711350197154, "latitude": 42.3469703698508}, "is_closed": false, "name": "Trophy Room", "distance": 97.5317734839, "review_count": 146, "id": "trophy-room-boston-3", "location": {"display_address": ["26 Chandler St", "Boston, MA 02116"], "state": "MA", "city": "Boston", "address2": "", "country": "US", "zip_code": "02116", "address1": "26 Chandler St", "address3": ""}, "url": "https://www.yelp.com/biz/trophy-room-boston-3?adjust_creative=8_C4NSGbL05eUQksKleGYw&utm_campaign=yelp_api_v3&utm_medium=api_v3_business_search&utm_source=8_C4NSGbL05eUQksKleGYw", "transactions": [], "phone": "+16174824428", "image_url": "https://s3-media3.fl.yelpcdn.com/bphoto/KDOCIJhMqxWShPmnnLiJ8g/o.jpg"}, {"rating": 3.5, "display_phone": "(617) 933-5050", "price": "$$", "categories": [{"title": "Burgers", "alias": "burgers"}, {"title": "Fast Food", "alias": "hotdogs"}, {"title": "Hot Dogs", "alias": "hotdog"}], "coordinates": {"longitude": -71.0816727, "latitude": 42.3496666}, "is_closed": false, "name": "Shake Shack", "distance": 873.0921200775999, "review_count": 241, "id": "shake-shack-boston", "location": {"display_address": ["234 Newbury St", "Boston, MA 02116"], "state": "MA", "city": "Boston", "address2": "", "country": "US", "zip_code": "02116", "address1": "234 Newbury St", "address3": ""}, "url": "https://www.yelp.com/biz/shake-shack-boston?adjust_creative=8_C4NSGbL05eUQksKleGYw&utm_campaign=yelp_api_v3&utm_medium=api_v3_business_search&utm_source=8_C4NSGbL05eUQksKleGYw", "transactions": [], "phone": "+16179335050", "image_url": "https://s3-media3.fl.yelpcdn.com/bphoto/XzmqM01-6vfdkMBxFOXk9w/o.jpg"}, {"rating": 3.5, "display_phone": "(857) 305-5620", "price": "$$$", "categories": [{"title": "American (New)", "alias": "newamerican"}, {"title": "Desserts", "alias": "desserts"}, {"title": "Breakfast & Brunch", "alias": "breakfast_brunch"}], "coordinates": {"longitude": -71.06831, "latitude": 42.3520899}, "is_closed": false, "name": "Bristol Restaurant and Bar", "distance": 532.4066868199999, "review_count": 238, "id": "bristol-restaurant-and-bar-boston", "location": {"display_address": ["Four Seasons Hotel Boston", "200 Boylston St", "Boston, MA 02116"], "state": "MA", "city": "Boston", "address2": "200 Boylston St", "country": "US", "zip_code": "02116", "address1": "Four Seasons Hotel Boston", "address3": ""}, "url": "https://www.yelp.com/biz/bristol-restaurant-and-bar-boston?adjust_creative=8_C4NSGbL05eUQksKleGYw&utm_campaign=yelp_api_v3&utm_medium=api_v3_business_search&utm_source=8_C4NSGbL05eUQksKleGYw", "transactions": [], "phone": "+18573055620", "image_url": "https://s3-media2.fl.yelpcdn.com/bphoto/9JPqNEEBc9T06t40ukx12g/o.jpg"}, {"rating": 3.5, "display_phone": "(617) 267-4799", "price": "$$", "categories": [{"title": "Tapas Bars", "alias": "tapas"}, {"title": "Spanish", "alias": "spanish"}, {"title": "Basque", "alias": "basque"}], "coordinates": {"longitude": -71.0831909179688, "latitude": 42.3491668701172}, "is_closed": false, "name": "Tapeo", "distance": 994.3807694739999, "review_count": 690, "id": "tapeo-boston", "location": {"display_address": ["266 Newbury St", "Boston, MA 02116"], "state": "MA", "city": "Boston", "address2": "", "country": "US", "zip_code": "02116", "address1": "266 Newbury St", "address3": ""}, "url": "https://www.yelp.com/biz/tapeo-boston?adjust_creative=8_C4NSGbL05eUQksKleGYw&utm_campaign=yelp_api_v3&utm_medium=api_v3_business_search&utm_source=8_C4NSGbL05eUQksKleGYw", "transactions": ["pickup"], "phone": "+16172674799", "image_url": "https://s3-media1.fl.yelpcdn.com/bphoto/E8-0vbCxOvBkKxpDmxCKeQ/o.jpg"}, {"rating": 3.5, "display_phone": "(617) 227-5888", "price": "$$", "categories": [{"title": "Italian", "alias": "italian"}, {"title": "Seafood", "alias": "seafood"}], "coordinates": {"longitude": -71.05455, "latitude": 42.36398}, "is_closed": false, "name": "Ristorante Saraceno", "distance": 2260.7042716, "review_count": 347, "id": "ristorante-saraceno-boston", "location": {"display_address": ["286 Hanover St", "Boston, MA 02113"], "state": "MA", "city": "Boston", "address2": "", "country": "US", "zip_code": "02113", "address1": "286 Hanover St", "address3": ""}, "url": "https://www.yelp.com/biz/ristorante-saraceno-boston?adjust_creative=8_C4NSGbL05eUQksKleGYw&utm_campaign=yelp_api_v3&utm_medium=api_v3_business_search&utm_source=8_C4NSGbL05eUQksKleGYw", "transactions": [], "phone": "+16172275888", "image_url": "https://s3-media1.fl.yelpcdn.com/bphoto/B2zaNNsTyvP7hMnhS7yV-Q/o.jpg"}, {"rating": 3.5, "display_phone": "(617) 536-4341", "price": "$$", "categories": [{"title": "Mexican", "alias": "mexican"}], "coordinates": {"longitude": -71.0845260620117, "latitude": 42.3494453430176}, "is_closed": false, "name": "Casa Romero", "distance": 1105.878982887, "review_count": 406, "id": "casa-romero-boston", "location": {"display_address": ["30 Gloucester St", "Boston, MA 02115"], "state": "MA", "city": "Boston", "address2": "", "country": "US", "zip_code": "02115", "address1": "30 Gloucester St", "address3": ""}, "url": "https://www.yelp.com/biz/casa-romero-boston?adjust_creative=8_C4NSGbL05eUQksKleGYw&utm_campaign=yelp_api_v3&utm_medium=api_v3_business_search&utm_source=8_C4NSGbL05eUQksKleGYw", "transactions": ["delivery"], "phone": "+16175364341", "image_url": "https://s3-media2.fl.yelpcdn.com/bphoto/za34y9tS0BWfxHQ93_WUmg/o.jpg"}, {"rating": 4.0, "display_phone": "(617) 367-2824", "price": "$$", "categories": [{"title": "Italian", "alias": "italian"}, {"title": "Tapas/Small Plates", "alias": "tapasmallplates"}, {"title": "Cocktail Bars", "alias": "cocktailbars"}], "coordinates": {"longitude": -71.0552327, "latitude": 42.3632455}, "is_closed": false, "name": "Parla", "distance": 2159.93061948, "review_count": 149, "id": "parla-boston", "location": {"display_address": ["230 Hanover St", "Boston, MA 02113"], "state": "MA", "city": "Boston", "address2": null, "country": "US", "zip_code": "02113", "address1": "230 Hanover St", "address3": ""}, "url": "https://www.yelp.com/biz/parla-boston?adjust_creative=8_C4NSGbL05eUQksKleGYw&utm_campaign=yelp_api_v3&utm_medium=api_v3_business_search&utm_source=8_C4NSGbL05eUQksKleGYw", "transactions": [], "phone": "+16173672824", "image_url": "https://s3-media2.fl.yelpcdn.com/bphoto/w2n2b6ZJ8DCBM7WD0qmr2A/o.jpg"}, {"rating": 3.5, "display_phone": "(617) 720-0444", "price": "$$", "categories": [{"title": "Pizza", "alias": "pizza"}, {"title": "Italian", "alias": "italian"}], "coordinates": {"longitude": -71.054888, "latitude": 42.3636293}, "is_closed": false, "name": "Quattro", "distance": 2219.82140291, "review_count": 253, "id": "quattro-boston", "location": {"display_address": ["264 Hanover St", "Boston, MA 02113"], "state": "MA", "city": "Boston", "address2": "", "country": "US", "zip_code": "02113", "address1": "264 Hanover St", "address3": ""}, "url": "https://www.yelp.com/biz/quattro-boston?adjust_creative=8_C4NSGbL05eUQksKleGYw&utm_campaign=yelp_api_v3&utm_medium=api_v3_business_search&utm_source=8_C4NSGbL05eUQksKleGYw", "transactions": [], "phone": "+16177200444", "image_url": "https://s3-media3.fl.yelpcdn.com/bphoto/5tTe1eZA9MKtFjsoRW_ZZw/o.jpg"}, {"rating": 4.0, "display_phone": "(617) 227-7300", "price": "$$", "categories": [{"title": "Bars", "alias": "bars"}, {"title": "Italian", "alias": "italian"}], "coordinates": {"longitude": -71.053627, "latitude": 42.364029}, "is_closed": false, "name": "Pellino's Ristorante", "distance": 2310.051624954, "review_count": 183, "id": "pellinos-ristorante-boston", "location": {"display_address": ["2 Prince St", "Boston, MA 02109"], "state": "MA", "city": "Boston", "address2": "", "country": "US", "zip_code": "02109", "address1": "2 Prince St", "address3": ""}, "url": "https://www.yelp.com/biz/pellinos-ristorante-boston?adjust_creative=8_C4NSGbL05eUQksKleGYw&utm_campaign=yelp_api_v3&utm_medium=api_v3_business_search&utm_source=8_C4NSGbL05eUQksKleGYw", "transactions": [], "phone": "+16172277300", "image_url": "https://s3-media1.fl.yelpcdn.com/bphoto/Evjn8kPKLb0Q1GVKZaShHg/o.jpg"}, {"rating": 4.0, "display_phone": "(857) 233-4535", "price": "$", "categories": [{"title": "Vegetarian", "alias": "vegetarian"}, {"title": "Juice Bars & Smoothies", "alias": "juicebars"}], "coordinates": {"longitude": -71.0596765379106, "latitude": 42.3576000206532}, "is_closed": false, "name": "Thirst Juice Co", "distance": 1442.444280437, "review_count": 54, "id": "thirst-juice-co-boston", "location": {"display_address": ["44 School St", "Boston, MA 02108"], "state": "MA", "city": "Boston", "address2": null, "country": "US", "zip_code": "02108", "address1": "44 School St", "address3": ""}, "url": "https://www.yelp.com/biz/thirst-juice-co-boston?adjust_creative=8_C4NSGbL05eUQksKleGYw&utm_campaign=yelp_api_v3&utm_medium=api_v3_business_search&utm_source=8_C4NSGbL05eUQksKleGYw", "transactions": ["delivery", "pickup"], "phone": "+18572334535", "image_url": "https://s3-media3.fl.yelpcdn.com/bphoto/NL9MhLQ2MXMHonR40llxkQ/o.jpg"}, {"rating": 3.5, "display_phone": "(617) 536-1775", "price": "$$$", "categories": [{"title": "American (Traditional)", "alias": "tradamerican"}, {"title": "Wine Bars", "alias": "wine_bars"}, {"title": "Breakfast & Brunch", "alias": "breakfast_brunch"}], "coordinates": {"longitude": -71.0822875410004, "latitude": 42.3485661293609}, "is_closed": false, "name": "Top of the Hub", "distance": 911.4440280298, "review_count": 1719, "id": "top-of-the-hub-boston", "location": {"display_address": ["800 Boylston St", "Ste 52", "Boston, MA 02199"], "state": "MA", "city": "Boston", "address2": "Ste 52", "country": "US", "zip_code": "02199", "address1": "800 Boylston St", "address3": ""}, "url": "https://www.yelp.com/biz/top-of-the-hub-boston?adjust_creative=8_C4NSGbL05eUQksKleGYw&utm_campaign=yelp_api_v3&utm_medium=api_v3_business_search&utm_source=8_C4NSGbL05eUQksKleGYw", "transactions": [], "phone": "+16175361775", "image_url": "https://s3-media3.fl.yelpcdn.com/bphoto/ziTFuWUAGq5oiqjYokmNvQ/o.jpg"}, {"rating": 3.5, "display_phone": "(617) 350-0028", "price": "$", "categories": [{"title": "Diners", "alias": "diners"}, {"title": "Breakfast & Brunch", "alias": "breakfast_brunch"}], "coordinates": {"longitude": -71.0577515004882, "latitude": 42.3498603961442}, "is_closed": false, "name": "South Street Diner", "distance": 1130.98058307, "review_count": 521, "id": "south-street-diner-boston", "location": {"display_address": ["178 Kneeland St", "Boston, MA 02111"], "state": "MA", "city": "Boston", "address2": "", "country": "US", "zip_code": "02111", "address1": "178 Kneeland St", "address3": ""}, "url": "https://www.yelp.com/biz/south-street-diner-boston?adjust_creative=8_C4NSGbL05eUQksKleGYw&utm_campaign=yelp_api_v3&utm_medium=api_v3_business_search&utm_source=8_C4NSGbL05eUQksKleGYw", "transactions": [], "phone": "+16173500028", "image_url": "https://s3-media2.fl.yelpcdn.com/bphoto/ri7i_DeFPc6dqd3If_BuXw/o.jpg"}, {"rating": 3.5, "display_phone": "(617) 536-6386", "price": "$$", "categories": [{"title": "Thai", "alias": "thai"}], "coordinates": {"longitude": -71.076735183847, "latitude": 42.33695636718}, "is_closed": false, "name": "Equator", "distance": 1292.038582717, "review_count": 153, "id": "equator-boston", "location": {"display_address": ["1721 Washington St", "Boston, MA 02118"], "state": "MA", "city": "Boston", "address2": "", "country": "US", "zip_code": "02118", "address1": "1721 Washington St", "address3": ""}, "url": "https://www.yelp.com/biz/equator-boston?adjust_creative=8_C4NSGbL05eUQksKleGYw&utm_campaign=yelp_api_v3&utm_medium=api_v3_business_search&utm_source=8_C4NSGbL05eUQksKleGYw", "transactions": ["delivery", "pickup"], "phone": "+16175366386", "image_url": "https://s3-media4.fl.yelpcdn.com/bphoto/4zRphQNg974x-MwdDu6B4Q/o.jpg"}, {"rating": 4.0, "display_phone": "", "price": "$", "categories": [{"title": "Coffee & Tea", "alias": "coffee"}], "coordinates": {"longitude": -71.0693701, "latitude": 42.3625449}, "is_closed": false, "name": "Coffee Central", "distance": 1714.12251806, "review_count": 29, "id": "coffee-central-boston", "location": {"display_address": ["Massachusetts General Hospital", "55 Fruit St", "Boston, MA 02114"], "state": "MA", "city": "Boston", "address2": "55 Fruit St", "country": "US", "zip_code": "02114", "address1": "Massachusetts General Hospital", "address3": ""}, "url": "https://www.yelp.com/biz/coffee-central-boston?adjust_creative=8_C4NSGbL05eUQksKleGYw&utm_campaign=yelp_api_v3&utm_medium=api_v3_business_search&utm_source=8_C4NSGbL05eUQksKleGYw", "transactions": [], "phone": "", "image_url": "https://s3-media2.fl.yelpcdn.com/bphoto/7d-PxyElLV80_4auZQNPCQ/o.jpg"}, {"rating": 3.5, "display_phone": "(617) 423-1112", "price": "$$$$", "categories": [{"title": "Steakhouses", "alias": "steak"}, {"title": "Seafood", "alias": "seafood"}], "coordinates": {"longitude": -71.0699564, "latitude": 42.3497946}, "is_closed": false, "name": "Smith & Wollensky", "distance": 220.4314929208, "review_count": 390, "id": "smith-and-wollensky-boston", "location": {"display_address": ["101 Arlington St", "Boston, MA 02116"], "state": "MA", "city": "Boston", "address2": "", "country": "US", "zip_code": "02116", "address1": "101 Arlington St", "address3": ""}, "url": "https://www.yelp.com/biz/smith-and-wollensky-boston?adjust_creative=8_C4NSGbL05eUQksKleGYw&utm_campaign=yelp_api_v3&utm_medium=api_v3_business_search&utm_source=8_C4NSGbL05eUQksKleGYw", "transactions": [], "phone": "+16174231112", "image_url": "https://s3-media1.fl.yelpcdn.com/bphoto/AXAo6WT-rJWN5jWl0-NGsA/o.jpg"}, {"rating": 4.0, "display_phone": "(617) 420-5200", "price": "$", "categories": [{"title": "Salad", "alias": "salad"}, {"title": "Fast Food", "alias": "hotdogs"}, {"title": "Pizza", "alias": "pizza"}], "coordinates": {"longitude": -71.0655469447374, "latitude": 42.3511449247599}, "is_closed": false, "name": "Blaze Fast Fire'd Pizza", "distance": 586.956392658, "review_count": 38, "id": "blaze-fast-fired-pizza-boston-4", "location": {"display_address": ["123 Stuart St", "Boston, MA 02116"], "state": "MA", "city": "Boston", "address2": null, "country": "US", "zip_code": "02116", "address1": "123 Stuart St", "address3": null}, "url": "https://www.yelp.com/biz/blaze-fast-fired-pizza-boston-4?adjust_creative=8_C4NSGbL05eUQksKleGYw&utm_campaign=yelp_api_v3&utm_medium=api_v3_business_search&utm_source=8_C4NSGbL05eUQksKleGYw", "transactions": [], "phone": "+16174205200", "image_url": "https://s3-media3.fl.yelpcdn.com/bphoto/sT_20M0dWhOZWteQ2Qte6A/o.jpg"}, {"rating": 3.5, "display_phone": "(617) 933-4800", "price": "$$", "categories": [{"title": "Bars", "alias": "bars"}, {"title": "American (New)", "alias": "newamerican"}, {"title": "Breakfast & Brunch", "alias": "breakfast_brunch"}], "coordinates": {"longitude": -71.0796328, "latitude": 42.3490257}, "is_closed": false, "name": "City Table", "distance": 702.1040742022, "review_count": 222, "id": "city-table-boston", "location": {"display_address": ["65 Exeter St", "Boston, MA 02116"], "state": "MA", "city": "Boston", "address2": "", "country": "US", "zip_code": "02116", "address1": "65 Exeter St", "address3": ""}, "url": "https://www.yelp.com/biz/city-table-boston?adjust_creative=8_C4NSGbL05eUQksKleGYw&utm_campaign=yelp_api_v3&utm_medium=api_v3_business_search&utm_source=8_C4NSGbL05eUQksKleGYw", "transactions": [], "phone": "+16179334800", "image_url": "https://s3-media1.fl.yelpcdn.com/bphoto/LH9_dEGxe3w1R39PwPYxpA/o.jpg"}, {"rating": 4.0, "display_phone": "(617) 635-2120", "categories": [{"title": "Skating Rinks", "alias": "skatingrinks"}, {"title": "Playgrounds", "alias": "playgrounds"}, {"title": "Parks", "alias": "parks"}], "coordinates": {"longitude": -71.0659217834473, "latitude": 42.3559117668085}, "is_closed": false, "name": "The Boston Common Frog Pond", "distance": 997.8950852319999, "review_count": 86, "id": "the-boston-common-frog-pond-boston", "location": {"display_address": ["Beacon St", "Boston, MA 02108"], "state": "MA", "city": "Boston", "address2": "", "country": "US", "zip_code": "02108", "address1": "Beacon St", "address3": ""}, "url": "https://www.yelp.com/biz/the-boston-common-frog-pond-boston?adjust_creative=8_C4NSGbL05eUQksKleGYw&utm_campaign=yelp_api_v3&utm_medium=api_v3_business_search&utm_source=8_C4NSGbL05eUQksKleGYw", "transactions": [], "phone": "+16176352120", "image_url": "https://s3-media4.fl.yelpcdn.com/bphoto/sayVALPX76CpXX_zWWQE-Q/o.jpg"}, {"rating": 3.5, "display_phone": "(617) 247-3200", "price": "$$", "categories": [{"title": "American (New)", "alias": "newamerican"}], "coordinates": {"longitude": -71.0834503, "latitude": 42.3487206}, "is_closed": false, "name": "Back Bay Social Club", "distance": 1004.5328080619998, "review_count": 489, "id": "back-bay-social-club-boston", "location": {"display_address": ["867 Boylston St", "Boston, MA 02116"], "state": "MA", "city": "Boston", "address2": "", "country": "US", "zip_code": "02116", "address1": "867 Boylston St", "address3": ""}, "url": "https://www.yelp.com/biz/back-bay-social-club-boston?adjust_creative=8_C4NSGbL05eUQksKleGYw&utm_campaign=yelp_api_v3&utm_medium=api_v3_business_search&utm_source=8_C4NSGbL05eUQksKleGYw", "transactions": [], "phone": "+16172473200", "image_url": "https://s3-media2.fl.yelpcdn.com/bphoto/1SE_LmRXAghlcMRz9af3sw/o.jpg"}, {"rating": 3.5, "display_phone": "(617) 556-8000", "price": "$$$", "categories": [{"title": "Bars", "alias": "bars"}, {"title": "French", "alias": "french"}], "coordinates": {"longitude": -71.0501609, "latitude": 42.349462}, "is_closed": false, "name": "Bastille Kitchen", "distance": 1741.6573598559999, "review_count": 189, "id": "bastille-kitchen-boston", "location": {"display_address": ["49 Melcher St", "Boston, MA 02210"], "state": "MA", "city": "Boston", "address2": "", "country": "US", "zip_code": "02210", "address1": "49 Melcher St", "address3": ""}, "url": "https://www.yelp.com/biz/bastille-kitchen-boston?adjust_creative=8_C4NSGbL05eUQksKleGYw&utm_campaign=yelp_api_v3&utm_medium=api_v3_business_search&utm_source=8_C4NSGbL05eUQksKleGYw", "transactions": [], "phone": "+16175568000", "image_url": "https://s3-media2.fl.yelpcdn.com/bphoto/dykO2SzGpiEHY7DrD2H42Q/o.jpg"}], "total": 24769}