{"region": {"center": {"longitude": -71.07124328613281, "latitude": 42.34784169448538}}, "businesses": [{"rating": 4.5, "display_phone": "(617) 292-0098", "price": "$$", "categories": [{"title": "Coffee & Tea", "alias": "coffee"}], "coordinates": {"longitude": -71.0585168749094, "latitude": 42.3571470379829}, "is_closed": false, "name": "DavidsTea", "distance": 1494.5329030799999, "review_count": 87, "id": "davidstea-boston-5", "location": {"display_address": ["298 Washington St", "Boston, MA 02108"], "state": "MA", "city": "Boston", "address2": null, "country": "US", "zip_code": "02108", "address1": "298 Washington St", "address3": ""}, "url": "https://www.yelp.com/biz/davidstea-boston-5?adjust_creative=8_C4NSGbL05eUQksKleGYw&utm_campaign=yelp_api_v3&utm_medium=api_v3_business_search&utm_source=8_C4NSGbL05eUQksKleGYw", "transactions": [], "phone": "+16172920098", "image_url": "https://s3-media1.fl.yelpcdn.com/bphoto/-mIzYfosMit_jsvhYi8oTg/o.jpg"}, {"rating": 4.5, "display_phone": "(617) 247-3333", "price": "$$", "categories": [{"title": "Coffee & Tea", "alias": "coffee"}, {"title": "Breakfast & Brunch", "alias": "breakfast_brunch"}, {"title": "Sandwiches", "alias": "sandwiches"}], "coordinates": {"longitude": -71.0746758944958, "latitude": 42.351734691006}, "is_closed": false, "name": "Thinking Cup", "distance": 516.520730746, "review_count": 485, "id": "thinking-cup-boston-5", "location": {"display_address": ["85 Newbury St", "Boston, MA 02116"], "state": "MA", "city": "Boston", "address2": "", "country": "US", "zip_code": "02116", "address1": "85 Newbury St", "address3": ""}, "url": "https://www.yelp.com/biz/thinking-cup-boston-5?adjust_creative=8_C4NSGbL05eUQksKleGYw&utm_campaign=yelp_api_v3&utm_medium=api_v3_business_search&utm_source=8_C4NSGbL05eUQksKleGYw", "transactions": [], "phone": "+16172473333", "image_url": "https://s3-media1.fl.yelpcdn.com/bphoto/MBpcihmxh4hxnpj7S9YYug/o.jpg"}, {"rating": 4.0, "display_phone": "(617) 818-7782", "price": "$", "categories": [{"title": "Japanese", "alias": "japanese"}, {"title": "Sushi Bars", "alias": "sushi"}], "coordinates": {"longitude": -71.0609107137522, "latitude": 42.3515687774432}, "is_closed": false, "name": "Avana Sushi", "distance": 944.670831818, "review_count": 789, "id": "avana-sushi-boston", "location": {"display_address": ["42 Beach St", "Boston, MA 02111"], "state": "MA", "city": "Boston", "address2": "", "country": "US", "zip_code": "02111", "address1": "42 Beach St", "address3": ""}, "url": "https://www.yelp.com/biz/avana-sushi-boston?adjust_creative=8_C4NSGbL05eUQksKleGYw&utm_campaign=yelp_api_v3&utm_medium=api_v3_business_search&utm_source=8_C4NSGbL05eUQksKleGYw", "transactions": ["delivery", "pickup"], "phone": "+16178187782", "image_url": "https://s3-media1.fl.yelpcdn.com/bphoto/y8RWhhblmgUTajfeg1E23g/o.jpg"}, {"rating": 4.5, "display_phone": "(857) 250-4497", "price": "$$", "categories": [{"title": "British", "alias": "british"}], "coordinates": {"longitude": -71.0891945599281, "latitude": 42.349712092998}, "is_closed": false, "name": "Cornish Pasty", "distance": 1489.850850218, "review_count": 88, "id": "cornish-pasty-boston-3", "location": {"display_address": ["51 Massachusetts Ave", "Boston, MA 02115"], "state": "MA", "city": "Boston", "address2": "", "country": "US", "zip_code": "02115", "address1": "51 Massachusetts Ave", "address3": null}, "url": "https://www.yelp.com/biz/cornish-pasty-boston-3?adjust_creative=8_C4NSGbL05eUQksKleGYw&utm_campaign=yelp_api_v3&utm_medium=api_v3_business_search&utm_source=8_C4NSGbL05eUQksKleGYw", "transactions": [], "phone": "+18572504497", "image_url": "https://s3-media1.fl.yelpcdn.com/bphoto/eX6vG1D066nA4cB5-NyrvA/o.jpg"}, {"rating": 4.5, "display_phone": "(617) 720-5555", "price": "$", "categories": [{"title": "Sandwiches", "alias": "sandwiches"}, {"title": "Salad", "alias": "salad"}, {"title": "Italian", "alias": "italian"}], "coordinates": {"longitude": -71.05507, "latitude": 42.35927}, "is_closed": false, "name": "Al's State Street Cafe", "distance": 1838.0045223060001, "review_count": 402, "id": "als-state-street-cafe-boston", "location": {"display_address": ["110 State St", "Boston, MA 02109"], "state": "MA", "city": "Boston", "address2": "", "country": "US", "zip_code": "02109", "address1": "110 State St", "address3": ""}, "url": "https://www.yelp.com/biz/als-state-street-cafe-boston?adjust_creative=8_C4NSGbL05eUQksKleGYw&utm_campaign=yelp_api_v3&utm_medium=api_v3_business_search&utm_source=8_C4NSGbL05eUQksKleGYw", "transactions": ["pickup"], "phone": "+16177205555", "image_url": "https://s3-media2.fl.yelpcdn.com/bphoto/3oellu-CceBkOi5FaM6yPg/o.jpg"}, {"rating": 4.5, "display_phone": "(617) 982-7955", "price": "$", "categories": [{"title": "Ice Cream & Frozen Yogurt", "alias": "icecream"}, {"title": "Bakeries", "alias": "bakeries"}, {"title": "Coffee & Tea", "alias": "coffee"}], "coordinates": {"longitude": -71.075637, "latitude": 42.342132}, "is_closed": false, "name": "FoMu", "distance": 730.512900272, "review_count": 78, "id": "fomu-boston-2", "location": {"display_address": ["655 Tremont St", "Boston, MA 02118"], "state": "MA", "city": "Boston", "address2": "", "country": "US", "zip_code": "02118", "address1": "655 Tremont St", "address3": ""}, "url": "https://www.yelp.com/biz/fomu-boston-2?adjust_creative=8_C4NSGbL05eUQksKleGYw&utm_campaign=yelp_api_v3&utm_medium=api_v3_business_search&utm_source=8_C4NSGbL05eUQksKleGYw", "transactions": [], "phone": "+16179827955", "image_url": "https://s3-media3.fl.yelpcdn.com/bphoto/5RqMQVR_awL3il60Z0pF9w/o.jpg"}, {"rating": 4.5, "display_phone": "(617) 356-1100", "price": "$$$", "categories": [{"title": "Greek", "alias": "greek"}], "coordinates": {"longitude": -71.07043, "latitude": 42.34239}, "is_closed": false, "name": "KAVA neo-taverna", "distance": 608.445265942, "review_count": 121, "id": "kava-neo-taverna-boston-2", "location": {"display_address": ["315 Shawmut Ave", "Boston, MA 02118"], "state": "MA", "city": "Boston", "address2": "", "country": "US", "zip_code": "02118", "address1": "315 Shawmut Ave", "address3": ""}, "url": "https://www.yelp.com/biz/kava-neo-taverna-boston-2?adjust_creative=8_C4NSGbL05eUQksKleGYw&utm_campaign=yelp_api_v3&utm_medium=api_v3_business_search&utm_source=8_C4NSGbL05eUQksKleGYw", "transactions": [], "phone": "+16173561100", "image_url": "https://s3-media1.fl.yelpcdn.com/bphoto/tL9Wgu2Le7WqEC6FvkomQA/o.jpg"}, {"rating": 4.5, "display_phone": "(617) 350-0007", "price": "$$$", "categories": [{"title": "Italian", "alias": "italian"}], "coordinates": {"longitude": -71.07076, "latitude": 42.3493148}, "is_closed": false, "name": "Da Vinci", "distance": 168.4285998196, "review_count": 333, "id": "da-vinci-boston", "location": {"display_address": ["162 Columbus Ave", "Boston, MA 02116"], "state": "MA", "city": "Boston", "address2": "", "country": "US", "zip_code": "02116", "address1": "162 Columbus Ave", "address3": ""}, "url": "https://www.yelp.com/biz/da-vinci-boston?adjust_creative=8_C4NSGbL05eUQksKleGYw&utm_campaign=yelp_api_v3&utm_medium=api_v3_business_search&utm_source=8_C4NSGbL05eUQksKleGYw", "transactions": ["delivery"], "phone": "+16173500007", "image_url": "https://s3-media3.fl.yelpcdn.com/bphoto/ORybKO4sJzqAHZpZT9ncIw/o.jpg"}, {"rating": 4.0, "display_phone": "(617) 523-9026", "price": "$$", "categories": [{"title": "Italian", "alias": "italian"}], "coordinates": {"longitude": -71.05344, "latitude": 42.3645799}, "is_closed": false, "name": "Giacomo's Ristorante", "distance": 2372.09634904, "review_count": 2506, "id": "giacomos-ristorante-boston", "location": {"display_address": ["355 Hanover St", "Boston, MA 02113"], "state": "MA", "city": "Boston", "address2": "", "country": "US", "zip_code": "02113", "address1": "355 Hanover St", "address3": ""}, "url": "https://www.yelp.com/biz/giacomos-ristorante-boston?adjust_creative=8_C4NSGbL05eUQksKleGYw&utm_campaign=yelp_api_v3&utm_medium=api_v3_business_search&utm_source=8_C4NSGbL05eUQksKleGYw", "transactions": [], "phone": "+16175239026", "image_url": "https://s3-media4.fl.yelpcdn.com/bphoto/g-lo6_IuVNaiKMCikW4bSQ/o.jpg"}, {"rating": 4.0, "display_phone": "(617) 267-4000", "price": "$$$", "categories": [{"title": "Seafood", "alias": "seafood"}, {"title": "Bars", "alias": "bars"}, {"title": "American (Traditional)", "alias": "tradamerican"}], "coordinates": {"longitude": -71.0811272917217, "latitude": 42.3492217873536}, "is_closed": false, "name": "Atlantic Fish Company", "distance": 826.8703624980001, "review_count": 1916, "id": "atlantic-fish-company-boston", "location": {"display_address": ["761 Boylston St", "Boston, MA 02116"], "state": "MA", "city": "Boston", "address2": "", "country": "US", "zip_code": "02116", "address1": "761 Boylston St", "address3": ""}, "url": "https://www.yelp.com/biz/atlantic-fish-company-boston?adjust_creative=8_C4NSGbL05eUQksKleGYw&utm_campaign=yelp_api_v3&utm_medium=api_v3_business_search&utm_source=8_C4NSGbL05eUQksKleGYw", "transactions": ["delivery"], "phone": "+16172674000", "image_url": "https://s3-media4.fl.yelpcdn.com/bphoto/mO_5bQ5_k5W90YmLePH5fg/o.jpg"}, {"rating": 4.5, "display_phone": "(857) 239-8052", "price": "$", "categories": [{"title": "Bakeries", "alias": "bakeries"}, {"title": "Coffee & Tea", "alias": "coffee"}], "coordinates": {"longitude": -71.0799805819988, "latitude": 42.3420690000057}, "is_closed": false, "name": "Cafe Madeleine", "distance": 963.2503402499999, "review_count": 158, "id": "cafe-madeleine-boston-2", "location": {"display_address": ["517 Columbus Ave", "Boston, MA 02118"], "state": "MA", "city": "Boston", "address2": "", "country": "US", "zip_code": "02118", "address1": "517 Columbus Ave", "address3": ""}, "url": "https://www.yelp.com/biz/cafe-madeleine-boston-2?adjust_creative=8_C4NSGbL05eUQksKleGYw&utm_campaign=yelp_api_v3&utm_medium=api_v3_business_search&utm_source=8_C4NSGbL05eUQksKleGYw", "transactions": [], "phone": "+18572398052", "image_url": "https://s3-media3.fl.yelpcdn.com/bphoto/gApq6XJZkNE_R5HFgBuH4w/o.jpg"}, {"rating": 4.0, "display_phone": "(617) 423-5501", "price": "$$", "categories": [{"title": "Seafood", "alias": "seafood"}, {"title": "Seafood Markets", "alias": "seafoodmarkets"}], "coordinates": {"longitude": -71.050886414287, "latitude": 42.355005189947}, "is_closed": false, "name": "James Hook & Co", "distance": 1852.526079928, "review_count": 763, "id": "james-hook-and-co-boston", "location": {"display_address": ["440 Atlantic Ave", "Boston, MA 02110"], "state": "MA", "city": "Boston", "address2": "", "country": "US", "zip_code": "02110", "address1": "440 Atlantic Ave", "address3": ""}, "url": "https://www.yelp.com/biz/james-hook-and-co-boston?adjust_creative=8_C4NSGbL05eUQksKleGYw&utm_campaign=yelp_api_v3&utm_medium=api_v3_business_search&utm_source=8_C4NSGbL05eUQksKleGYw", "transactions": [], "phone": "+16174235501", "image_url": "https://s3-media1.fl.yelpcdn.com/bphoto/go6uoS1w6jh0_mOhJxkmnw/o.jpg"}, {"rating": 4.0, "display_phone": "(617) 437-7700", "price": "$$", "categories": [{"title": "Coffee & Tea", "alias": "coffee"}, {"title": "Bakeries", "alias": "bakeries"}, {"title": "Sandwiches", "alias": "sandwiches"}], "coordinates": {"longitude": -71.0738261386231, "latitude": 42.3482569197856}, "is_closed": false, "name": "Flour Bakery + Caf\u00e9", "distance": 217.42915649699998, "review_count": 689, "id": "flour-bakery-caf\u00e9-boston-5", "location": {"display_address": ["131 Clarendon St", "Boston, MA 02116"], "state": "MA", "city": "Boston", "address2": "", "country": "US", "zip_code": "02116", "address1": "131 Clarendon St", "address3": ""}, "url": "https://www.yelp.com/biz/flour-bakery-caf%C3%A9-boston-5?adjust_creative=8_C4NSGbL05eUQksKleGYw&utm_campaign=yelp_api_v3&utm_medium=api_v3_business_search&utm_source=8_C4NSGbL05eUQksKleGYw", "transactions": [], "phone": "+16174377700", "image_url": "https://s3-media2.fl.yelpcdn.com/bphoto/DvnaJURRickMCvb-nJJa1w/o.jpg"}, {"rating": 4.5, "display_phone": "", "categories": [{"title": "Local Flavor", "alias": "localflavor"}, {"title": "Landmarks & Historical Buildings", "alias": "landmarks"}], "coordinates": {"longitude": -71.0547208786011, "latitude": 42.3636176318038}, "is_closed": false, "name": "The North End", "distance": 2218.160724964, "review_count": 84, "id": "the-north-end-boston", "location": {"display_address": ["Boston, MA 02455"], "state": "MA", "city": "Boston", "address2": "", "country": "US", "zip_code": "02455", "address1": "", "address3": ""}, "url": "https://www.yelp.com/biz/the-north-end-boston?adjust_creative=8_C4NSGbL05eUQksKleGYw&utm_campaign=yelp_api_v3&utm_medium=api_v3_business_search&utm_source=8_C4NSGbL05eUQksKleGYw", "transactions": [], "phone": "", "image_url": "https://s3-media2.fl.yelpcdn.com/bphoto/2yGKCsw853-Jr93TlJqdJQ/o.jpg"}, {"rating": 4.0, "display_phone": "(617) 482-5555", "price": "$$", "categories": [{"title": "Coffee & Tea", "alias": "coffee"}], "coordinates": {"longitude": -71.0639215260744, "latitude": 42.3539183288813}, "is_closed": false, "name": "Thinking Cup", "distance": 904.6272339379999, "review_count": 952, "id": "thinking-cup-boston-2", "location": {"display_address": ["165 Tremont St", "Boston, MA 02111"], "state": "MA", "city": "Boston", "address2": "", "country": "US", "zip_code": "02111", "address1": "165 Tremont St", "address3": ""}, "url": "https://www.yelp.com/biz/thinking-cup-boston-2?adjust_creative=8_C4NSGbL05eUQksKleGYw&utm_campaign=yelp_api_v3&utm_medium=api_v3_business_search&utm_source=8_C4NSGbL05eUQksKleGYw", "transactions": [], "phone": "+16174825555", "image_url": "https://s3-media2.fl.yelpcdn.com/bphoto/aTDgCaha3DYkCrzGgpSngQ/o.jpg"}, {"rating": 4.0, "display_phone": "(617) 742-9991", "price": "$$$$", "categories": [{"title": "French", "alias": "french"}, {"title": "Italian", "alias": "italian"}], "coordinates": {"longitude": -71.0627899169922, "latitude": 42.3576202392578}, "is_closed": false, "name": "No. 9 Park", "distance": 1290.1366968917998, "review_count": 542, "id": "no-9-park-boston", "location": {"display_address": ["9 Park St", "Boston, MA 02108"], "state": "MA", "city": "Boston", "address2": "", "country": "US", "zip_code": "02108", "address1": "9 Park St", "address3": ""}, "url": "https://www.yelp.com/biz/no-9-park-boston?adjust_creative=8_C4NSGbL05eUQksKleGYw&utm_campaign=yelp_api_v3&utm_medium=api_v3_business_search&utm_source=8_C4NSGbL05eUQksKleGYw", "transactions": [], "phone": "+16177429991", "image_url": "https://s3-media2.fl.yelpcdn.com/bphoto/yK04LH8kqNrrG9RkCJUGQQ/o.jpg"}, {"rating": 4.5, "display_phone": "", "price": "$", "categories": [{"title": "Coffee & Tea", "alias": "coffee"}, {"title": "Sandwiches", "alias": "sandwiches"}, {"title": "Vegetarian", "alias": "vegetarian"}], "coordinates": {"longitude": -71.0646584630013, "latitude": 42.3774761706591}, "is_closed": false, "name": "Clover Food Lab", "distance": 1491.335627302, "review_count": 96, "id": "clover-food-lab-boston-10", "location": {"display_address": ["27 School Street", "Boston, MA 02201"], "state": "MA", "city": "Boston", "address2": "", "country": "US", "zip_code": "02201", "address1": "27 School Street", "address3": ""}, "url": "https://www.yelp.com/biz/clover-food-lab-boston-10?adjust_creative=8_C4NSGbL05eUQksKleGYw&utm_campaign=yelp_api_v3&utm_medium=api_v3_business_search&utm_source=8_C4NSGbL05eUQksKleGYw", "transactions": [], "phone": "", "image_url": "https://s3-media2.fl.yelpcdn.com/bphoto/xcudC6XVeWb3eCx1IWGb0A/o.jpg"}, {"rating": 4.5, "display_phone": "(857) 284-7064", "price": "$$", "categories": [{"title": "Sandwiches", "alias": "sandwiches"}, {"title": "Caterers", "alias": "catering"}, {"title": "Seafood", "alias": "seafood"}], "coordinates": {"longitude": -71.0560854227807, "latitude": 42.363244212396}, "is_closed": false, "name": "Pauli's", "distance": 2117.5433397579995, "review_count": 552, "id": "paulis-boston", "location": {"display_address": ["65 Salem St", "Boston, MA 02113"], "state": "MA", "city": "Boston", "address2": null, "country": "US", "zip_code": "02113", "address1": "65 Salem St", "address3": ""}, "url": "https://www.yelp.com/biz/paulis-boston?adjust_creative=8_C4NSGbL05eUQksKleGYw&utm_campaign=yelp_api_v3&utm_medium=api_v3_business_search&utm_source=8_C4NSGbL05eUQksKleGYw", "transactions": ["delivery", "pickup"], "phone": "+18572847064", "image_url": "https://s3-media4.fl.yelpcdn.com/bphoto/mMhGo-iXq8n6l6HYopCpSw/o.jpg"}, {"rating": 4.5, "display_phone": "(617) 269-0110", "price": "$$", "categories": [{"title": "Polish", "alias": "polish"}, {"title": "Austrian", "alias": "austrian"}, {"title": "Hungarian", "alias": "hungarian"}], "coordinates": {"longitude": -71.05712, "latitude": 42.32878}, "is_closed": false, "name": "Cafe Polonia", "distance": 2413.030877544, "review_count": 357, "id": "cafe-polonia-boston", "location": {"display_address": ["611 Dorchester Ave", "Boston, MA 02127"], "state": "MA", "city": "Boston", "address2": "", "country": "US", "zip_code": "02127", "address1": "611 Dorchester Ave", "address3": ""}, "url": "https://www.yelp.com/biz/cafe-polonia-boston?adjust_creative=8_C4NSGbL05eUQksKleGYw&utm_campaign=yelp_api_v3&utm_medium=api_v3_business_search&utm_source=8_C4NSGbL05eUQksKleGYw", "transactions": [], "phone": "+16172690110", "image_url": "https://s3-media1.fl.yelpcdn.com/bphoto/3m2OxYFwijxSX1QB-nXrpw/o.jpg"}, {"rating": 4.5, "display_phone": "(617) 982-3473", "price": "$", "categories": [{"title": "Food Trucks", "alias": "foodtrucks"}, {"title": "Pizza", "alias": "pizza"}], "coordinates": {"longitude": -71.0556462478491, "latitude": 42.3531626418461}, "is_closed": false, "name": "Stoked Wood Fired Pizza", "distance": 1411.3477761002, "review_count": 53, "id": "stoked-wood-fired-pizza-boston", "location": {"display_address": ["Boston, MA 02110"], "state": "MA", "city": "Boston", "address2": "", "country": "US", "zip_code": "02110", "address1": "", "address3": ""}, "url": "https://www.yelp.com/biz/stoked-wood-fired-pizza-boston?adjust_creative=8_C4NSGbL05eUQksKleGYw&utm_campaign=yelp_api_v3&utm_medium=api_v3_business_search&utm_source=8_C4NSGbL05eUQksKleGYw", "transactions": [], "phone": "+16179823473", "image_url": "https://s3-media3.fl.yelpcdn.com/bphoto/vrGWscFZKXXdrIrKF1gfvQ/o.jpg"}, {"rating": 4.0, "display_phone": "(617) 369-7075", "price": "$$", "categories": [{"title": "Caribbean", "alias": "caribbean"}, {"title": "Venezuelan", "alias": "venezuelan"}], "coordinates": {"longitude": -71.07596, "latitude": 42.33892}, "is_closed": false, "name": "Orinoco", "distance": 1060.1540607522, "review_count": 503, "id": "orinoco-boston", "location": {"display_address": ["477 Shawmut Ave", "Boston, MA 02118"], "state": "MA", "city": "Boston", "address2": null, "country": "US", "zip_code": "02118", "address1": "477 Shawmut Ave", "address3": ""}, "url": "https://www.yelp.com/biz/orinoco-boston?adjust_creative=8_C4NSGbL05eUQksKleGYw&utm_campaign=yelp_api_v3&utm_medium=api_v3_business_search&utm_source=8_C4NSGbL05eUQksKleGYw", "transactions": ["delivery", "pickup"], "phone": "+16173697075", "image_url": "https://s3-media4.fl.yelpcdn.com/bphoto/h9q39McxW0JiV1m38IpNJw/o.jpg"}, {"rating": 4.0, "display_phone": "(617) 412-4600", "price": "$$$$", "categories": [{"title": "Italian", "alias": "italian"}], "coordinates": {"longitude": -71.0779036594912, "latitude": 42.3488367161261}, "is_closed": false, "name": "Sorellina", "distance": 558.3565218368, "review_count": 567, "id": "sorellina-boston", "location": {"display_address": ["1 Huntington Ave", "Boston, MA 02116"], "state": "MA", "city": "Boston", "address2": null, "country": "US", "zip_code": "02116", "address1": "1 Huntington Ave", "address3": ""}, "url": "https://www.yelp.com/biz/sorellina-boston?adjust_creative=8_C4NSGbL05eUQksKleGYw&utm_campaign=yelp_api_v3&utm_medium=api_v3_business_search&utm_source=8_C4NSGbL05eUQksKleGYw", "transactions": [], "phone": "+16174124600", "image_url": "https://s3-media2.fl.yelpcdn.com/bphoto/vqP9W3fewWzlIQzTnkH8mQ/o.jpg"}, {"rating": 4.5, "display_phone": "(617) 654-9944", "price": "$", "categories": [{"title": "Dive Bars", "alias": "divebars"}], "coordinates": {"longitude": -71.0537415, "latitude": 42.3546486}, "is_closed": false, "name": "Biddy Early's", "distance": 1642.704354078, "review_count": 193, "id": "biddy-earlys-boston", "location": {"display_address": ["141 Pearl St", "Boston, MA 02110"], "state": "MA", "city": "Boston", "address2": "", "country": "US", "zip_code": "02110", "address1": "141 Pearl St", "address3": ""}, "url": "https://www.yelp.com/biz/biddy-earlys-boston?adjust_creative=8_C4NSGbL05eUQksKleGYw&utm_campaign=yelp_api_v3&utm_medium=api_v3_business_search&utm_source=8_C4NSGbL05eUQksKleGYw", "transactions": [], "phone": "+16176549944", "image_url": "https://s3-media3.fl.yelpcdn.com/bphoto/ddH6AEmjdX1eceIwWYLj5g/o.jpg"}, {"rating": 4.5, "display_phone": "", "categories": [{"title": "Active Life", "alias": "active"}, {"title": "Local Flavor", "alias": "localflavor"}], "coordinates": {"longitude": -71.0749053955078, "latitude": 42.3612747192383}, "is_closed": false, "name": "The Charles River", "distance": 1523.532566144, "review_count": 39, "id": "the-charles-river-boston", "location": {"display_address": ["Storrow Dr", "Boston, MA 02114"], "state": "MA", "city": "Boston", "address2": null, "country": "US", "zip_code": "02114", "address1": "Storrow Dr", "address3": ""}, "url": "https://www.yelp.com/biz/the-charles-river-boston?adjust_creative=8_C4NSGbL05eUQksKleGYw&utm_campaign=yelp_api_v3&utm_medium=api_v3_business_search&utm_source=8_C4NSGbL05eUQksKleGYw", "transactions": [], "phone": "", "image_url": "https://s3-media4.fl.yelpcdn.com/bphoto/9-DD7MSpMbtypl-MabdPxw/o.jpg"}, {"rating": 4.5, "display_phone": "(617) 420-5200", "price": "$", "categories": [{"title": "Salad", "alias": "salad"}, {"title": "Pizza", "alias": "pizza"}, {"title": "Fast Food", "alias": "hotdogs"}], "coordinates": {"longitude": -71.0969848632812, "latitude": 42.3444633483887}, "is_closed": false, "name": "Blaze Fast Fire'd Pizza", "distance": 2149.553112358, "review_count": 83, "id": "blaze-fast-fired-pizza-boston-2", "location": {"display_address": ["1282 Boylston St", "Boston, MA 02215"], "state": "MA", "city": "Boston", "address2": "", "country": "US", "zip_code": "02215", "address1": "1282 Boylston St", "address3": null}, "url": "https://www.yelp.com/biz/blaze-fast-fired-pizza-boston-2?adjust_creative=8_C4NSGbL05eUQksKleGYw&utm_campaign=yelp_api_v3&utm_medium=api_v3_business_search&utm_source=8_C4NSGbL05eUQksKleGYw", "transactions": [], "phone": "+16174205200", "image_url": "https://s3-media1.fl.yelpcdn.com/bphoto/160aGhxp0SUrehsS_ueimg/o.jpg"}, {"rating": 4.0, "display_phone": "(617) 936-3432", "price": "$$", "categories": [{"title": "Coffee & Tea", "alias": "coffee"}], "coordinates": {"longitude": -71.0623134436442, "latitude": 42.3535129107984}, "is_closed": false, "name": "Caff\u00e8 Nero", "distance": 967.1573349679999, "review_count": 307, "id": "caff\u00e8-nero-boston-8", "location": {"display_address": ["560 Washington St", "Boston, MA 02111"], "state": "MA", "city": "Boston", "address2": "", "country": "US", "zip_code": "02111", "address1": "560 Washington St", "address3": ""}, "url": "https://www.yelp.com/biz/caff%C3%A8-nero-boston-8?adjust_creative=8_C4NSGbL05eUQksKleGYw&utm_campaign=yelp_api_v3&utm_medium=api_v3_business_search&utm_source=8_C4NSGbL05eUQksKleGYw", "transactions": [], "phone": "+16179363432", "image_url": "https://s3-media1.fl.yelpcdn.com/bphoto/gUbKNlGXv_yVWiwj_3dNJQ/o.jpg"}, {"rating": 4.5, "display_phone": "(857) 362-7477", "price": "$$", "categories": [{"title": "Seafood Markets", "alias": "seafoodmarkets"}, {"title": "Seafood", "alias": "seafood"}], "coordinates": {"longitude": -71.0554885864258, "latitude": 42.3639030456543}, "is_closed": false, "name": "North End Fish Market", "distance": 2205.53046371, "review_count": 188, "id": "north-end-fish-market-boston", "location": {"display_address": ["99 Salem St", "Boston, MA 02113"], "state": "MA", "city": "Boston", "address2": "", "country": "US", "zip_code": "02113", "address1": "99 Salem St", "address3": ""}, "url": "https://www.yelp.com/biz/north-end-fish-market-boston?adjust_creative=8_C4NSGbL05eUQksKleGYw&utm_campaign=yelp_api_v3&utm_medium=api_v3_business_search&utm_source=8_C4NSGbL05eUQksKleGYw", "transactions": ["delivery", "pickup"], "phone": "+18573627477", "image_url": "https://s3-media3.fl.yelpcdn.com/bphoto/sl8uGbwVMlpE3A4xU29byQ/o.jpg"}, {"rating": 4.0, "display_phone": "(617) 267-0047", "price": "$$$", "categories": [{"title": "Lounges", "alias": "lounges"}], "coordinates": {"longitude": -71.06141, "latitude": 42.35549}, "is_closed": false, "name": "Yvonne's", "distance": 1172.085379746, "review_count": 426, "id": "yvonnes-boston", "location": {"display_address": ["2 Winter Pl", "Boston, MA 02108"], "state": "MA", "city": "Boston", "address2": null, "country": "US", "zip_code": "02108", "address1": "2 Winter Pl", "address3": ""}, "url": "https://www.yelp.com/biz/yvonnes-boston?adjust_creative=8_C4NSGbL05eUQksKleGYw&utm_campaign=yelp_api_v3&utm_medium=api_v3_business_search&utm_source=8_C4NSGbL05eUQksKleGYw", "transactions": [], "phone": "+16172670047", "image_url": "https://s3-media1.fl.yelpcdn.com/bphoto/90APKneSvVTf6QXt4KUyiQ/o.jpg"}, {"rating": 4.5, "display_phone": "(617) 248-9537", "price": "$", "categories": [{"title": "Mexican", "alias": "mexican"}, {"title": "Food Trucks", "alias": "foodtrucks"}], "coordinates": {"longitude": -71.051844, "latitude": 42.363278}, "is_closed": false, "name": "Tenoch Mexican", "distance": 2342.427039602, "review_count": 227, "id": "tenoch-mexican-boston", "location": {"display_address": ["3 Lewis St", "Boston, MA 02110"], "state": "MA", "city": "Boston", "address2": "", "country": "US", "zip_code": "02110", "address1": "3 Lewis St", "address3": ""}, "url": "https://www.yelp.com/biz/tenoch-mexican-boston?adjust_creative=8_C4NSGbL05eUQksKleGYw&utm_campaign=yelp_api_v3&utm_medium=api_v3_business_search&utm_source=8_C4NSGbL05eUQksKleGYw", "transactions": [], "phone": "+16172489537", "image_url": "https://s3-media2.fl.yelpcdn.com/bphoto/jmwfNcxMhGTPGB0sReNAyg/o.jpg"}, {"rating": 4.5, "display_phone": "(617) 227-5709", "price": "$", "categories": [{"title": "Pizza", "alias": "pizza"}, {"title": "Salad", "alias": "salad"}, {"title": "Italian", "alias": "italian"}], "coordinates": {"longitude": -71.0544499754906, "latitude": 42.36377812922}, "is_closed": false, "name": "Galleria Umberto", "distance": 2245.9722123059996, "review_count": 471, "id": "galleria-umberto-boston", "location": {"display_address": ["289 Hanover St", "Boston, MA 02113"], "state": "MA", "city": "Boston", "address2": "", "country": "US", "zip_code": "02113", "address1": "289 Hanover St", "address3": ""}, "url": "https://www.yelp.com/biz/galleria-umberto-boston?adjust_creative=8_C4NSGbL05eUQksKleGYw&utm_campaign=yelp_api_v3&utm_medium=api_v3_business_search&utm_source=8_C4NSGbL05eUQksKleGYw", "transactions": [], "phone": "+16172275709", "image_url": "https://s3-media1.fl.yelpcdn.com/bphoto/C2Lhz7qkKESCAYpov_qdFA/o.jpg"}, {"rating": 4.5, "display_phone": "", "categories": [{"title": "Parks", "alias": "parks"}], "coordinates": {"longitude": -71.0725625172882, "latitude": 42.3603070472907}, "is_closed": false, "name": "Charles River Bike Paths", "distance": 1390.01592612, "review_count": 73, "id": "charles-river-bike-paths-boston", "location": {"display_address": ["Storrow and Memorial Dr", "Boston, MA 02228"], "state": "MA", "city": "Boston", "address2": null, "country": "US", "zip_code": "02228", "address1": "Storrow and Memorial Dr", "address3": ""}, "url": "https://www.yelp.com/biz/charles-river-bike-paths-boston?adjust_creative=8_C4NSGbL05eUQksKleGYw&utm_campaign=yelp_api_v3&utm_medium=api_v3_business_search&utm_source=8_C4NSGbL05eUQksKleGYw", "transactions": [], "phone": "", "image_url": "https://s3-media2.fl.yelpcdn.com/bphoto/HrngKNGEFep_yf4WzR3z_w/o.jpg"}, {"rating": 4.5, "display_phone": "(617) 266-4976", "price": "$", "categories": [{"title": "Greek", "alias": "greek"}], "coordinates": {"longitude": -71.0989929288362, "latitude": 42.3431622796524}, "is_closed": false, "name": "Gyro City", "distance": 2339.079773336, "review_count": 223, "id": "gyro-city-boston", "location": {"display_address": ["88 Peterborough St", "Boston, MA 02215"], "state": "MA", "city": "Boston", "address2": "", "country": "US", "zip_code": "02215", "address1": "88 Peterborough St", "address3": ""}, "url": "https://www.yelp.com/biz/gyro-city-boston?adjust_creative=8_C4NSGbL05eUQksKleGYw&utm_campaign=yelp_api_v3&utm_medium=api_v3_business_search&utm_source=8_C4NSGbL05eUQksKleGYw", "transactions": ["pickup", "delivery"], "phone": "+16172664976", "image_url": "https://s3-media4.fl.yelpcdn.com/bphoto/pIxv2RmbOBy3wRZdUukkaA/o.jpg"}, {"rating": 4.5, "display_phone": "(617) 585-9575", "price": "$$$$", "categories": [{"title": "American (New)", "alias": "newamerican"}], "coordinates": {"longitude": -71.0891662, "latitude": 42.3498513}, "is_closed": false, "name": "Asta", "distance": 1489.576618682, "review_count": 144, "id": "asta-boston", "location": {"display_address": ["47 Massachusetts Ave", "Boston, MA 02115"], "state": "MA", "city": "Boston", "address2": "", "country": "US", "zip_code": "02115", "address1": "47 Massachusetts Ave", "address3": ""}, "url": "https://www.yelp.com/biz/asta-boston?adjust_creative=8_C4NSGbL05eUQksKleGYw&utm_campaign=yelp_api_v3&utm_medium=api_v3_business_search&utm_source=8_C4NSGbL05eUQksKleGYw", "transactions": [], "phone": "+16175859575", "image_url": "https://s3-media3.fl.yelpcdn.com/bphoto/gFzC6sxYQ0XW9Tm5GIPQhg/o.jpg"}, {"rating": 4.0, "display_phone": "(617) 262-9090", "price": "$", "categories": [{"title": "Mexican", "alias": "mexican"}, {"title": "Gluten-Free", "alias": "gluten_free"}, {"title": "Vegetarian", "alias": "vegetarian"}], "coordinates": {"longitude": -71.0989652574062, "latitude": 42.3432216793299}, "is_closed": false, "name": "El Pel\u00f3n Taquer\u00eda", "distance": 2348.2179277239998, "review_count": 902, "id": "el-pel\u00f3n-taquer\u00eda-boston-3", "location": {"display_address": ["92 Peterborough St", "Boston, MA 02215"], "state": "MA", "city": "Boston", "address2": "", "country": "US", "zip_code": "02215", "address1": "92 Peterborough St", "address3": ""}, "url": "https://www.yelp.com/biz/el-pel%C3%B3n-taquer%C3%ADa-boston-3?adjust_creative=8_C4NSGbL05eUQksKleGYw&utm_campaign=yelp_api_v3&utm_medium=api_v3_business_search&utm_source=8_C4NSGbL05eUQksKleGYw", "transactions": ["delivery", "pickup"], "phone": "+16172629090", "image_url": "https://s3-media3.fl.yelpcdn.com/bphoto/b7L9Y1vElmxPX1svRedAJw/o.jpg"}, {"rating": 4.0, "display_phone": "(617) 227-0765", "price": "$$", "categories": [{"title": "Pizza", "alias": "pizza"}, {"title": "Italian", "alias": "italian"}], "coordinates": {"longitude": -71.0568833173494, "latitude": 42.3654185550275}, "is_closed": false, "name": "Regina Pizza", "distance": 2282.713283572, "review_count": 1281, "id": "regina-pizza-boston-2", "location": {"display_address": ["11 1/2 Thacher St", "Boston, MA 02113"], "state": "MA", "city": "Boston", "address2": "", "country": "US", "zip_code": "02113", "address1": "11 1/2 Thacher St", "address3": ""}, "url": "https://www.yelp.com/biz/regina-pizza-boston-2?adjust_creative=8_C4NSGbL05eUQksKleGYw&utm_campaign=yelp_api_v3&utm_medium=api_v3_business_search&utm_source=8_C4NSGbL05eUQksKleGYw", "transactions": ["delivery"], "phone": "+16172270765", "image_url": "https://s3-media3.fl.yelpcdn.com/bphoto/sq0_SrEbI6SvNhc5i34LPg/o.jpg"}, {"rating": 4.0, "display_phone": "(617) 330-1002", "price": "$", "categories": [{"title": "Sandwiches", "alias": "sandwiches"}, {"title": "Salad", "alias": "salad"}], "coordinates": {"longitude": -71.0573908, "latitude": 42.3520819}, "is_closed": false, "name": "Al's South Street Cafe", "distance": 1232.246371362, "review_count": 167, "id": "als-south-street-cafe-boston", "location": {"display_address": ["179 Essex St", "Boston, MA 02111"], "state": "MA", "city": "Boston", "address2": "", "country": "US", "zip_code": "02111", "address1": "179 Essex St", "address3": ""}, "url": "https://www.yelp.com/biz/als-south-street-cafe-boston?adjust_creative=8_C4NSGbL05eUQksKleGYw&utm_campaign=yelp_api_v3&utm_medium=api_v3_business_search&utm_source=8_C4NSGbL05eUQksKleGYw", "transactions": [], "phone": "+16173301002", "image_url": "https://s3-media1.fl.yelpcdn.com/bphoto/DZtsHccwa8DjnI-HKWwAoA/o.jpg"}, {"rating": 4.0, "display_phone": "(617) 742-0020", "price": "$$", "categories": [{"title": "Italian", "alias": "italian"}], "coordinates": {"longitude": -71.0541488, "latitude": 42.3640943}, "is_closed": false, "name": "Carmelina's", "distance": 2288.87094028, "review_count": 568, "id": "carmelinas-boston-2", "location": {"display_address": ["307 Hanover St", "Boston, MA 02113"], "state": "MA", "city": "Boston", "address2": "", "country": "US", "zip_code": "02113", "address1": "307 Hanover St", "address3": ""}, "url": "https://www.yelp.com/biz/carmelinas-boston-2?adjust_creative=8_C4NSGbL05eUQksKleGYw&utm_campaign=yelp_api_v3&utm_medium=api_v3_business_search&utm_source=8_C4NSGbL05eUQksKleGYw", "transactions": [], "phone": "+16177420020", "image_url": "https://s3-media3.fl.yelpcdn.com/bphoto/qJSoZ8eOLSXkBq92py5zMg/o.jpg"}, {"rating": 4.0, "display_phone": "(617) 292-8828", "price": "$$", "categories": [{"title": "Hot Pot", "alias": "hotpot"}, {"title": "Do-It-Yourself Food", "alias": "diyfood"}, {"title": "Fondue", "alias": "fondue"}], "coordinates": {"longitude": -71.060475, "latitude": 42.350822}, "is_closed": false, "name": "Shabu-Zen", "distance": 944.6529681439999, "review_count": 717, "id": "shabu-zen-boston", "location": {"display_address": ["16 Tyler St", "Boston, MA 02111"], "state": "MA", "city": "Boston", "address2": "", "country": "US", "zip_code": "02111", "address1": "16 Tyler St", "address3": ""}, "url": "https://www.yelp.com/biz/shabu-zen-boston?adjust_creative=8_C4NSGbL05eUQksKleGYw&utm_campaign=yelp_api_v3&utm_medium=api_v3_business_search&utm_source=8_C4NSGbL05eUQksKleGYw", "transactions": [], "phone": "+16172928828", "image_url": "https://s3-media4.fl.yelpcdn.com/bphoto/MzzPIqeynyVSx78Zoq0XAQ/o.jpg"}, {"rating": 4.0, "display_phone": "(617) 523-1373", "price": "$", "categories": [{"title": "Pizza", "alias": "pizza"}, {"title": "Desserts", "alias": "desserts"}], "coordinates": {"longitude": -71.0558242797852, "latitude": 42.363353729248}, "is_closed": false, "name": "Ernesto's", "distance": 2140.0523736679997, "review_count": 577, "id": "ernestos-boston", "location": {"display_address": ["69 Salem St", "Boston, MA 02113"], "state": "MA", "city": "Boston", "address2": null, "country": "US", "zip_code": "02113", "address1": "69 Salem St", "address3": ""}, "url": "https://www.yelp.com/biz/ernestos-boston?adjust_creative=8_C4NSGbL05eUQksKleGYw&utm_campaign=yelp_api_v3&utm_medium=api_v3_business_search&utm_source=8_C4NSGbL05eUQksKleGYw", "transactions": ["delivery"], "phone": "+16175231373", "image_url": "https://s3-media3.fl.yelpcdn.com/bphoto/RnPETYggrID5916lhqJdvg/o.jpg"}, {"rating": 4.5, "display_phone": "(857) 263-7916", "price": "$$", "categories": [{"title": "Salad", "alias": "salad"}, {"title": "Vegetarian", "alias": "vegetarian"}], "coordinates": {"longitude": -71.0477234423169, "latitude": 42.3501618122571}, "is_closed": false, "name": "sweetgreen", "distance": 1950.0981110520001, "review_count": 107, "id": "sweetgreen-boston-3", "location": {"display_address": ["372 Congress St", "Boston, MA 02210"], "state": "MA", "city": "Boston", "address2": "", "country": "US", "zip_code": "02210", "address1": "372 Congress St", "address3": ""}, "url": "https://www.yelp.com/biz/sweetgreen-boston-3?adjust_creative=8_C4NSGbL05eUQksKleGYw&utm_campaign=yelp_api_v3&utm_medium=api_v3_business_search&utm_source=8_C4NSGbL05eUQksKleGYw", "transactions": [], "phone": "+18572637916", "image_url": "https://s3-media2.fl.yelpcdn.com/bphoto/hTc34T7IptRkZ2V31HtGmQ/o.jpg"}, {"rating": 4.5, "display_phone": "(617) 532-9150", "price": "$$", "categories": [{"title": "Cocktail Bars", "alias": "cocktailbars"}], "coordinates": {"longitude": -71.0953666879285, "latitude": 42.3486925877382}, "is_closed": false, "name": "The Hawthorne", "distance": 1984.7790661839997, "review_count": 242, "id": "the-hawthorne-boston-2", "location": {"display_address": ["Hotel Commonwealth", "500A Commonwealth Ave", "Boston, MA 02215"], "state": "MA", "city": "Boston", "address2": "500A Commonwealth Ave", "country": "US", "zip_code": "02215", "address1": "Hotel Commonwealth", "address3": ""}, "url": "https://www.yelp.com/biz/the-hawthorne-boston-2?adjust_creative=8_C4NSGbL05eUQksKleGYw&utm_campaign=yelp_api_v3&utm_medium=api_v3_business_search&utm_source=8_C4NSGbL05eUQksKleGYw", "transactions": [], "phone": "+16175329150", "image_url": "https://s3-media2.fl.yelpcdn.com/bphoto/zdD_eMLEHJEb40u2j10GRg/o.jpg"}, {"rating": 4.0, "display_phone": "(617) 536-6200", "price": "$$", "categories": [{"title": "American (New)", "alias": "newamerican"}, {"title": "Italian", "alias": "italian"}, {"title": "Pizza", "alias": "pizza"}], "coordinates": {"longitude": -71.0761067061516, "latitude": 42.3468620018707}, "is_closed": false, "name": "The Salty Pig", "distance": 414.0047427683999, "review_count": 1070, "id": "the-salty-pig-boston", "location": {"display_address": ["130 Dartmouth St", "Boston, MA 02116"], "state": "MA", "city": "Boston", "address2": "", "country": "US", "zip_code": "02116", "address1": "130 Dartmouth St", "address3": ""}, "url": "https://www.yelp.com/biz/the-salty-pig-boston?adjust_creative=8_C4NSGbL05eUQksKleGYw&utm_campaign=yelp_api_v3&utm_medium=api_v3_business_search&utm_source=8_C4NSGbL05eUQksKleGYw", "transactions": [], "phone": "+16175366200", "image_url": "https://s3-media4.fl.yelpcdn.com/bphoto/0lHTVuN-EiK4Z3fLAqY-9A/o.jpg"}, {"rating": 4.5, "display_phone": "(617) 367-4348", "price": "$$", "categories": [{"title": "Italian", "alias": "italian"}, {"title": "Mediterranean", "alias": "mediterranean"}], "coordinates": {"longitude": -71.05349, "latitude": 42.36454}, "is_closed": false, "name": "Pomodoro", "distance": 2364.994170686, "review_count": 174, "id": "pomodoro-boston-2", "location": {"display_address": ["351 Hanover St", "Boston, MA 02113"], "state": "MA", "city": "Boston", "address2": "", "country": "US", "zip_code": "02113", "address1": "351 Hanover St", "address3": ""}, "url": "https://www.yelp.com/biz/pomodoro-boston-2?adjust_creative=8_C4NSGbL05eUQksKleGYw&utm_campaign=yelp_api_v3&utm_medium=api_v3_business_search&utm_source=8_C4NSGbL05eUQksKleGYw", "transactions": [], "phone": "+16173674348", "image_url": "https://s3-media3.fl.yelpcdn.com/bphoto/uMku93cQlPYtss75TXOdMw/o.jpg"}, {"rating": 4.0, "display_phone": "(617) 780-7139", "price": "$$", "categories": [{"title": "Coffee & Tea", "alias": "coffee"}, {"title": "Sandwiches", "alias": "sandwiches"}, {"title": "Cafes", "alias": "cafes"}], "coordinates": {"longitude": -71.0579220950603, "latitude": 42.3567795753479}, "is_closed": false, "name": "Ogawa Coffee", "distance": 1465.03691956, "review_count": 262, "id": "ogawa-coffee-boston-2", "location": {"display_address": ["10 Milk St", "Boston, MA 02108"], "state": "MA", "city": "Boston", "address2": "", "country": "US", "zip_code": "02108", "address1": "10 Milk St", "address3": ""}, "url": "https://www.yelp.com/biz/ogawa-coffee-boston-2?adjust_creative=8_C4NSGbL05eUQksKleGYw&utm_campaign=yelp_api_v3&utm_medium=api_v3_business_search&utm_source=8_C4NSGbL05eUQksKleGYw", "transactions": [], "phone": "+16177807139", "image_url": "https://s3-media2.fl.yelpcdn.com/bphoto/mNztqxXQXTaoMYEjAW_NHA/o.jpg"}, {"rating": 4.0, "display_phone": "(617) 517-5915", "price": "$$$", "categories": [{"title": "American (New)", "alias": "newamerican"}, {"title": "Bars", "alias": "bars"}], "coordinates": {"longitude": -71.089166, "latitude": 42.349521}, "is_closed": false, "name": "Deuxave", "distance": 1484.5545927449998, "review_count": 393, "id": "deuxave-boston", "location": {"display_address": ["371 Commonwealth Ave", "Boston, MA 02115"], "state": "MA", "city": "Boston", "address2": "", "country": "US", "zip_code": "02115", "address1": "371 Commonwealth Ave", "address3": ""}, "url": "https://www.yelp.com/biz/deuxave-boston?adjust_creative=8_C4NSGbL05eUQksKleGYw&utm_campaign=yelp_api_v3&utm_medium=api_v3_business_search&utm_source=8_C4NSGbL05eUQksKleGYw", "transactions": [], "phone": "+16175175915", "image_url": "https://s3-media1.fl.yelpcdn.com/bphoto/T5yczouXE4xgEURtRduamQ/o.jpg"}, {"rating": 4.0, "display_phone": "(617) 523-3783", "price": "$", "categories": [{"title": "Bakeries", "alias": "bakeries"}, {"title": "Coffee & Tea", "alias": "coffee"}, {"title": "Desserts", "alias": "desserts"}], "coordinates": {"longitude": -71.0547409057617, "latitude": 42.3632507324219}, "is_closed": false, "name": "Modern Pastry Shop", "distance": 2185.660103664, "review_count": 1274, "id": "modern-pastry-shop-boston", "location": {"display_address": ["257 Hanover St", "Boston, MA 02113"], "state": "MA", "city": "Boston", "address2": "", "country": "US", "zip_code": "02113", "address1": "257 Hanover St", "address3": ""}, "url": "https://www.yelp.com/biz/modern-pastry-shop-boston?adjust_creative=8_C4NSGbL05eUQksKleGYw&utm_campaign=yelp_api_v3&utm_medium=api_v3_business_search&utm_source=8_C4NSGbL05eUQksKleGYw", "transactions": ["delivery"], "phone": "+16175233783", "image_url": "https://s3-media1.fl.yelpcdn.com/bphoto/ahWS2VxSune19MjENJbWLA/o.jpg"}, {"rating": 4.5, "display_phone": "(617) 530-1770", "price": "$$$", "categories": [{"title": "Italian", "alias": "italian"}, {"title": "Seafood", "alias": "seafood"}, {"title": "Cocktail Bars", "alias": "cocktailbars"}], "coordinates": {"longitude": -71.0635791144088, "latitude": 42.3445756001492}, "is_closed": false, "name": "Bar Mezzana", "distance": 727.475753824, "review_count": 103, "id": "bar-mezzana-boston", "location": {"display_address": ["360 Harrison Ave", "Boston, MA 02118"], "state": "MA", "city": "Boston", "address2": "", "country": "US", "zip_code": "02118", "address1": "360 Harrison Ave", "address3": ""}, "url": "https://www.yelp.com/biz/bar-mezzana-boston?adjust_creative=8_C4NSGbL05eUQksKleGYw&utm_campaign=yelp_api_v3&utm_medium=api_v3_business_search&utm_source=8_C4NSGbL05eUQksKleGYw", "transactions": [], "phone": "+16175301770", "image_url": "https://s3-media1.fl.yelpcdn.com/bphoto/yO0puhFHIH1Qt8mZNkW82w/o.jpg"}, {"rating": 4.5, "display_phone": "(617) 742-1276", "price": "$$$", "categories": [{"title": "Italian", "alias": "italian"}], "coordinates": {"longitude": -71.0549427, "latitude": 42.3632969}, "is_closed": false, "name": "Aria Trattoria", "distance": 2178.871907544, "review_count": 114, "id": "aria-trattoria-boston", "location": {"display_address": ["253 Hanover St", "Boston, MA 02113"], "state": "MA", "city": "Boston", "address2": "", "country": "US", "zip_code": "02113", "address1": "253 Hanover St", "address3": ""}, "url": "https://www.yelp.com/biz/aria-trattoria-boston?adjust_creative=8_C4NSGbL05eUQksKleGYw&utm_campaign=yelp_api_v3&utm_medium=api_v3_business_search&utm_source=8_C4NSGbL05eUQksKleGYw", "transactions": [], "phone": "+16177421276", "image_url": "https://s3-media1.fl.yelpcdn.com/bphoto/NPAQlQaiPWQUvLRpA2ei8A/o.jpg"}, {"rating": 4.0, "display_phone": "(617) 723-4090", "price": "$$$", "categories": [{"title": "Italian", "alias": "italian"}], "coordinates": {"longitude": -71.069847310732, "latitude": 42.357408381604}, "is_closed": false, "name": "Toscano Restaurant", "distance": 1069.576698172, "review_count": 382, "id": "toscano-restaurant-boston", "location": {"display_address": ["47 Charles St", "Boston, MA 02114"], "state": "MA", "city": "Boston", "address2": "", "country": "US", "zip_code": "02114", "address1": "47 Charles St", "address3": ""}, "url": "https://www.yelp.com/biz/toscano-restaurant-boston?adjust_creative=8_C4NSGbL05eUQksKleGYw&utm_campaign=yelp_api_v3&utm_medium=api_v3_business_search&utm_source=8_C4NSGbL05eUQksKleGYw", "transactions": [], "phone": "+16177234090", "image_url": "https://s3-media3.fl.yelpcdn.com/bphoto/AWBMahACQe5vFXEECqgLZw/o.jpg"}, {"rating": 4.0, "display_phone": "", "price": "$", "categories": [{"title": "Food Trucks", "alias": "foodtrucks"}, {"title": "Fast Food", "alias": "hotdogs"}], "coordinates": {"longitude": -71.0558474063873, "latitude": 42.3529583942053}, "is_closed": false, "name": "Clover", "distance": 1387.196040572, "review_count": 202, "id": "clover-boston-3", "location": {"display_address": ["Dewey Sq", "Boston, MA 02111"], "state": "MA", "city": "Boston", "address2": "", "country": "US", "zip_code": "02111", "address1": "Dewey Sq", "address3": ""}, "url": "https://www.yelp.com/biz/clover-boston-3?adjust_creative=8_C4NSGbL05eUQksKleGYw&utm_campaign=yelp_api_v3&utm_medium=api_v3_business_search&utm_source=8_C4NSGbL05eUQksKleGYw", "transactions": [], "phone": "", "image_url": "https://s3-media3.fl.yelpcdn.com/bphoto/Oei0YBfPx4pSvPCdQDXZEA/o.jpg"}], "total": 24769}