{"total": 29565, "region": {"center": {"latitude": 34.07542999486466, "longitude": -118.32138061523438}}, "businesses": [{"review_count": 19, "distance": 1171.4960394379998, "coordinates": {"latitude": 34.0645232051611, "longitude": -118.309164494276}, "is_closed": false, "name": "Chakan Sul Lung Tang", "price": "$$", "url": "https://www.yelp.com/biz/chakan-sul-lung-tang-los-angeles?adjust_creative=8_C4NSGbL05eUQksKleGYw&utm_campaign=yelp_api_v3&utm_medium=api_v3_business_search&utm_source=8_C4NSGbL05eUQksKleGYw", "transactions": [], "rating": 4.5, "display_phone": "(213) 388-5088", "categories": [{"alias": "korean", "title": "Korean"}, {"alias": "asianfusion", "title": "Asian Fusion"}], "id": "chakan-sul-lung-tang-los-angeles", "phone": "+12133885088", "image_url": "https://s3-media3.fl.yelpcdn.com/bphoto/ASwttEG3YMeVcf5leUvRDA/o.jpg", "location": {"state": "CA", "address1": "543 S Western Ave", "display_address": ["543 S Western Ave", "Los Angeles, CA 90020"], "city": "Los Angeles", "address2": "", "address3": null, "country": "US", "zip_code": "90020"}}, {"review_count": 939, "distance": 1571.4722298, "coordinates": {"latitude": 34.0615549821861, "longitude": -118.304317495701}, "is_closed": false, "name": "Myung Dong Kyoja", "price": "$$", "url": "https://www.yelp.com/biz/myung-dong-kyoja-los-angeles?adjust_creative=8_C4NSGbL05eUQksKleGYw&utm_campaign=yelp_api_v3&utm_medium=api_v3_business_search&utm_source=8_C4NSGbL05eUQksKleGYw", "transactions": [], "rating": 4.0, "display_phone": "(213) 385-7789", "categories": [{"alias": "korean", "title": "Korean"}, {"alias": "noodles", "title": "Noodles"}], "id": "myung-dong-kyoja-los-angeles", "phone": "+12133857789", "image_url": "https://s3-media4.fl.yelpcdn.com/bphoto/NqVVyx0TC32n0opZ1Eh9yg/o.jpg", "location": {"state": "CA", "address1": "3630 Wilshire Blvd", "display_address": ["3630 Wilshire Blvd", "Los Angeles, CA 90010"], "city": "Los Angeles", "address2": null, "address3": "", "country": "US", "zip_code": "90010"}}, {"review_count": 141, "distance": 13529.77448822, "coordinates": {"latitude": 34.1278636, "longitude": -118.4446024}, "is_closed": false, "name": "Fabrocini's Beverly Glen", "price": "$$", "url": "https://www.yelp.com/biz/fabrocinis-beverly-glen-los-angeles-3?adjust_creative=8_C4NSGbL05eUQksKleGYw&utm_campaign=yelp_api_v3&utm_medium=api_v3_business_search&utm_source=8_C4NSGbL05eUQksKleGYw", "transactions": ["delivery"], "rating": 4.0, "display_phone": "(310) 475-7404", "categories": [{"alias": "italian", "title": "Italian"}, {"alias": "pizza", "title": "Pizza"}], "id": "fabrocinis-beverly-glen-los-angeles-3", "phone": "+13104757404", "image_url": "https://s3-media3.fl.yelpcdn.com/bphoto/I4uO8w91uYtdBUQmmK7a2A/o.jpg", "location": {"state": "CA", "address1": "2960 N Beverly Glen Cir", "display_address": ["2960 N Beverly Glen Cir", "Los Angeles, CA 90077"], "city": "Los Angeles", "address2": "", "address3": "", "country": "US", "zip_code": "90077"}}, {"review_count": 212, "distance": 7033.461789076, "coordinates": {"latitude": 34.04825, "longitude": -118.24653}, "is_closed": false, "name": "Spread Mediterranean Kitchen", "price": "$$", "url": "https://www.yelp.com/biz/spread-mediterranean-kitchen-los-angeles?adjust_creative=8_C4NSGbL05eUQksKleGYw&utm_campaign=yelp_api_v3&utm_medium=api_v3_business_search&utm_source=8_C4NSGbL05eUQksKleGYw", "transactions": [], "rating": 4.5, "display_phone": "(213) 537-0284", "categories": [{"alias": "mediterranean", "title": "Mediterranean"}, {"alias": "beer_and_wine", "title": "Beer, Wine & Spirits"}, {"alias": "diners", "title": "Diners"}], "id": "spread-mediterranean-kitchen-los-angeles", "phone": "+12135370284", "image_url": "https://s3-media2.fl.yelpcdn.com/bphoto/H_c8ivI7psNem7aV7gs1uA/o.jpg", "location": {"state": "CA", "address1": "334 S Main St", "display_address": ["334 S Main St", "Los Angeles, CA 90013"], "city": "Los Angeles", "address2": "", "address3": "", "country": "US", "zip_code": "90013"}}, {"review_count": 33, "distance": 1335.854554024, "coordinates": {"latitude": 34.06741, "longitude": -118.30873}, "is_closed": false, "name": "The Nak Gi", "price": "$$", "url": "https://www.yelp.com/biz/the-nak-gi-los-angeles-2?adjust_creative=8_C4NSGbL05eUQksKleGYw&utm_campaign=yelp_api_v3&utm_medium=api_v3_business_search&utm_source=8_C4NSGbL05eUQksKleGYw", "transactions": ["delivery", "pickup"], "rating": 4.5, "display_phone": "(213) 568-3853", "categories": [{"alias": "korean", "title": "Korean"}], "id": "the-nak-gi-los-angeles-2", "phone": "+12135683853", "image_url": "https://s3-media2.fl.yelpcdn.com/bphoto/r_8jPI0NLsPO7Uzjq8M-8Q/o.jpg", "location": {"state": "CA", "address1": "356 S Western Ave", "display_address": ["356 S Western Ave", "203-204", "Los Angeles, CA 90020"], "city": "Los Angeles", "address2": "203-204", "address3": "", "country": "US", "zip_code": "90020"}}, {"review_count": 366, "distance": 7216.786536495999, "coordinates": {"latitude": 34.02946, "longitude": -118.389053}, "is_closed": false, "name": "Almaza", "price": "$$", "url": "https://www.yelp.com/biz/almaza-los-angeles-2?adjust_creative=8_C4NSGbL05eUQksKleGYw&utm_campaign=yelp_api_v3&utm_medium=api_v3_business_search&utm_source=8_C4NSGbL05eUQksKleGYw", "transactions": ["delivery", "pickup"], "rating": 4.0, "display_phone": "(310) 280-9006", "categories": [{"alias": "mediterranean", "title": "Mediterranean"}, {"alias": "desserts", "title": "Desserts"}, {"alias": "sandwiches", "title": "Sandwiches"}], "id": "almaza-los-angeles-2", "phone": "+13102809006", "image_url": "https://s3-media2.fl.yelpcdn.com/bphoto/zLqIyb5f0I39V8grRbxT5w/o.jpg", "location": {"state": "CA", "address1": "8905 W Venice Blvd", "display_address": ["8905 W Venice Blvd", "Los Angeles, CA 90034"], "city": "Los Angeles", "address2": "", "address3": "", "country": "US", "zip_code": "90034"}}, {"review_count": 526, "distance": 3800.3447218039996, "coordinates": {"latitude": 34.0326985382412, "longitude": -118.343422987691}, "is_closed": false, "name": "Honey Bee's House of Breakfast", "price": "$", "url": "https://www.yelp.com/biz/honey-bees-house-of-breakfast-los-angeles?adjust_creative=8_C4NSGbL05eUQksKleGYw&utm_campaign=yelp_api_v3&utm_medium=api_v3_business_search&utm_source=8_C4NSGbL05eUQksKleGYw", "transactions": [], "rating": 4.0, "display_phone": "(323) 731-7203", "categories": [{"alias": "breakfast_brunch", "title": "Breakfast & Brunch"}, {"alias": "salvadoran", "title": "Salvadoran"}, {"alias": "cafeteria", "title": "Cafeteria"}], "id": "honey-bees-house-of-breakfast-los-angeles", "phone": "+13237317203", "image_url": "https://s3-media3.fl.yelpcdn.com/bphoto/EHEC8yEMfq3x93ubjc10Hw/o.jpg", "location": {"state": "CA", "address1": "4715 W Adams Blvd", "display_address": ["4715 W Adams Blvd", "Los Angeles, CA 90016"], "city": "Los Angeles", "address2": "", "address3": "", "country": "US", "zip_code": "90016"}}, {"review_count": 1539, "distance": 8676.06137512, "coordinates": {"latitude": 34.0354537963867, "longitude": -118.232841491699}, "is_closed": false, "name": "Church & State", "price": "$$$", "url": "https://www.yelp.com/biz/church-and-state-los-angeles?adjust_creative=8_C4NSGbL05eUQksKleGYw&utm_campaign=yelp_api_v3&utm_medium=api_v3_business_search&utm_source=8_C4NSGbL05eUQksKleGYw", "transactions": ["pickup"], "rating": 3.5, "display_phone": "(213) 405-1434", "categories": [{"alias": "french", "title": "French"}, {"alias": "bars", "title": "Bars"}], "id": "church-and-state-los-angeles", "phone": "+12134051434", "image_url": "https://s3-media1.fl.yelpcdn.com/bphoto/nZdyPMnCcXn-dvPDwBFZsg/o.jpg", "location": {"state": "CA", "address1": "1850 Industrial St", "display_address": ["1850 Industrial St", "Los Angeles, CA 90021"], "city": "Los Angeles", "address2": "", "address3": "", "country": "US", "zip_code": "90021"}}, {"review_count": 340, "distance": 3535.5381245799995, "coordinates": {"latitude": 34.03191, "longitude": -118.3352549}, "is_closed": false, "name": "Phillips Barbecue", "price": "$$", "url": "https://www.yelp.com/biz/phillips-barbecue-los-angeles-3?adjust_creative=8_C4NSGbL05eUQksKleGYw&utm_campaign=yelp_api_v3&utm_medium=api_v3_business_search&utm_source=8_C4NSGbL05eUQksKleGYw", "transactions": [], "rating": 4.0, "display_phone": "(323) 731-4772", "categories": [{"alias": "bbq", "title": "Barbeque"}], "id": "phillips-barbecue-los-angeles-3", "phone": "+13237314772", "image_url": "https://s3-media1.fl.yelpcdn.com/bphoto/5I13IwSC5H8oMT-FFv_fyg/o.jpg", "location": {"state": "CA", "address1": "2619 Crenshaw Blvd", "display_address": ["2619 Crenshaw Blvd", "Los Angeles, CA 90016"], "city": "Los Angeles", "address2": null, "address3": "", "country": "US", "zip_code": "90016"}}, {"review_count": 1135, "distance": 3703.058992266, "coordinates": {"latitude": 34.0724723090913, "longitude": -118.359377400525}, "is_closed": false, "name": "Marmalade Cafe - LA", "price": "$$", "url": "https://www.yelp.com/biz/marmalade-cafe-la-los-angeles-2?adjust_creative=8_C4NSGbL05eUQksKleGYw&utm_campaign=yelp_api_v3&utm_medium=api_v3_business_search&utm_source=8_C4NSGbL05eUQksKleGYw", "transactions": [], "rating": 4.0, "display_phone": "(323) 954-0088", "categories": [{"alias": "newamerican", "title": "American (New)"}, {"alias": "breakfast_brunch", "title": "Breakfast & Brunch"}, {"alias": "cafes", "title": "Cafes"}], "id": "marmalade-cafe-la-los-angeles-2", "phone": "+13239540088", "image_url": "https://s3-media3.fl.yelpcdn.com/bphoto/VoTUqpTLaqCfnZ4FULtunw/o.jpg", "location": {"state": "CA", "address1": "6333 W 3rd St", "display_address": ["6333 W 3rd St", "Ste E17", "Farmers Market", "Los Angeles, CA 90036"], "city": "Los Angeles", "address2": "Ste E17", "address3": "Farmers Market", "country": "US", "zip_code": "90036"}}, {"review_count": 261, "distance": 10344.949530064, "coordinates": {"latitude": 34.038944, "longitude": -118.43029}, "is_closed": false, "name": "Gulp Restaurant & Brew Pub", "price": "$$", "url": "https://www.yelp.com/biz/gulp-restaurant-and-brew-pub-los-angeles-2?adjust_creative=8_C4NSGbL05eUQksKleGYw&utm_campaign=yelp_api_v3&utm_medium=api_v3_business_search&utm_source=8_C4NSGbL05eUQksKleGYw", "transactions": ["pickup"], "rating": 4.0, "display_phone": "(310) 474-0007", "categories": [{"alias": "gastropubs", "title": "Gastropubs"}, {"alias": "tradamerican", "title": "American (Traditional)"}], "id": "gulp-restaurant-and-brew-pub-los-angeles-2", "phone": "+13104740007", "image_url": "https://s3-media2.fl.yelpcdn.com/bphoto/7Yo9tZYJY_V5hq0KD-1yIg/o.jpg", "location": {"state": "CA", "address1": "10928 W Pico Blvd", "display_address": ["10928 W Pico Blvd", "Los Angeles, CA 90064"], "city": "Los Angeles", "address2": "", "address3": "", "country": "US", "zip_code": "90064"}}, {"review_count": 3513, "distance": 2894.217582986, "coordinates": {"latitude": 34.0832522379857, "longitude": -118.338801201765}, "is_closed": false, "name": "Pizzeria Mozza", "price": "$$$", "url": "https://www.yelp.com/biz/pizzeria-mozza-los-angeles?adjust_creative=8_C4NSGbL05eUQksKleGYw&utm_campaign=yelp_api_v3&utm_medium=api_v3_business_search&utm_source=8_C4NSGbL05eUQksKleGYw", "transactions": [], "rating": 4.0, "display_phone": "(323) 297-0101", "categories": [{"alias": "pizza", "title": "Pizza"}], "id": "pizzeria-mozza-los-angeles", "phone": "+13232970101", "image_url": "https://s3-media1.fl.yelpcdn.com/bphoto/xWP9cvAmMOnMU2nD_vRRGg/o.jpg", "location": {"state": "CA", "address1": "641 N Highland Ave", "display_address": ["641 N Highland Ave", "Los Angeles, CA 90036"], "city": "Los Angeles", "address2": "", "address3": "", "country": "US", "zip_code": "90036"}}, {"review_count": 551, "distance": 6859.327982396, "coordinates": {"latitude": 34.0482422, "longitude": -118.2486874}, "is_closed": false, "name": "Le Petit Paris", "price": "$$$", "url": "https://www.yelp.com/biz/le-petit-paris-los-angeles-3?adjust_creative=8_C4NSGbL05eUQksKleGYw&utm_campaign=yelp_api_v3&utm_medium=api_v3_business_search&utm_source=8_C4NSGbL05eUQksKleGYw", "transactions": [], "rating": 4.0, "display_phone": "(213) 217-4445", "categories": [{"alias": "french", "title": "French"}, {"alias": "cocktailbars", "title": "Cocktail Bars"}, {"alias": "brasseries", "title": "Brasseries"}], "id": "le-petit-paris-los-angeles-3", "phone": "+12132174445", "image_url": "https://s3-media3.fl.yelpcdn.com/bphoto/DXXsqREkgoqdqWyRWnPh1A/o.jpg", "location": {"state": "CA", "address1": "418 /420 S Spring St", "display_address": ["418 /420 S Spring St", "Los Angeles, CA 90013"], "city": "Los Angeles", "address2": "", "address3": "", "country": "US", "zip_code": "90013"}}, {"review_count": 65, "distance": 2243.892140356, "coordinates": {"latitude": 34.0478553771973, "longitude": -118.317260742188}, "is_closed": false, "name": "Huitlacoche", "price": "$", "url": "https://www.yelp.com/biz/huitlacoche-los-angeles?adjust_creative=8_C4NSGbL05eUQksKleGYw&utm_campaign=yelp_api_v3&utm_medium=api_v3_business_search&utm_source=8_C4NSGbL05eUQksKleGYw", "transactions": [], "rating": 5.0, "display_phone": "(323) 381-0688", "categories": [{"alias": "foodtrucks", "title": "Food Trucks"}, {"alias": "mexican", "title": "Mexican"}], "id": "huitlacoche-los-angeles", "phone": "+13233810688", "image_url": "https://s3-media3.fl.yelpcdn.com/bphoto/6eN7Ky4wxVeBa1SJBM7Zmg/o.jpg", "location": {"state": "CA", "address1": "", "display_address": ["Los Angeles, CA 90019"], "city": "Los Angeles", "address2": "", "address3": "", "country": "US", "zip_code": "90019"}}, {"review_count": 277, "distance": 5486.042754916, "coordinates": {"latitude": 34.1042868132788, "longitude": -118.291536018424}, "is_closed": false, "name": "Tacos Tu Madre", "price": "$", "url": "https://www.yelp.com/biz/tacos-tu-madre-los-angeles-4?adjust_creative=8_C4NSGbL05eUQksKleGYw&utm_campaign=yelp_api_v3&utm_medium=api_v3_business_search&utm_source=8_C4NSGbL05eUQksKleGYw", "transactions": [], "rating": 3.5, "display_phone": "(323) 522-3651", "categories": [{"alias": "mexican", "title": "Mexican"}, {"alias": "breakfast_brunch", "title": "Breakfast & Brunch"}, {"alias": "tapasmallplates", "title": "Tapas/Small Plates"}], "id": "tacos-tu-madre-los-angeles-4", "phone": "+13235223651", "image_url": "https://s3-media2.fl.yelpcdn.com/bphoto/EIpMbCW2FvNpSXXqrZ-d9A/o.jpg", "location": {"state": "CA", "address1": "1824 N Vermont Ave", "display_address": ["1824 N Vermont Ave", "Los Angeles, CA 90027"], "city": "Los Angeles", "address2": "", "address3": "", "country": "US", "zip_code": "90027"}}, {"review_count": 182, "distance": 13353.830174039998, "coordinates": {"latitude": 34.0786918481748, "longitude": -118.177881403922}, "is_closed": false, "name": "Dough Box Pizza & Bread", "price": "$$", "url": "https://www.yelp.com/biz/dough-box-pizza-and-bread-los-angeles-3?adjust_creative=8_C4NSGbL05eUQksKleGYw&utm_campaign=yelp_api_v3&utm_medium=api_v3_business_search&utm_source=8_C4NSGbL05eUQksKleGYw", "transactions": [], "rating": 4.5, "display_phone": "(323) 346-6811", "categories": [{"alias": "pizza", "title": "Pizza"}], "id": "dough-box-pizza-and-bread-los-angeles-3", "phone": "+13233466811", "image_url": "https://s3-media2.fl.yelpcdn.com/bphoto/OQYgasB--E2ZQUhXQ7WHSw/o.jpg", "location": {"state": "CA", "address1": "2734 N Eastern Ave", "display_address": ["2734 N Eastern Ave", "Los Angeles, CA 90032"], "city": "Los Angeles", "address2": null, "address3": "", "country": "US", "zip_code": "90032"}}, {"review_count": 72, "distance": 2220.139891296, "coordinates": {"latitude": 34.0630912780762, "longitude": -118.297538757324}, "is_closed": false, "name": "Mountain Cafe", "price": "$", "url": "https://www.yelp.com/biz/mountain-cafe-los-angeles-4?adjust_creative=8_C4NSGbL05eUQksKleGYw&utm_campaign=yelp_api_v3&utm_medium=api_v3_business_search&utm_source=8_C4NSGbL05eUQksKleGYw", "transactions": [], "rating": 4.0, "display_phone": "(213) 487-7615", "categories": [{"alias": "korean", "title": "Korean"}], "id": "mountain-cafe-los-angeles-4", "phone": "+12134877615", "image_url": "https://s3-media2.fl.yelpcdn.com/bphoto/O0Q5q5JCmlu2grgWPPMszQ/o.jpg", "location": {"state": "CA", "address1": "3470 W 6th St", "display_address": ["3470 W 6th St", "Los Angeles, CA 90020"], "city": "Los Angeles", "address2": "", "address3": "", "country": "US", "zip_code": "90020"}}, {"review_count": 6, "distance": 9058.332089604, "coordinates": {"latitude": 34.0292873376909, "longitude": -118.231128640473}, "is_closed": false, "name": "Norigami", "url": "https://www.yelp.com/biz/norigami-los-angeles-2?adjust_creative=8_C4NSGbL05eUQksKleGYw&utm_campaign=yelp_api_v3&utm_medium=api_v3_business_search&utm_source=8_C4NSGbL05eUQksKleGYw", "transactions": [], "rating": 5.0, "display_phone": "", "location": {"state": "CA", "address1": "", "display_address": ["Los Angeles, CA 90001"], "city": "Los Angeles", "address2": "", "address3": null, "country": "US", "zip_code": "90001"}, "id": "norigami-los-angeles-2", "phone": "", "image_url": "https://s3-media1.fl.yelpcdn.com/bphoto/uyRjzcbWdlpsm7jlgJJmHA/o.jpg", "categories": [{"alias": "japanese", "title": "Japanese"}, {"alias": "sushi", "title": "Sushi Bars"}]}, {"review_count": 90, "distance": 10390.773555356, "coordinates": {"latitude": 34.045078, "longitude": -118.432335}, "is_closed": false, "name": "The West End: Craft Bar and Neighborhood Kitchen", "price": "$$", "url": "https://www.yelp.com/biz/the-west-end-craft-bar-and-neighborhood-kitchen-los-angeles?adjust_creative=8_C4NSGbL05eUQksKleGYw&utm_campaign=yelp_api_v3&utm_medium=api_v3_business_search&utm_source=8_C4NSGbL05eUQksKleGYw", "transactions": [], "rating": 4.0, "display_phone": "(310) 470-6601", "categories": [{"alias": "tapasmallplates", "title": "Tapas/Small Plates"}, {"alias": "newamerican", "title": "American (New)"}, {"alias": "gastropubs", "title": "Gastropubs"}], "id": "the-west-end-craft-bar-and-neighborhood-kitchen-los-angeles", "phone": "+13104706601", "image_url": "https://s3-media2.fl.yelpcdn.com/bphoto/u4HfA4mJ-XU-dql8lO0y7A/o.jpg", "location": {"state": "CA", "address1": "2116-B Westwood Blvd", "display_address": ["2116-B Westwood Blvd", "Los Angeles, CA 90025"], "city": "Los Angeles", "address2": "", "address3": "", "country": "US", "zip_code": "90025"}}, {"review_count": 33, "distance": 10395.70795273, "coordinates": {"latitude": 34.1396434, "longitude": -118.3835196}, "is_closed": false, "name": "Tere's Mexican Grill", "price": "$$", "url": "https://www.yelp.com/biz/teres-mexican-grill-los-angeles-3?adjust_creative=8_C4NSGbL05eUQksKleGYw&utm_campaign=yelp_api_v3&utm_medium=api_v3_business_search&utm_source=8_C4NSGbL05eUQksKleGYw", "transactions": [], "rating": 4.5, "display_phone": "(818) 452-9263", "categories": [{"alias": "mexican", "title": "Mexican"}, {"alias": "desserts", "title": "Desserts"}, {"alias": "salad", "title": "Salad"}], "id": "teres-mexican-grill-los-angeles-3", "phone": "+18184529263", "image_url": "https://s3-media1.fl.yelpcdn.com/bphoto/KKyyVdhBMWH9tHPbaQyOSQ/o.jpg", "location": {"state": "CA", "address1": "11548 Ventura Blvd", "display_address": ["11548 Ventura Blvd", "Los Angeles, CA 91604"], "city": "Los Angeles", "address2": "", "address3": null, "country": "US", "zip_code": "91604"}}, {"review_count": 225, "distance": 9518.366595689999, "coordinates": {"latitude": 34.04302, "longitude": -118.42214}, "is_closed": false, "name": "Totoraku", "price": "$$$$", "url": "https://www.yelp.com/biz/totoraku-los-angeles?adjust_creative=8_C4NSGbL05eUQksKleGYw&utm_campaign=yelp_api_v3&utm_medium=api_v3_business_search&utm_source=8_C4NSGbL05eUQksKleGYw", "transactions": [], "rating": 4.5, "display_phone": "(310) 838-9881", "categories": [{"alias": "japanese", "title": "Japanese"}], "id": "totoraku-los-angeles", "phone": "+13108389881", "image_url": "https://s3-media3.fl.yelpcdn.com/bphoto/xZw6rLHhPgVRokKVeKKbCA/o.jpg", "location": {"state": "CA", "address1": "10610 W Pico Blvd", "display_address": ["10610 W Pico Blvd", "Los Angeles, CA 90064"], "city": "Los Angeles", "address2": "", "address3": "", "country": "US", "zip_code": "90064"}}, {"review_count": 415, "distance": 13405.948649939999, "coordinates": {"latitude": 34.1273687, "longitude": -118.4443859}, "is_closed": false, "name": "Vibrato Grill Jazz", "price": "$$$", "url": "https://www.yelp.com/biz/vibrato-grill-jazz-los-angeles?adjust_creative=8_C4NSGbL05eUQksKleGYw&utm_campaign=yelp_api_v3&utm_medium=api_v3_business_search&utm_source=8_C4NSGbL05eUQksKleGYw", "transactions": [], "rating": 4.0, "display_phone": "(310) 474-9400", "categories": [{"alias": "newamerican", "title": "American (New)"}, {"alias": "salad", "title": "Salad"}, {"alias": "jazzandblues", "title": "Jazz & Blues"}], "id": "vibrato-grill-jazz-los-angeles", "phone": "+13104749400", "image_url": "https://s3-media1.fl.yelpcdn.com/bphoto/FvDeDBzzRBnoIaGqyrA-Aw/o.jpg", "location": {"state": "CA", "address1": "2930 N Beverly Glen Cir", "display_address": ["2930 N Beverly Glen Cir", "Los Angeles, CA 90077"], "city": "Los Angeles", "address2": "", "address3": "", "country": "US", "zip_code": "90077"}}, {"review_count": 306, "distance": 4897.588710454, "coordinates": {"latitude": 34.1053549, "longitude": -118.3246985}, "is_closed": false, "name": "Papilles Bistro", "price": "$$$", "url": "https://www.yelp.com/biz/papilles-bistro-los-angeles?adjust_creative=8_C4NSGbL05eUQksKleGYw&utm_campaign=yelp_api_v3&utm_medium=api_v3_business_search&utm_source=8_C4NSGbL05eUQksKleGYw", "transactions": [], "rating": 4.5, "display_phone": "(323) 871-2026", "categories": [{"alias": "french", "title": "French"}], "id": "papilles-bistro-los-angeles", "phone": "+13238712026", "image_url": "https://s3-media2.fl.yelpcdn.com/bphoto/e4gZnptWecMxx9RKNCiikQ/o.jpg", "location": {"state": "CA", "address1": "6221 Franklin Ave", "display_address": ["6221 Franklin Ave", "Los Angeles, CA 90028"], "city": "Los Angeles", "address2": "", "address3": "", "country": "US", "zip_code": "90028"}}, {"review_count": 298, "distance": 13441.778995699999, "coordinates": {"latitude": 33.957713033813, "longitude": -118.395974141022}, "is_closed": false, "name": "Kanpai Japanese Sushi Bar & Grill 2", "price": "$$", "url": "https://www.yelp.com/biz/kanpai-japanese-sushi-bar-and-grill-2-los-angeles?adjust_creative=8_C4NSGbL05eUQksKleGYw&utm_campaign=yelp_api_v3&utm_medium=api_v3_business_search&utm_source=8_C4NSGbL05eUQksKleGYw", "transactions": ["pickup"], "rating": 4.0, "display_phone": "(310) 670-0533", "categories": [{"alias": "sushi", "title": "Sushi Bars"}, {"alias": "ramen", "title": "Ramen"}], "id": "kanpai-japanese-sushi-bar-and-grill-2-los-angeles", "phone": "+13106700533", "image_url": "https://s3-media3.fl.yelpcdn.com/bphoto/mMdKLPHU-ZmfN5dOeic-cw/o.jpg", "location": {"state": "CA", "address1": "8736 S Sepulveda Blvd", "display_address": ["8736 S Sepulveda Blvd", "Ste C", "Los Angeles, CA 90045"], "city": "Los Angeles", "address2": "Ste C", "address3": "", "country": "US", "zip_code": "90045"}}, {"review_count": 39, "distance": 6304.703391272, "coordinates": {"latitude": 34.04813, "longitude": -118.25484}, "is_closed": false, "name": "Astro Doughnuts & Fried Chicken", "price": "$$", "url": "https://www.yelp.com/biz/astro-doughnuts-and-fried-chicken-los-angeles?adjust_creative=8_C4NSGbL05eUQksKleGYw&utm_campaign=yelp_api_v3&utm_medium=api_v3_business_search&utm_source=8_C4NSGbL05eUQksKleGYw", "transactions": [], "rating": 4.0, "display_phone": "(213) 622-7876", "categories": [{"alias": "chickenshop", "title": "Chicken Shop"}, {"alias": "donuts", "title": "Donuts"}, {"alias": "hotdogs", "title": "Fast Food"}], "id": "astro-doughnuts-and-fried-chicken-los-angeles", "phone": "+12136227876", "image_url": "https://s3-media4.fl.yelpcdn.com/bphoto/Ua70n2MwJsO6mMjQNC4mBw/o.jpg", "location": {"state": "CA", "address1": "516 W 6th St", "display_address": ["516 W 6th St", "Los Angeles, CA 90014"], "city": "Los Angeles", "address2": "", "address3": null, "country": "US", "zip_code": "90014"}}, {"review_count": 312, "distance": 2586.3450473619996, "coordinates": {"latitude": 34.0576939, "longitude": -118.2937043}, "is_closed": false, "name": "Tofu and Noodles", "price": "$$", "url": "https://www.yelp.com/biz/tofu-and-noodles-los-angeles-2?adjust_creative=8_C4NSGbL05eUQksKleGYw&utm_campaign=yelp_api_v3&utm_medium=api_v3_business_search&utm_source=8_C4NSGbL05eUQksKleGYw", "transactions": ["pickup"], "rating": 4.5, "display_phone": "(213) 915-0256", "categories": [{"alias": "korean", "title": "Korean"}, {"alias": "soup", "title": "Soup"}, {"alias": "noodles", "title": "Noodles"}], "id": "tofu-and-noodles-los-angeles-2", "phone": "+12139150256", "image_url": "https://s3-media1.fl.yelpcdn.com/bphoto/oBl3COoVC19rvIh2iUkW6Q/o.jpg", "location": {"state": "CA", "address1": "3068 W 8th St", "display_address": ["3068 W 8th St", "Los Angeles, CA 90005"], "city": "Los Angeles", "address2": "", "address3": "", "country": "US", "zip_code": "90005"}}, {"review_count": 357, "distance": 1340.600014882, "coordinates": {"latitude": 34.067756012401, "longitude": -118.308878212251}, "is_closed": false, "name": "Mister Bossam", "price": "$$", "url": "https://www.yelp.com/biz/mister-bossam-los-angeles?adjust_creative=8_C4NSGbL05eUQksKleGYw&utm_campaign=yelp_api_v3&utm_medium=api_v3_business_search&utm_source=8_C4NSGbL05eUQksKleGYw", "transactions": ["delivery", "pickup"], "rating": 4.0, "display_phone": "(213) 388-5379", "categories": [{"alias": "korean", "title": "Korean"}], "id": "mister-bossam-los-angeles", "phone": "+12133885379", "image_url": "https://s3-media2.fl.yelpcdn.com/bphoto/yQVZlmntLwWVovZR4L0dzw/o.jpg", "location": {"state": "CA", "address1": "338 S Western Ave", "display_address": ["338 S Western Ave", "Los Angeles, CA 90020"], "city": "Los Angeles", "address2": "", "address3": "", "country": "US", "zip_code": "90020"}}, {"review_count": 913, "distance": 11393.980750059998, "coordinates": {"latitude": 34.0604028405844, "longitude": -118.445061835982}, "is_closed": false, "name": "TLT Food", "price": "$$", "url": "https://www.yelp.com/biz/tlt-food-los-angeles?adjust_creative=8_C4NSGbL05eUQksKleGYw&utm_campaign=yelp_api_v3&utm_medium=api_v3_business_search&utm_source=8_C4NSGbL05eUQksKleGYw", "transactions": ["delivery", "pickup"], "rating": 4.0, "display_phone": "(310) 443-4433", "categories": [{"alias": "newamerican", "title": "American (New)"}, {"alias": "mexican", "title": "Mexican"}], "id": "tlt-food-los-angeles", "phone": "+13104434433", "image_url": "https://s3-media2.fl.yelpcdn.com/bphoto/Prrv5QsQ28qy-If5jIwvYw/o.jpg", "location": {"state": "CA", "address1": "1116 Westwood Blvd", "display_address": ["1116 Westwood Blvd", "Los Angeles, CA 90024"], "city": "Los Angeles", "address2": null, "address3": "", "country": "US", "zip_code": "90024"}}, {"review_count": 50, "distance": 6801.976898419999, "coordinates": {"latitude": 34.118312064463, "longitude": -118.293733642467}, "is_closed": false, "name": "Roosevelt Cafe", "price": "$$", "url": "https://www.yelp.com/biz/roosevelt-cafe-los-angeles?adjust_creative=8_C4NSGbL05eUQksKleGYw&utm_campaign=yelp_api_v3&utm_medium=api_v3_business_search&utm_source=8_C4NSGbL05eUQksKleGYw", "transactions": ["pickup"], "rating": 4.0, "display_phone": "(323) 284-5613", "categories": [{"alias": "burgers", "title": "Burgers"}, {"alias": "pizza", "title": "Pizza"}, {"alias": "sandwiches", "title": "Sandwiches"}], "id": "roosevelt-cafe-los-angeles", "phone": "+13232845613", "image_url": "https://s3-media3.fl.yelpcdn.com/bphoto/jcNPTKmRkkE3Xx_UjncrAw/o.jpg", "location": {"state": "CA", "address1": "2650 N Vermont Ave", "display_address": ["2650 N Vermont Ave", "Los Angeles, CA 90027"], "city": "Los Angeles", "address2": "", "address3": "", "country": "US", "zip_code": "90027"}}, {"review_count": 85, "distance": 1399.4318043117999, "coordinates": {"latitude": 34.0628631, "longitude": -118.3062672}, "is_closed": false, "name": "Kitchen Sooda", "price": "$$", "url": "https://www.yelp.com/biz/kitchen-sooda-los-angeles?adjust_creative=8_C4NSGbL05eUQksKleGYw&utm_campaign=yelp_api_v3&utm_medium=api_v3_business_search&utm_source=8_C4NSGbL05eUQksKleGYw", "transactions": [], "rating": 4.0, "display_phone": "(323) 741-0159", "categories": [{"alias": "seafood", "title": "Seafood"}, {"alias": "bars", "title": "Bars"}, {"alias": "asianfusion", "title": "Asian Fusion"}], "id": "kitchen-sooda-los-angeles", "phone": "+13237410159", "image_url": "https://s3-media1.fl.yelpcdn.com/bphoto/lRnrZKLUmmuFSSNiQOTu6Q/o.jpg", "location": {"state": "CA", "address1": "618 S Serrano Ave", "display_address": ["618 S Serrano Ave", "Fl 1", "Los Angeles, CA 90005"], "city": "Los Angeles", "address2": "Fl 1", "address3": "", "country": "US", "zip_code": "90005"}}, {"review_count": 427, "distance": 5558.918176268, "coordinates": {"latitude": 34.097541809082, "longitude": -118.363555908203}, "is_closed": false, "name": "EVO Kitchen", "price": "$$", "url": "https://www.yelp.com/biz/evo-kitchen-los-angeles?adjust_creative=8_C4NSGbL05eUQksKleGYw&utm_campaign=yelp_api_v3&utm_medium=api_v3_business_search&utm_source=8_C4NSGbL05eUQksKleGYw", "transactions": ["delivery", "pickup"], "rating": 4.0, "display_phone": "(323) 375-3390", "categories": [{"alias": "gluten_free", "title": "Gluten-Free"}, {"alias": "pizza", "title": "Pizza"}, {"alias": "vegan", "title": "Vegan"}], "id": "evo-kitchen-los-angeles", "phone": "+13233753390", "image_url": "https://s3-media2.fl.yelpcdn.com/bphoto/BvwFKqmwB2dhfamHj-E1Yw/o.jpg", "location": {"state": "CA", "address1": "7950 Sunset Blvd", "display_address": ["7950 Sunset Blvd", "Ste 104", "Los Angeles, CA 90046"], "city": "Los Angeles", "address2": "Ste 104", "address3": "", "country": "US", "zip_code": "90046"}}, {"review_count": 579, "distance": 6792.91550955, "coordinates": {"latitude": 34.0507299112262, "longitude": -118.248818814755}, "is_closed": false, "name": "Sticky Rice", "price": "$$", "url": "https://www.yelp.com/biz/sticky-rice-los-angeles?adjust_creative=8_C4NSGbL05eUQksKleGYw&utm_campaign=yelp_api_v3&utm_medium=api_v3_business_search&utm_source=8_C4NSGbL05eUQksKleGYw", "transactions": [], "rating": 4.0, "display_phone": "(213) 621-2865", "categories": [{"alias": "thai", "title": "Thai"}], "id": "sticky-rice-los-angeles", "phone": "+12136212865", "image_url": "https://s3-media3.fl.yelpcdn.com/bphoto/uIl6-gH_TBAr_iEc6chWhw/o.jpg", "location": {"state": "CA", "address1": "317 S Broadway", "display_address": ["317 S Broadway", "Ste C-4-5", "Los Angeles, CA 90013"], "city": "Los Angeles", "address2": "Ste C-4-5", "address3": "", "country": "US", "zip_code": "90013"}}, {"review_count": 203, "distance": 6436.722218558, "coordinates": {"latitude": 34.05287, "longitude": -118.2522}, "is_closed": false, "name": "Nick + Stef's Steakhouse", "price": "$$$", "url": "https://www.yelp.com/biz/nick-stefs-steakhouse-los-angeles-3?adjust_creative=8_C4NSGbL05eUQksKleGYw&utm_campaign=yelp_api_v3&utm_medium=api_v3_business_search&utm_source=8_C4NSGbL05eUQksKleGYw", "transactions": [], "rating": 4.0, "display_phone": "(213) 680-0330", "categories": [{"alias": "steak", "title": "Steakhouses"}], "id": "nick-stefs-steakhouse-los-angeles-3", "phone": "+12136800330", "image_url": "https://s3-media3.fl.yelpcdn.com/bphoto/V4DjYgbUSiXs78gOXUDWAg/o.jpg", "location": {"state": "CA", "address1": "330 S Hope St", "display_address": ["330 S Hope St", "Los Angeles, CA 90071"], "city": "Los Angeles", "address2": "", "address3": "", "country": "US", "zip_code": "90071"}}, {"review_count": 123, "distance": 10986.141002589999, "coordinates": {"latitude": 34.0538361065561, "longitude": -118.440269194543}, "is_closed": false, "name": "The Kitchen At Westwood", "price": "$$", "url": "https://www.yelp.com/biz/the-kitchen-at-westwood-los-angeles?adjust_creative=8_C4NSGbL05eUQksKleGYw&utm_campaign=yelp_api_v3&utm_medium=api_v3_business_search&utm_source=8_C4NSGbL05eUQksKleGYw", "transactions": ["delivery", "pickup"], "rating": 4.5, "display_phone": "(310) 474-8444", "categories": [{"alias": "mediterranean", "title": "Mediterranean"}, {"alias": "turkish", "title": "Turkish"}, {"alias": "halal", "title": "Halal"}], "id": "the-kitchen-at-westwood-los-angeles", "phone": "+13104748444", "image_url": "https://s3-media2.fl.yelpcdn.com/bphoto/4zDE7vPUkGkjd9whpUFpXA/o.jpg", "location": {"state": "CA", "address1": "1510 Westwood Blvd", "display_address": ["1510 Westwood Blvd", "Los Angeles, CA 90024"], "city": "Los Angeles", "address2": "", "address3": "", "country": "US", "zip_code": "90024"}}, {"review_count": 575, "distance": 6173.436608567999, "coordinates": {"latitude": 34.077356879173, "longitude": -118.385645328462}, "is_closed": false, "name": "Madeo Restaurant", "price": "$$$$", "url": "https://www.yelp.com/biz/madeo-restaurant-los-angeles-3?adjust_creative=8_C4NSGbL05eUQksKleGYw&utm_campaign=yelp_api_v3&utm_medium=api_v3_business_search&utm_source=8_C4NSGbL05eUQksKleGYw", "transactions": [], "rating": 4.0, "display_phone": "(310) 859-4903", "categories": [{"alias": "italian", "title": "Italian"}], "id": "madeo-restaurant-los-angeles-3", "phone": "+13108594903", "image_url": "https://s3-media2.fl.yelpcdn.com/bphoto/uGYZDH2l3ka6nBHOfmUAYA/o.jpg", "location": {"state": "CA", "address1": "8897 Beverly Blvd", "display_address": ["8897 Beverly Blvd", "Los Angeles, CA 90048"], "city": "Los Angeles", "address2": null, "address3": null, "country": "US", "zip_code": "90048"}}, {"review_count": 206, "distance": 15427.85905234, "coordinates": {"latitude": 33.9411401917076, "longitude": -118.404446638623}, "is_closed": false, "name": "Farmers Market LAX", "price": "$$", "url": "https://www.yelp.com/biz/farmers-market-lax-los-angeles?adjust_creative=8_C4NSGbL05eUQksKleGYw&utm_campaign=yelp_api_v3&utm_medium=api_v3_business_search&utm_source=8_C4NSGbL05eUQksKleGYw", "transactions": [], "rating": 4.0, "display_phone": "(626) 497-0804", "categories": [{"alias": "farmersmarket", "title": "Farmers Market"}, {"alias": "mexican", "title": "Mexican"}, {"alias": "french", "title": "French"}], "id": "farmers-market-lax-los-angeles", "phone": "+16264970804", "image_url": "https://s3-media3.fl.yelpcdn.com/bphoto/LERYT49g0VsJ--wBL3KwIA/o.jpg", "location": {"state": "CA", "address1": "500 World Way", "display_address": ["500 World Way", "Los Angeles, CA 90045"], "city": "Los Angeles", "address2": null, "address3": "", "country": "US", "zip_code": "90045"}}, {"review_count": 56, "distance": 5783.523460291999, "coordinates": {"latitude": 34.0973541677846, "longitude": -118.275790887418}, "is_closed": false, "name": "Kope Poki", "price": "$$", "url": "https://www.yelp.com/biz/kope-poki-los-angeles?adjust_creative=8_C4NSGbL05eUQksKleGYw&utm_campaign=yelp_api_v3&utm_medium=api_v3_business_search&utm_source=8_C4NSGbL05eUQksKleGYw", "transactions": [], "rating": 5.0, "display_phone": "(323) 522-3182", "categories": [{"alias": "poke", "title": "Poke"}, {"alias": "seafood", "title": "Seafood"}, {"alias": "hawaiian", "title": "Hawaiian"}], "id": "kope-poki-los-angeles", "phone": "+13235223182", "image_url": "https://s3-media3.fl.yelpcdn.com/bphoto/FiU0ISqsWxApG0gpKzbAKA/o.jpg", "location": {"state": "CA", "address1": "1903 Hyperion Ave", "display_address": ["1903 Hyperion Ave", "Los Angeles, CA 90027"], "city": "Los Angeles", "address2": "", "address3": null, "country": "US", "zip_code": "90027"}}, {"review_count": 52, "distance": 6865.6456075, "coordinates": {"latitude": 34.0451582, "longitude": -118.2495361}, "is_closed": false, "name": "Wake & Late", "price": "$", "url": "https://www.yelp.com/biz/wake-and-late-los-angeles-3?adjust_creative=8_C4NSGbL05eUQksKleGYw&utm_campaign=yelp_api_v3&utm_medium=api_v3_business_search&utm_source=8_C4NSGbL05eUQksKleGYw", "transactions": ["pickup"], "rating": 4.5, "display_phone": "(213) 537-0820", "categories": [{"alias": "coffee", "title": "Coffee & Tea"}, {"alias": "breakfast_brunch", "title": "Breakfast & Brunch"}, {"alias": "newamerican", "title": "American (New)"}], "id": "wake-and-late-los-angeles-3", "phone": "+12135370820", "image_url": "https://s3-media1.fl.yelpcdn.com/bphoto/YJ6xl-OMzObyX1dQGU2b3w/o.jpg", "location": {"state": "CA", "address1": "105 E 6th St", "display_address": ["105 E 6th St", "Los Angeles, CA 90014"], "city": "Los Angeles", "address2": "", "address3": null, "country": "US", "zip_code": "90014"}}, {"review_count": 114, "distance": 6950.32425028, "coordinates": {"latitude": 34.0506788, "longitude": -118.2470936}, "is_closed": false, "name": "Spring", "price": "$$$", "url": "https://www.yelp.com/biz/spring-los-angeles-3?adjust_creative=8_C4NSGbL05eUQksKleGYw&utm_campaign=yelp_api_v3&utm_medium=api_v3_business_search&utm_source=8_C4NSGbL05eUQksKleGYw", "transactions": [], "rating": 4.0, "display_phone": "(213) 372-5189", "categories": [{"alias": "french", "title": "French"}], "id": "spring-los-angeles-3", "phone": "+12133725189", "image_url": "https://s3-media3.fl.yelpcdn.com/bphoto/ZFRjAAspdiejG9Mtz-W90A/o.jpg", "location": {"state": "CA", "address1": "257 S Spring St", "display_address": ["257 S Spring St", "Los Angeles, CA 90012"], "city": "Los Angeles", "address2": "", "address3": "", "country": "US", "zip_code": "90012"}}, {"review_count": 735, "distance": 4586.394336136, "coordinates": {"latitude": 34.0839249, "longitude": -118.3630799}, "is_closed": false, "name": "Carlitos Gardel", "price": "$$$", "url": "https://www.yelp.com/biz/carlitos-gardel-los-angeles-3?adjust_creative=8_C4NSGbL05eUQksKleGYw&utm_campaign=yelp_api_v3&utm_medium=api_v3_business_search&utm_source=8_C4NSGbL05eUQksKleGYw", "transactions": [], "rating": 4.5, "display_phone": "(323) 655-0891", "categories": [{"alias": "argentine", "title": "Argentine"}, {"alias": "steak", "title": "Steakhouses"}], "id": "carlitos-gardel-los-angeles-3", "phone": "+13236550891", "image_url": "https://s3-media2.fl.yelpcdn.com/bphoto/3tG7ce0TLVCidV7HnezOmw/o.jpg", "location": {"state": "CA", "address1": "7963 Melrose Ave", "display_address": ["7963 Melrose Ave", "Los Angeles, CA 90046"], "city": "Los Angeles", "address2": "", "address3": "", "country": "US", "zip_code": "90046"}}, {"review_count": 1135, "distance": 4735.26488443, "coordinates": {"latitude": 34.1013265448907, "longitude": -118.302894830704}, "is_closed": false, "name": "Sanamluang Cafe", "price": "$", "url": "https://www.yelp.com/biz/sanamluang-cafe-los-angeles?adjust_creative=8_C4NSGbL05eUQksKleGYw&utm_campaign=yelp_api_v3&utm_medium=api_v3_business_search&utm_source=8_C4NSGbL05eUQksKleGYw", "transactions": [], "rating": 4.0, "display_phone": "(323) 660-8006", "categories": [{"alias": "thai", "title": "Thai"}], "id": "sanamluang-cafe-los-angeles", "phone": "+13236608006", "image_url": "https://s3-media2.fl.yelpcdn.com/bphoto/JoutsOUZBGrQ-qdbsWvdmA/o.jpg", "location": {"state": "CA", "address1": "5176 Hollywood Blvd", "display_address": ["5176 Hollywood Blvd", "Los Angeles, CA 90027"], "city": "Los Angeles", "address2": "", "address3": "", "country": "US", "zip_code": "90027"}}, {"review_count": 56, "distance": 10989.929549883998, "coordinates": {"latitude": 34.0530658, "longitude": -118.4400299}, "is_closed": false, "name": "Asuka", "price": "$$$", "url": "https://www.yelp.com/biz/asuka-los-angeles-2?adjust_creative=8_C4NSGbL05eUQksKleGYw&utm_campaign=yelp_api_v3&utm_medium=api_v3_business_search&utm_source=8_C4NSGbL05eUQksKleGYw", "transactions": [], "rating": 4.5, "display_phone": "(424) 832-7284", "categories": [{"alias": "sushi", "title": "Sushi Bars"}, {"alias": "japanese", "title": "Japanese"}], "id": "asuka-los-angeles-2", "phone": "+14248327284", "image_url": "https://s3-media4.fl.yelpcdn.com/bphoto/zJ-b5Cu5GAmkC0kIh0APKA/o.jpg", "location": {"state": "CA", "address1": "1553 Westwood Blvd", "display_address": ["1553 Westwood Blvd", "Los Angeles, CA 90024"], "city": "Los Angeles", "address2": null, "address3": "", "country": "US", "zip_code": "90024"}}, {"review_count": 87, "distance": 22054.351907819997, "coordinates": {"latitude": 34.2599225189168, "longitude": -118.323251441646}, "is_closed": false, "name": "Like's Thai & Chinese Food", "price": "$", "url": "https://www.yelp.com/biz/likes-thai-and-chinese-food-los-angeles-2?adjust_creative=8_C4NSGbL05eUQksKleGYw&utm_campaign=yelp_api_v3&utm_medium=api_v3_business_search&utm_source=8_C4NSGbL05eUQksKleGYw", "transactions": [], "rating": 4.5, "display_phone": "(818) 353-3393", "categories": [{"alias": "thai", "title": "Thai"}, {"alias": "chinese", "title": "Chinese"}], "id": "likes-thai-and-chinese-food-los-angeles-2", "phone": "+18183533393", "image_url": "https://s3-media2.fl.yelpcdn.com/bphoto/EHU_FBcswDDTchx4LmGDeA/o.jpg", "location": {"state": "CA", "address1": "8702 Foothill Blvd", "display_address": ["8702 Foothill Blvd", "Los Angeles, CA 91040"], "city": "Los Angeles", "address2": null, "address3": "", "country": "US", "zip_code": "91040"}}, {"review_count": 81, "distance": 2189.793049718, "coordinates": {"latitude": 34.0681312, "longitude": -118.3438686}, "is_closed": false, "name": "Wilde Wine Bar & Restaurant", "price": "$$", "url": "https://www.yelp.com/biz/wilde-wine-bar-and-restaurant-los-angeles?adjust_creative=8_C4NSGbL05eUQksKleGYw&utm_campaign=yelp_api_v3&utm_medium=api_v3_business_search&utm_source=8_C4NSGbL05eUQksKleGYw", "transactions": [], "rating": 4.0, "display_phone": "(323) 932-9500", "categories": [{"alias": "wine_bars", "title": "Wine Bars"}, {"alias": "newamerican", "title": "American (New)"}, {"alias": "modern_european", "title": "Modern European"}], "id": "wilde-wine-bar-and-restaurant-los-angeles", "phone": "+13239329500", "image_url": "https://s3-media2.fl.yelpcdn.com/bphoto/e8Oc_l4e9YSIwquk123Hpg/o.jpg", "location": {"state": "CA", "address1": "320 S La Brea Ave", "display_address": ["320 S La Brea Ave", "Los Angeles, CA 90036"], "city": "Los Angeles", "address2": null, "address3": "", "country": "US", "zip_code": "90036"}}, {"review_count": 364, "distance": 7185.702617198, "coordinates": {"latitude": 34.1076812744141, "longitude": -118.26676940918}, "is_closed": false, "name": "Little Pine", "price": "$$", "url": "https://www.yelp.com/biz/little-pine-los-angeles-2?adjust_creative=8_C4NSGbL05eUQksKleGYw&utm_campaign=yelp_api_v3&utm_medium=api_v3_business_search&utm_source=8_C4NSGbL05eUQksKleGYw", "transactions": [], "rating": 4.0, "display_phone": "(323) 741-8148", "categories": [{"alias": "vegan", "title": "Vegan"}], "id": "little-pine-los-angeles-2", "phone": "+13237418148", "image_url": "https://s3-media2.fl.yelpcdn.com/bphoto/T-0oX33KSJAH5Urcg0UB-w/o.jpg", "location": {"state": "CA", "address1": "2870 Rowena Ave", "display_address": ["2870 Rowena Ave", "Los Angeles, CA 90039"], "city": "Los Angeles", "address2": "", "address3": "", "country": "US", "zip_code": "90039"}}, {"review_count": 630, "distance": 12829.671032852, "coordinates": {"latitude": 34.120601, "longitude": -118.201632}, "is_closed": false, "name": "Huarache Azteca Restaurante", "price": "$", "url": "https://www.yelp.com/biz/huarache-azteca-restaurante-los-angeles?adjust_creative=8_C4NSGbL05eUQksKleGYw&utm_campaign=yelp_api_v3&utm_medium=api_v3_business_search&utm_source=8_C4NSGbL05eUQksKleGYw", "transactions": [], "rating": 4.0, "display_phone": "(323) 478-9572", "categories": [{"alias": "mexican", "title": "Mexican"}, {"alias": "latin", "title": "Latin American"}], "id": "huarache-azteca-restaurante-los-angeles", "phone": "+13234789572", "image_url": "https://s3-media1.fl.yelpcdn.com/bphoto/j7ji1w8z7wxGPjCwX-5W8g/o.jpg", "location": {"state": "CA", "address1": "5225 York Blvd", "display_address": ["5225 York Blvd", "Los Angeles, CA 90042"], "city": "Los Angeles", "address2": "", "address3": "", "country": "US", "zip_code": "90042"}}, {"review_count": 584, "distance": 4584.326334236, "coordinates": {"latitude": 34.101795, "longitude": -118.3323928}, "is_closed": false, "name": "Te'Kila", "price": "$$", "url": "https://www.yelp.com/biz/tekila-los-angeles?adjust_creative=8_C4NSGbL05eUQksKleGYw&utm_campaign=yelp_api_v3&utm_medium=api_v3_business_search&utm_source=8_C4NSGbL05eUQksKleGYw", "transactions": [], "rating": 4.0, "display_phone": "(323) 960-2404", "categories": [{"alias": "bars", "title": "Bars"}, {"alias": "mexican", "title": "Mexican"}], "id": "tekila-los-angeles", "phone": "+13239602404", "image_url": "https://s3-media4.fl.yelpcdn.com/bphoto/HRsMe6NQ6u4cufIMAF97Bg/o.jpg", "location": {"state": "CA", "address1": "6541 Hollywood Blvd", "display_address": ["6541 Hollywood Blvd", "Los Angeles, CA 90028"], "city": "Los Angeles", "address2": "", "address3": "", "country": "US", "zip_code": "90028"}}, {"review_count": 13, "distance": 4846.43165427, "coordinates": {"latitude": 34.1021077916729, "longitude": -118.340764233634}, "is_closed": false, "name": "Fist of Fusion", "price": "$$", "url": "https://www.yelp.com/biz/fist-of-fusion-los-angeles-2?adjust_creative=8_C4NSGbL05eUQksKleGYw&utm_campaign=yelp_api_v3&utm_medium=api_v3_business_search&utm_source=8_C4NSGbL05eUQksKleGYw", "transactions": ["pickup"], "rating": 4.5, "display_phone": "(323) 378-5536", "categories": [{"alias": "asianfusion", "title": "Asian Fusion"}, {"alias": "filipino", "title": "Filipino"}, {"alias": "hawaiian", "title": "Hawaiian"}], "id": "fist-of-fusion-los-angeles-2", "phone": "+13233785536", "image_url": "https://s3-media2.fl.yelpcdn.com/bphoto/0gAKzolRsyeQYvwZibHPdw/o.jpg", "location": {"state": "CA", "address1": "6801 Hollywood Blvd", "display_address": ["6801 Hollywood Blvd", "Ste 315B", "Los Angeles, CA 90028"], "city": "Los Angeles", "address2": "Ste 315B", "address3": "", "country": "US", "zip_code": "90028"}}, {"review_count": 675, "distance": 4145.978972122, "coordinates": {"latitude": 34.0786537528038, "longitude": -118.361425995827}, "is_closed": false, "name": "Jon & Vinny's", "price": "$$", "url": "https://www.yelp.com/biz/jon-and-vinnys-los-angeles?adjust_creative=8_C4NSGbL05eUQksKleGYw&utm_campaign=yelp_api_v3&utm_medium=api_v3_business_search&utm_source=8_C4NSGbL05eUQksKleGYw", "transactions": [], "rating": 3.5, "display_phone": "(323) 334-3369", "categories": [{"alias": "italian", "title": "Italian"}], "id": "jon-and-vinnys-los-angeles", "phone": "+13233343369", "image_url": "https://s3-media1.fl.yelpcdn.com/bphoto/aVb2xiKBGPNlVP-i6bWvyQ/o.jpg", "location": {"state": "CA", "address1": "412 N Fairfax Ave", "display_address": ["412 N Fairfax Ave", "Los Angeles, CA 90036"], "city": "Los Angeles", "address2": "", "address3": "", "country": "US", "zip_code": "90036"}}, {"review_count": 291, "distance": 1607.3356635904, "coordinates": {"latitude": 34.0753144025803, "longitude": -118.323578685522}, "is_closed": false, "name": "Kiku Sushi", "price": "$$", "url": "https://www.yelp.com/biz/kiku-sushi-los-angeles?adjust_creative=8_C4NSGbL05eUQksKleGYw&utm_campaign=yelp_api_v3&utm_medium=api_v3_business_search&utm_source=8_C4NSGbL05eUQksKleGYw", "transactions": ["delivery", "pickup"], "rating": 4.0, "display_phone": "(323) 464-1323", "categories": [{"alias": "sushi", "title": "Sushi Bars"}, {"alias": "japanese", "title": "Japanese"}], "id": "kiku-sushi-los-angeles", "phone": "+13234641323", "image_url": "https://s3-media1.fl.yelpcdn.com/bphoto/n-hVdf2E7z_be5j1t0-hvQ/o.jpg", "location": {"state": "CA", "address1": "246 N Larchmont Blvd", "display_address": ["246 N Larchmont Blvd", "Los Angeles, CA 90004"], "city": "Los Angeles", "address2": "", "address3": "", "country": "US", "zip_code": "90004"}}]}