{"businesses": [{"coordinates": {"longitude": -75.1750066503882, "latitude": 39.945722875032}, "categories": [{"alias": "cocktailbars", "title": "Cocktail Bars"}, {"alias": "newamerican", "title": "American (New)"}], "location": {"display_address": ["500 S 20th St", "Philadelphia, PA 19146"], "address3": null, "city": "Philadelphia", "state": "PA", "address2": "", "address1": "500 S 20th St", "zip_code": "19146", "country": "US"}, "review_count": 37, "distance": 952.6037514799999, "display_phone": "(267) 804-7977", "price": "$$$", "rating": 4.0, "phone": "+12678047977", "id": "lou-birds-philadelphia", "name": "Lou Bird's", "transactions": [], "url": "https://www.yelp.com/biz/lou-birds-philadelphia?adjust_creative=8_C4NSGbL05eUQksKleGYw&utm_campaign=yelp_api_v3&utm_medium=api_v3_business_search&utm_source=8_C4NSGbL05eUQksKleGYw", "is_closed": false, "image_url": "https://s3-media2.fl.yelpcdn.com/bphoto/df-RJ-aEIBRmM_TnHeqdyw/o.jpg"}, {"coordinates": {"longitude": -75.1338196, "latitude": 40.0205159}, "categories": [{"alias": "latin", "title": "Latin American"}, {"alias": "caribbean", "title": "Caribbean"}], "location": {"display_address": ["4535 N 5th St", "Philadelphia, PA 19140"], "address3": "", "city": "Philadelphia", "state": "PA", "address2": "", "address1": "4535 N 5th St", "zip_code": "19140", "country": "US"}, "review_count": 267, "distance": 8081.251886063999, "display_phone": "(215) 324-6086", "price": "$$", "rating": 4.0, "phone": "+12153246086", "id": "tierra-colombiana-restaurant-philadelphia-2", "name": "Tierra Colombiana Restaurant", "transactions": [], "url": "https://www.yelp.com/biz/tierra-colombiana-restaurant-philadelphia-2?adjust_creative=8_C4NSGbL05eUQksKleGYw&utm_campaign=yelp_api_v3&utm_medium=api_v3_business_search&utm_source=8_C4NSGbL05eUQksKleGYw", "is_closed": false, "image_url": "https://s3-media4.fl.yelpcdn.com/bphoto/0BxOkKwbHJWwht5WbOVDxA/o.jpg"}, {"coordinates": {"longitude": -75.1975267298011, "latitude": 39.955328779705}, "categories": [{"alias": "hotpot", "title": "Hot Pot"}, {"alias": "chinese", "title": "Chinese"}], "location": {"display_address": ["3717 Chestnut St", "Philadelphia, PA 19104"], "address3": null, "city": "Philadelphia", "state": "PA", "address2": "", "address1": "3717 Chestnut St", "zip_code": "19104", "country": "US"}, "review_count": 28, "distance": 2250.15343856, "display_phone": "(215) 921-6288", "price": "$$", "rating": 4.0, "phone": "+12159216288", "id": "ochatto-hot-pot-philadelphia-2", "name": "Ochatto Hot Pot", "transactions": [], "url": "https://www.yelp.com/biz/ochatto-hot-pot-philadelphia-2?adjust_creative=8_C4NSGbL05eUQksKleGYw&utm_campaign=yelp_api_v3&utm_medium=api_v3_business_search&utm_source=8_C4NSGbL05eUQksKleGYw", "is_closed": false, "image_url": "https://s3-media3.fl.yelpcdn.com/bphoto/YiQR4LuKLIJHb9SC52uR_Q/o.jpg"}, {"coordinates": {"longitude": -75.1692130789161, "latitude": 39.9504874680335}, "categories": [{"alias": "tradamerican", "title": "American (Traditional)"}, {"alias": "gourmet", "title": "Specialty Food"}, {"alias": "poutineries", "title": "Poutineries"}], "location": {"display_address": ["132 S 17th St", "Philadelphia, PA 19103"], "address3": null, "city": "Philadelphia", "state": "PA", "address2": "", "address1": "132 S 17th St", "zip_code": "19103", "country": "US"}, "review_count": 86, "distance": 403.499759825, "display_phone": "(267) 639-2104", "price": "$", "rating": 4.0, "phone": "+12676392104", "id": "shoo-fry-philadelphia", "name": "Shoo Fry", "transactions": [], "url": "https://www.yelp.com/biz/shoo-fry-philadelphia?adjust_creative=8_C4NSGbL05eUQksKleGYw&utm_campaign=yelp_api_v3&utm_medium=api_v3_business_search&utm_source=8_C4NSGbL05eUQksKleGYw", "is_closed": false, "image_url": "https://s3-media2.fl.yelpcdn.com/bphoto/_oiUO5XoKTavCis7NTu4ag/o.jpg"}, {"coordinates": {"longitude": -75.166168846691, "latitude": 39.949429492308}, "categories": [{"alias": "tradamerican", "title": "American (Traditional)"}, {"alias": "steak", "title": "Steakhouses"}], "location": {"display_address": ["1500 Walnut Street", "Philadelphia, PA 19102"], "address3": "", "city": "Philadelphia", "state": "PA", "address2": "", "address1": "1500 Walnut Street", "zip_code": "19102", "country": "US"}, "review_count": 812, "distance": 646.8922054212, "display_phone": "(215) 732-4444", "price": "$$$$", "rating": 4.5, "phone": "+12157324444", "id": "butcher-and-singer-philadelphia", "name": "Butcher and Singer", "transactions": ["delivery"], "url": "https://www.yelp.com/biz/butcher-and-singer-philadelphia?adjust_creative=8_C4NSGbL05eUQksKleGYw&utm_campaign=yelp_api_v3&utm_medium=api_v3_business_search&utm_source=8_C4NSGbL05eUQksKleGYw", "is_closed": false, "image_url": "https://s3-media1.fl.yelpcdn.com/bphoto/8YlRPiuSz-u2-GyGnE4NLQ/o.jpg"}, {"coordinates": {"longitude": -75.2086729, "latitude": 39.9565696}, "categories": [{"alias": "african", "title": "African"}], "location": {"display_address": ["4317 Chestnut St", "Philadelphia, PA 19104"], "address3": "", "city": "Philadelphia", "state": "PA", "address2": "", "address1": "4317 Chestnut St", "zip_code": "19104", "country": "US"}, "review_count": 178, "distance": 3225.376624674, "display_phone": "(215) 387-1970", "price": "$$", "rating": 4.5, "phone": "+12153871970", "id": "kilimandjaro-restaurant-philadelphia", "name": "Kilimandjaro Restaurant", "transactions": [], "url": "https://www.yelp.com/biz/kilimandjaro-restaurant-philadelphia?adjust_creative=8_C4NSGbL05eUQksKleGYw&utm_campaign=yelp_api_v3&utm_medium=api_v3_business_search&utm_source=8_C4NSGbL05eUQksKleGYw", "is_closed": false, "image_url": "https://s3-media2.fl.yelpcdn.com/bphoto/zd9RMgK9lwXwHRxo-2W8ag/o.jpg"}, {"coordinates": {"longitude": -75.102628, "latitude": 39.983856}, "categories": [{"alias": "modern_european", "title": "Modern European"}, {"alias": "polish", "title": "Polish"}], "location": {"display_address": ["2706 E Allegheny Ave", "Philadelphia, PA 19134"], "address3": "", "city": "Philadelphia", "state": "PA", "address2": null, "address1": "2706 E Allegheny Ave", "zip_code": "19134", "country": "US"}, "review_count": 14, "distance": 6732.95874318, "display_phone": "(267) 596-7727", "price": "$$", "rating": 4.5, "phone": "+12675967727", "id": "the-dinner-house-philadelphia", "name": "The Dinner House", "transactions": [], "url": "https://www.yelp.com/biz/the-dinner-house-philadelphia?adjust_creative=8_C4NSGbL05eUQksKleGYw&utm_campaign=yelp_api_v3&utm_medium=api_v3_business_search&utm_source=8_C4NSGbL05eUQksKleGYw", "is_closed": false, "image_url": "https://s3-media4.fl.yelpcdn.com/bphoto/DvIkCqH4ozUD7Y9ETltFIQ/o.jpg"}, {"coordinates": {"longitude": -75.1524720713496, "latitude": 39.9388690620898}, "categories": [{"alias": "greek", "title": "Greek"}, {"alias": "salad", "title": "Salad"}, {"alias": "mediterranean", "title": "Mediterranean"}], "location": {"display_address": ["769 E Passyunk Ave", "Philadelphia, PA 19147"], "address3": null, "city": "Philadelphia", "state": "PA", "address2": "", "address1": "769 E Passyunk Ave", "zip_code": "19147", "country": "US"}, "review_count": 12, "distance": 2301.8937195599997, "display_phone": "(267) 861-0949", "price": "$$", "rating": 5.0, "phone": "+12678610949", "id": "village-taverna-philadelphia", "name": "Village Taverna", "transactions": [], "url": "https://www.yelp.com/biz/village-taverna-philadelphia?adjust_creative=8_C4NSGbL05eUQksKleGYw&utm_campaign=yelp_api_v3&utm_medium=api_v3_business_search&utm_source=8_C4NSGbL05eUQksKleGYw", "is_closed": false, "image_url": "https://s3-media3.fl.yelpcdn.com/bphoto/YlmHIK2x70AyZ93Y7UXrQA/o.jpg"}, {"coordinates": {"longitude": -75.1404699, "latitude": 39.96414}, "categories": [{"alias": "burgers", "title": "Burgers"}, {"alias": "gastropubs", "title": "Gastropubs"}, {"alias": "pubs", "title": "Pubs"}], "location": {"display_address": ["901 N 2nd St", "Philadelphia, PA 19123"], "address3": "", "city": "Philadelphia", "state": "PA", "address2": "", "address1": "901 N 2nd St", "zip_code": "19123", "country": "US"}, "review_count": 640, "distance": 2863.89616898, "display_phone": "(215) 238-0630", "price": "$$", "rating": 4.0, "phone": "+12152380630", "id": "standard-tap-philadelphia", "name": "Standard Tap", "transactions": [], "url": "https://www.yelp.com/biz/standard-tap-philadelphia?adjust_creative=8_C4NSGbL05eUQksKleGYw&utm_campaign=yelp_api_v3&utm_medium=api_v3_business_search&utm_source=8_C4NSGbL05eUQksKleGYw", "is_closed": false, "image_url": "https://s3-media1.fl.yelpcdn.com/bphoto/LjYmzN9TbqeFfGwB7FqDfA/o.jpg"}, {"coordinates": {"longitude": -75.178679, "latitude": 39.921596}, "categories": [{"alias": "newamerican", "title": "American (New)"}, {"alias": "gastropubs", "title": "Gastropubs"}], "location": {"display_address": ["2400 S 19th St", "Philadelphia, PA 19145"], "address3": "", "city": "Philadelphia", "state": "PA", "address2": "", "address1": "2400 S 19th St", "zip_code": "19145", "country": "US"}, "review_count": 118, "distance": 3635.089804838, "display_phone": "(267) 687-7817", "price": "$$", "rating": 4.0, "phone": "+12676877817", "id": "tap-room-on-19th-philadelphia-2", "name": "Tap Room On 19th", "transactions": [], "url": "https://www.yelp.com/biz/tap-room-on-19th-philadelphia-2?adjust_creative=8_C4NSGbL05eUQksKleGYw&utm_campaign=yelp_api_v3&utm_medium=api_v3_business_search&utm_source=8_C4NSGbL05eUQksKleGYw", "is_closed": false, "image_url": "https://s3-media4.fl.yelpcdn.com/bphoto/gWHne7HHnKl3JZdCiJL9uQ/o.jpg"}, {"coordinates": {"longitude": -75.16217, "latitude": 39.94994}, "categories": [{"alias": "italian", "title": "Italian"}, {"alias": "wine_bars", "title": "Wine Bars"}, {"alias": "pizza", "title": "Pizza"}], "location": {"display_address": ["112 S 13th St", "Philadelphia, PA 19107"], "address3": null, "city": "Philadelphia", "state": "PA", "address2": null, "address1": "112 S 13th St", "zip_code": "19107", "country": "US"}, "review_count": 676, "distance": 882.5591591879999, "display_phone": "(215) 732-2400", "price": "$$", "rating": 4.0, "phone": "+12157322400", "id": "zavino-philadelphia-2", "name": "Zavino", "transactions": [], "url": "https://www.yelp.com/biz/zavino-philadelphia-2?adjust_creative=8_C4NSGbL05eUQksKleGYw&utm_campaign=yelp_api_v3&utm_medium=api_v3_business_search&utm_source=8_C4NSGbL05eUQksKleGYw", "is_closed": false, "image_url": "https://s3-media2.fl.yelpcdn.com/bphoto/iEPPqDWxquLcazt_3f0G3w/o.jpg"}, {"coordinates": {"longitude": -75.15798, "latitude": 39.9463099}, "categories": [{"alias": "mediterranean", "title": "Mediterranean"}, {"alias": "greek", "title": "Greek"}, {"alias": "mideastern", "title": "Middle Eastern"}], "location": {"display_address": ["1001 Spruce St", "Philadelphia, PA 19107"], "address3": null, "city": "Philadelphia", "state": "PA", "address2": "", "address1": "1001 Spruce St", "zip_code": "19107", "country": "US"}, "review_count": 49, "distance": 1402.0868773503998, "display_phone": "(267) 928-2085", "price": "$$", "rating": 4.0, "phone": "+12679282085", "id": "kanella-grill-philadelphia", "name": "Kanella Grill", "transactions": [], "url": "https://www.yelp.com/biz/kanella-grill-philadelphia?adjust_creative=8_C4NSGbL05eUQksKleGYw&utm_campaign=yelp_api_v3&utm_medium=api_v3_business_search&utm_source=8_C4NSGbL05eUQksKleGYw", "is_closed": false, "image_url": "https://s3-media1.fl.yelpcdn.com/bphoto/5c8IQyWg3FGjgop7Z6yC7Q/o.jpg"}, {"coordinates": {"longitude": -75.1359318941832, "latitude": 39.9696303158998}, "categories": [{"alias": "newamerican", "title": "American (New)"}, {"alias": "juicebars", "title": "Juice Bars & Smoothies"}, {"alias": "breakfast_brunch", "title": "Breakfast & Brunch"}], "location": {"display_address": ["1253 N Front St", "Philadelphia, PA 19122"], "address3": "", "city": "Philadelphia", "state": "PA", "address2": null, "address1": "1253 N Front St", "zip_code": "19122", "country": "US"}, "review_count": 227, "distance": 3527.08989425, "display_phone": "(215) 515-3073", "price": "$$", "rating": 4.0, "phone": "+12155153073", "id": "front-street-cafe-philadelphia", "name": "Front Street Cafe", "transactions": [], "url": "https://www.yelp.com/biz/front-street-cafe-philadelphia?adjust_creative=8_C4NSGbL05eUQksKleGYw&utm_campaign=yelp_api_v3&utm_medium=api_v3_business_search&utm_source=8_C4NSGbL05eUQksKleGYw", "is_closed": false, "image_url": "https://s3-media3.fl.yelpcdn.com/bphoto/s0dCwjg_aHY-_meDLJkaEg/o.jpg"}, {"coordinates": {"longitude": -75.1345956570778, "latitude": 39.9693009922627}, "categories": [{"alias": "bbq", "title": "Barbeque"}], "location": {"display_address": ["1208 Frankford Ave", "Philadelphia, PA 19125"], "address3": "", "city": "Philadelphia", "state": "PA", "address2": "", "address1": "1208 Frankford Ave", "zip_code": "19125", "country": "US"}, "review_count": 421, "distance": 3565.2401036199994, "display_phone": "(215) 391-4888", "price": "$$", "rating": 4.0, "phone": "+12153914888", "id": "fette-sau-philadelphia", "name": "Fette Sau", "transactions": [], "url": "https://www.yelp.com/biz/fette-sau-philadelphia?adjust_creative=8_C4NSGbL05eUQksKleGYw&utm_campaign=yelp_api_v3&utm_medium=api_v3_business_search&utm_source=8_C4NSGbL05eUQksKleGYw", "is_closed": false, "image_url": "https://s3-media2.fl.yelpcdn.com/bphoto/hMwV80r82ieib49cKCCHzw/o.jpg"}, {"coordinates": {"longitude": -75.1351395, "latitude": 39.9688263}, "categories": [{"alias": "bars", "title": "Bars"}, {"alias": "greek", "title": "Greek"}], "location": {"display_address": ["15 W Girard Ave", "Philadelphia, PA 19123"], "address3": "", "city": "Philadelphia", "state": "PA", "address2": "", "address1": "15 W Girard Ave", "zip_code": "19123", "country": "US"}, "review_count": 40, "distance": 3514.6585474199996, "display_phone": "(267) 639-2417", "price": "$$", "rating": 4.5, "phone": "+12676392417", "id": "kostas-bar-restaurant-philadelphia", "name": "Kostas Bar Restaurant", "transactions": [], "url": "https://www.yelp.com/biz/kostas-bar-restaurant-philadelphia?adjust_creative=8_C4NSGbL05eUQksKleGYw&utm_campaign=yelp_api_v3&utm_medium=api_v3_business_search&utm_source=8_C4NSGbL05eUQksKleGYw", "is_closed": false, "image_url": "https://s3-media3.fl.yelpcdn.com/bphoto/RcuvrlzDlSfXue8xxHwmfA/o.jpg"}, {"coordinates": {"longitude": -75.1760483, "latitude": 39.9675407}, "categories": [{"alias": "mexican", "title": "Mexican"}], "location": {"display_address": ["2321 Fairmount Ave", "Philadelphia, PA 19130"], "address3": "", "city": "Philadelphia", "state": "PA", "address2": "", "address1": "2321 Fairmount Ave", "zip_code": "19130", "country": "US"}, "review_count": 461, "distance": 1584.4254373118, "display_phone": "(215) 787-9930", "price": "$$", "rating": 4.0, "phone": "+12157879930", "id": "la-calaca-feliz-philadelphia", "name": "La Calaca Feliz", "transactions": [], "url": "https://www.yelp.com/biz/la-calaca-feliz-philadelphia?adjust_creative=8_C4NSGbL05eUQksKleGYw&utm_campaign=yelp_api_v3&utm_medium=api_v3_business_search&utm_source=8_C4NSGbL05eUQksKleGYw", "is_closed": false, "image_url": "https://s3-media2.fl.yelpcdn.com/bphoto/kFTvu2K_42vnVSo18i2FWQ/o.jpg"}, {"coordinates": {"longitude": -75.16319, "latitude": 39.94659}, "categories": [{"alias": "italian", "title": "Italian"}], "location": {"display_address": ["1312 Spruce St", "Philadelphia, PA 19107"], "address3": "", "city": "Philadelphia", "state": "PA", "address2": "", "address1": "1312 Spruce St", "zip_code": "19107", "country": "US"}, "review_count": 338, "distance": 1050.9373866656, "display_phone": "(215) 732-3478", "price": "$$$$", "rating": 4.5, "phone": "+12157323478", "id": "vetri-philadelphia", "name": "Vetri", "transactions": [], "url": "https://www.yelp.com/biz/vetri-philadelphia?adjust_creative=8_C4NSGbL05eUQksKleGYw&utm_campaign=yelp_api_v3&utm_medium=api_v3_business_search&utm_source=8_C4NSGbL05eUQksKleGYw", "is_closed": false, "image_url": "https://s3-media2.fl.yelpcdn.com/bphoto/cwPc3Xy7BTDJVRIb7ofSvg/o.jpg"}, {"coordinates": {"longitude": -75.150471, "latitude": 40.009045}, "categories": [{"alias": "sandwiches", "title": "Sandwiches"}, {"alias": "bars", "title": "Bars"}, {"alias": "steak", "title": "Steakhouses"}], "location": {"display_address": ["3653 Germantown Ave", "Philadelphia, PA 19140"], "address3": "", "city": "Philadelphia", "state": "PA", "address2": "", "address1": "3653 Germantown Ave", "zip_code": "19140", "country": "US"}, "review_count": 260, "distance": 6393.7967755399995, "display_phone": "(215) 229-9048", "price": "$", "rating": 4.5, "phone": "+12152299048", "id": "maxs-steaks-philadelphia", "name": "Max's Steaks", "transactions": [], "url": "https://www.yelp.com/biz/maxs-steaks-philadelphia?adjust_creative=8_C4NSGbL05eUQksKleGYw&utm_campaign=yelp_api_v3&utm_medium=api_v3_business_search&utm_source=8_C4NSGbL05eUQksKleGYw", "is_closed": false, "image_url": "https://s3-media4.fl.yelpcdn.com/bphoto/o6knFHMRJV_cWevW0C090A/o.jpg"}, {"coordinates": {"longitude": -75.1333847045898, "latitude": 39.9688987731934}, "categories": [{"alias": "pubs", "title": "Pubs"}, {"alias": "sportsbars", "title": "Sports Bars"}, {"alias": "italian", "title": "Italian"}], "location": {"display_address": ["202 E Girard Ave", "Philadelphia, PA 19125"], "address3": "", "city": "Philadelphia", "state": "PA", "address2": "", "address1": "202 E Girard Ave", "zip_code": "19125", "country": "US"}, "review_count": 95, "distance": 3635.8424931560003, "display_phone": "(215) 425-1847", "price": "$$", "rating": 4.5, "phone": "+12154251847", "id": "murphs-bar-philadelphia", "name": "Murph's Bar", "transactions": [], "url": "https://www.yelp.com/biz/murphs-bar-philadelphia?adjust_creative=8_C4NSGbL05eUQksKleGYw&utm_campaign=yelp_api_v3&utm_medium=api_v3_business_search&utm_source=8_C4NSGbL05eUQksKleGYw", "is_closed": false, "image_url": "https://s3-media1.fl.yelpcdn.com/bphoto/oSkCYpgx6bVwelWtl0MbWQ/o.jpg"}, {"coordinates": {"longitude": -75.1424033939838, "latitude": 39.9487674236298}, "categories": [{"alias": "italian", "title": "Italian"}, {"alias": "seafood", "title": "Seafood"}, {"alias": "bars", "title": "Bars"}], "location": {"display_address": ["34 S Front St", "Philadelphia, PA 19106"], "address3": "", "city": "Philadelphia", "state": "PA", "address2": "", "address1": "34 S Front St", "zip_code": "19106", "country": "US"}, "review_count": 332, "distance": 2504.085403536, "display_phone": "(215) 592-7661", "price": "$$", "rating": 4.0, "phone": "+12155927661", "id": "spasso-italian-grill-philadelphia-2", "name": "Spasso Italian Grill", "transactions": [], "url": "https://www.yelp.com/biz/spasso-italian-grill-philadelphia-2?adjust_creative=8_C4NSGbL05eUQksKleGYw&utm_campaign=yelp_api_v3&utm_medium=api_v3_business_search&utm_source=8_C4NSGbL05eUQksKleGYw", "is_closed": false, "image_url": "https://s3-media4.fl.yelpcdn.com/bphoto/qxY3VobAjNVKTOkaelp0uA/o.jpg"}, {"coordinates": {"longitude": -75.1556555181742, "latitude": 39.9274110049009}, "categories": [{"alias": "cambodian", "title": "Cambodian"}], "location": {"display_address": ["1700 S 6th St", "Philadelphia, PA 19148"], "address3": "", "city": "Philadelphia", "state": "PA", "address2": "", "address1": "1700 S 6th St", "zip_code": "19148", "country": "US"}, "review_count": 331, "distance": 3218.0254814219998, "display_phone": "(215) 755-2222", "price": "$$", "rating": 4.5, "phone": "+12157552222", "id": "khmer-kitchen-philadelphia-5", "name": "Khmer Kitchen", "transactions": [], "url": "https://www.yelp.com/biz/khmer-kitchen-philadelphia-5?adjust_creative=8_C4NSGbL05eUQksKleGYw&utm_campaign=yelp_api_v3&utm_medium=api_v3_business_search&utm_source=8_C4NSGbL05eUQksKleGYw", "is_closed": false, "image_url": "https://s3-media1.fl.yelpcdn.com/bphoto/Rwmj2cGeGchPiC52LSWuhg/o.jpg"}, {"coordinates": {"longitude": -75.1969604492188, "latitude": 39.9566383361816}, "categories": [{"alias": "szechuan", "title": "Szechuan"}], "location": {"display_address": ["3711 Market St", "Philadelphia, PA 19104"], "address3": "", "city": "Philadelphia", "state": "PA", "address2": "", "address1": "3711 Market St", "zip_code": "19104", "country": "US"}, "review_count": 513, "distance": 2218.279172388, "display_phone": "(215) 222-3711", "price": "$$", "rating": 4.0, "phone": "+12152223711", "id": "han-dynasty-philadelphia-3", "name": "Han Dynasty", "transactions": ["pickup", "delivery"], "url": "https://www.yelp.com/biz/han-dynasty-philadelphia-3?adjust_creative=8_C4NSGbL05eUQksKleGYw&utm_campaign=yelp_api_v3&utm_medium=api_v3_business_search&utm_source=8_C4NSGbL05eUQksKleGYw", "is_closed": false, "image_url": "https://s3-media3.fl.yelpcdn.com/bphoto/nQeV5bE8vCsVwTL8zNALzQ/o.jpg"}, {"coordinates": {"longitude": -75.1575317382812, "latitude": 39.9263954162598}, "categories": [{"alias": "mexican", "title": "Mexican"}], "location": {"display_address": ["700 Moore St", "Philadelphia, PA 19148"], "address3": "", "city": "Philadelphia", "state": "PA", "address2": "", "address1": "700 Moore St", "zip_code": "19148", "country": "US"}, "review_count": 28, "distance": 3260.604272604, "display_phone": "(215) 755-1005", "price": "$$", "rating": 5.0, "phone": "+12157551005", "id": "maribel-restaurant-philadelphia-2", "name": "Maribel Restaurant", "transactions": [], "url": "https://www.yelp.com/biz/maribel-restaurant-philadelphia-2?adjust_creative=8_C4NSGbL05eUQksKleGYw&utm_campaign=yelp_api_v3&utm_medium=api_v3_business_search&utm_source=8_C4NSGbL05eUQksKleGYw", "is_closed": false, "image_url": "https://s3-media3.fl.yelpcdn.com/bphoto/RXLFtesOuKgZ0-sDl8YFMQ/o.jpg"}, {"coordinates": {"longitude": -75.1543958857656, "latitude": 39.9421183017699}, "categories": [{"alias": "vietnamese", "title": "Vietnamese"}, {"alias": "beer_and_wine", "title": "Beer, Wine & Spirits"}, {"alias": "bars", "title": "Bars"}], "location": {"display_address": ["712-14 S St", "Philadelphia, PA 19147"], "address3": null, "city": "Philadelphia", "state": "PA", "address2": "", "address1": "712-14 S St", "zip_code": "19147", "country": "US"}, "review_count": 48, "distance": 1932.4179018119999, "display_phone": "(215) 800-1533", "price": "$$", "rating": 4.0, "phone": "+12158001533", "id": "banh-mi-and-bottles-philadelphia", "name": "Banh Mi and Bottles", "transactions": [], "url": "https://www.yelp.com/biz/banh-mi-and-bottles-philadelphia?adjust_creative=8_C4NSGbL05eUQksKleGYw&utm_campaign=yelp_api_v3&utm_medium=api_v3_business_search&utm_source=8_C4NSGbL05eUQksKleGYw", "is_closed": false, "image_url": "https://s3-media2.fl.yelpcdn.com/bphoto/WAuEmMFaUsD1IKt15rY9fw/o.jpg"}, {"coordinates": {"longitude": -75.1773865, "latitude": 39.9449658}, "categories": [{"alias": "newamerican", "title": "American (New)"}, {"alias": "desserts", "title": "Desserts"}, {"alias": "breakfast_brunch", "title": "Breakfast & Brunch"}], "location": {"display_address": ["2108 S St", "Philadelphia, PA 19146"], "address3": "", "city": "Philadelphia", "state": "PA", "address2": "", "address1": "2108 S St", "zip_code": "19146", "country": "US"}, "review_count": 46, "distance": 1112.8471193123999, "display_phone": "(215) 735-4200", "price": "$$", "rating": 4.0, "phone": "+12157354200", "id": "ti-penso-philadelphia", "name": "Ti Penso", "transactions": [], "url": "https://www.yelp.com/biz/ti-penso-philadelphia?adjust_creative=8_C4NSGbL05eUQksKleGYw&utm_campaign=yelp_api_v3&utm_medium=api_v3_business_search&utm_source=8_C4NSGbL05eUQksKleGYw", "is_closed": false, "image_url": "https://s3-media1.fl.yelpcdn.com/bphoto/vSNnNOknVg4wOMLC9viWpQ/o.jpg"}, {"coordinates": {"longitude": -75.1383361816406, "latitude": 39.9695281982422}, "categories": [{"alias": "italian", "title": "Italian"}, {"alias": "gluten_free", "title": "Gluten-Free"}], "location": {"display_address": ["161 W Girard Ave", "Philadelphia, PA 19123"], "address3": "", "city": "Philadelphia", "state": "PA", "address2": "", "address1": "161 W Girard Ave", "zip_code": "19123", "country": "US"}, "review_count": 480, "distance": 3303.078295752, "display_phone": "(215) 203-8707", "price": "$$$", "rating": 4.5, "phone": "+12152038707", "id": "modo-mio-philadelphia", "name": "Modo Mio", "transactions": [], "url": "https://www.yelp.com/biz/modo-mio-philadelphia?adjust_creative=8_C4NSGbL05eUQksKleGYw&utm_campaign=yelp_api_v3&utm_medium=api_v3_business_search&utm_source=8_C4NSGbL05eUQksKleGYw", "is_closed": false, "image_url": "https://s3-media3.fl.yelpcdn.com/bphoto/952NRGu3TvZNCyqkPEZT1g/o.jpg"}, {"coordinates": {"longitude": -75.1820392535737, "latitude": 39.9261167889562}, "categories": [{"alias": "newmexican", "title": "New Mexican Cuisine"}, {"alias": "mexican", "title": "Mexican"}, {"alias": "latin", "title": "Latin American"}], "location": {"display_address": ["2053 S Beechwood St", "Philadelphia, PA 19145"], "address3": null, "city": "Philadelphia", "state": "PA", "address2": null, "address1": "2053 S Beechwood St", "zip_code": "19145", "country": "US"}, "review_count": 22, "distance": 3211.7859093079996, "display_phone": "(267) 761-5194", "price": "$$", "rating": 5.0, "phone": "+12677615194", "id": "la-mula-terca-philadelphia", "name": "La Mula Terca", "transactions": [], "url": "https://www.yelp.com/biz/la-mula-terca-philadelphia?adjust_creative=8_C4NSGbL05eUQksKleGYw&utm_campaign=yelp_api_v3&utm_medium=api_v3_business_search&utm_source=8_C4NSGbL05eUQksKleGYw", "is_closed": false, "image_url": "https://s3-media1.fl.yelpcdn.com/bphoto/Qy9FWguWUcQFXlpq08pypA/o.jpg"}, {"coordinates": {"longitude": -75.16685, "latitude": 39.9503}, "categories": [{"alias": "breakfast_brunch", "title": "Breakfast & Brunch"}, {"alias": "soup", "title": "Soup"}, {"alias": "sandwiches", "title": "Sandwiches"}], "location": {"display_address": ["1526 Sansom St", "Philadelphia, PA 19102"], "address3": null, "city": "Philadelphia", "state": "PA", "address2": "", "address1": "1526 Sansom St", "zip_code": "19102", "country": "US"}, "review_count": 62, "distance": 538.7116464182, "display_phone": "(215) 454-6939", "price": "$$", "rating": 4.5, "phone": "+12154546939", "id": "rooster-soup-philadelphia", "name": "Rooster Soup", "transactions": [], "url": "https://www.yelp.com/biz/rooster-soup-philadelphia?adjust_creative=8_C4NSGbL05eUQksKleGYw&utm_campaign=yelp_api_v3&utm_medium=api_v3_business_search&utm_source=8_C4NSGbL05eUQksKleGYw", "is_closed": false, "image_url": "https://s3-media2.fl.yelpcdn.com/bphoto/vQira7gs3Hl5zn33KauHjg/o.jpg"}, {"coordinates": {"longitude": -75.1861881749959, "latitude": 40.0528589965787}, "categories": [{"alias": "mediterranean", "title": "Mediterranean"}, {"alias": "coffee", "title": "Coffee & Tea"}, {"alias": "newamerican", "title": "American (New)"}], "location": {"display_address": ["6734 Germantown Ave", "Philadelphia, PA 19119"], "address3": "", "city": "Philadelphia", "state": "PA", "address2": "", "address1": "6734 Germantown Ave", "zip_code": "19119", "country": "US"}, "review_count": 59, "distance": 11090.765000659998, "display_phone": "(267) 766-2396", "price": "$", "rating": 4.5, "phone": "+12677662396", "id": "malelani-cafe-philadelphia", "name": "Malelani  Cafe", "transactions": [], "url": "https://www.yelp.com/biz/malelani-cafe-philadelphia?adjust_creative=8_C4NSGbL05eUQksKleGYw&utm_campaign=yelp_api_v3&utm_medium=api_v3_business_search&utm_source=8_C4NSGbL05eUQksKleGYw", "is_closed": false, "image_url": "https://s3-media3.fl.yelpcdn.com/bphoto/tSteZVAbIh0XuUx2ymEC9g/o.jpg"}, {"coordinates": {"longitude": -75.1495438, "latitude": 39.9304008}, "categories": [{"alias": "newamerican", "title": "American (New)"}], "location": {"display_address": ["1401 E Moyamensing Ave", "Philadelphia, PA 19147"], "address3": "", "city": "Philadelphia", "state": "PA", "address2": "", "address1": "1401 E Moyamensing Ave", "zip_code": "19147", "country": "US"}, "review_count": 256, "distance": 3188.7535180299997, "display_phone": "(215) 271-9500", "price": "$$", "rating": 4.0, "phone": "+12152719500", "id": "the-industry-philadelphia-2", "name": "The Industry", "transactions": [], "url": "https://www.yelp.com/biz/the-industry-philadelphia-2?adjust_creative=8_C4NSGbL05eUQksKleGYw&utm_campaign=yelp_api_v3&utm_medium=api_v3_business_search&utm_source=8_C4NSGbL05eUQksKleGYw", "is_closed": false, "image_url": "https://s3-media3.fl.yelpcdn.com/bphoto/Ri0mxKrEyzu8tU0huROpqA/o.jpg"}, {"coordinates": {"longitude": -75.1831818, "latitude": 39.912262}, "categories": [{"alias": "diners", "title": "Diners"}, {"alias": "comfortfood", "title": "Comfort Food"}, {"alias": "breakfast_brunch", "title": "Breakfast & Brunch"}], "location": {"display_address": ["2016 Penrose Ave", "Philadelphia, PA 19145"], "address3": "", "city": "Philadelphia", "state": "PA", "address2": "", "address1": "2016 Penrose Ave", "zip_code": "19145", "country": "US"}, "review_count": 216, "distance": 4718.530645242, "display_phone": "(215) 465-1097", "price": "$$", "rating": 4.0, "phone": "+12154651097", "id": "penrose-diner-philadelphia", "name": "Penrose Diner", "transactions": [], "url": "https://www.yelp.com/biz/penrose-diner-philadelphia?adjust_creative=8_C4NSGbL05eUQksKleGYw&utm_campaign=yelp_api_v3&utm_medium=api_v3_business_search&utm_source=8_C4NSGbL05eUQksKleGYw", "is_closed": false, "image_url": "https://s3-media2.fl.yelpcdn.com/bphoto/RNqd2yaQys6sii0FR1Bz3g/o.jpg"}, {"coordinates": {"longitude": -75.1622009277344, "latitude": 39.9496994018555}, "categories": [{"alias": "wine_bars", "title": "Wine Bars"}, {"alias": "italian", "title": "Italian"}], "location": {"display_address": ["114 S 13th St", "Philadelphia, PA 19107"], "address3": "", "city": "Philadelphia", "state": "PA", "address2": null, "address1": "114 S 13th St", "zip_code": "19107", "country": "US"}, "review_count": 155, "distance": 891.2884446556, "display_phone": "(267) 928-2092", "price": "$$", "rating": 4.0, "phone": "+12679282092", "id": "tredici-enoteca-philadelphia", "name": "Tredici Enoteca", "transactions": [], "url": "https://www.yelp.com/biz/tredici-enoteca-philadelphia?adjust_creative=8_C4NSGbL05eUQksKleGYw&utm_campaign=yelp_api_v3&utm_medium=api_v3_business_search&utm_source=8_C4NSGbL05eUQksKleGYw", "is_closed": false, "image_url": "https://s3-media4.fl.yelpcdn.com/bphoto/S_TR8eTyznusBM1FGDN_pg/o.jpg"}, {"coordinates": {"longitude": -75.2250476, "latitude": 40.025875}, "categories": [{"alias": "mexican", "title": "Mexican"}], "location": {"display_address": ["4410 Main St", "Philadelphia, PA 19127"], "address3": "", "city": "Philadelphia", "state": "PA", "address2": "", "address1": "4410 Main St", "zip_code": "19127", "country": "US"}, "review_count": 262, "distance": 9240.426818462, "display_phone": "(267) 331-5874", "price": "$$", "rating": 4.0, "phone": "+12673315874", "id": "taqueria-feliz-philadelphia-4", "name": "Taqueria Feliz", "transactions": [], "url": "https://www.yelp.com/biz/taqueria-feliz-philadelphia-4?adjust_creative=8_C4NSGbL05eUQksKleGYw&utm_campaign=yelp_api_v3&utm_medium=api_v3_business_search&utm_source=8_C4NSGbL05eUQksKleGYw", "is_closed": false, "image_url": "https://s3-media1.fl.yelpcdn.com/bphoto/_b32TydZRSVWaA6uMnH_cg/o.jpg"}, {"coordinates": {"longitude": -75.1904373168945, "latitude": 40.0591201782227}, "categories": [{"alias": "pizza", "title": "Pizza"}, {"alias": "breweries", "title": "Breweries"}], "location": {"display_address": ["7136 Germantown Ave", "Philadelphia, PA 19119"], "address3": "", "city": "Philadelphia", "state": "PA", "address2": "", "address1": "7136 Germantown Ave", "zip_code": "19119", "country": "US"}, "review_count": 303, "distance": 11828.866743702, "display_phone": "(215) 242-6666", "price": "$$", "rating": 4.0, "phone": "+12152426666", "id": "earth-bread-brewery-philadelphia-2", "name": "Earth Bread + Brewery", "transactions": [], "url": "https://www.yelp.com/biz/earth-bread-brewery-philadelphia-2?adjust_creative=8_C4NSGbL05eUQksKleGYw&utm_campaign=yelp_api_v3&utm_medium=api_v3_business_search&utm_source=8_C4NSGbL05eUQksKleGYw", "is_closed": false, "image_url": "https://s3-media2.fl.yelpcdn.com/bphoto/kG6waE31mRnizXRzI70iQg/o.jpg"}, {"coordinates": {"longitude": -75.177109837532, "latitude": 39.9372500399819}, "categories": [{"alias": "newamerican", "title": "American (New)"}, {"alias": "breakfast_brunch", "title": "Breakfast & Brunch"}, {"alias": "burgers", "title": "Burgers"}], "location": {"display_address": ["1200 Point Breeze Ave", "Philadelphia, PA 19146"], "address3": null, "city": "Philadelphia", "state": "PA", "address2": "", "address1": "1200 Point Breeze Ave", "zip_code": "19146", "country": "US"}, "review_count": 69, "distance": 1906.0503143179997, "display_phone": "(267) 639-3318", "price": "$$", "rating": 4.5, "phone": "+12676393318", "id": "on-point-bistro-philadelphia-2", "name": "On Point Bistro", "transactions": [], "url": "https://www.yelp.com/biz/on-point-bistro-philadelphia-2?adjust_creative=8_C4NSGbL05eUQksKleGYw&utm_campaign=yelp_api_v3&utm_medium=api_v3_business_search&utm_source=8_C4NSGbL05eUQksKleGYw", "is_closed": false, "image_url": "https://s3-media1.fl.yelpcdn.com/bphoto/_JaejmW5sa7XUKhr26h7Sw/o.jpg"}, {"coordinates": {"longitude": -75.1797714233398, "latitude": 39.940803527832}, "categories": [{"alias": "mexican", "title": "Mexican"}], "location": {"display_address": ["918 S 22nd St", "Philadelphia, PA 19146"], "address3": "", "city": "Philadelphia", "state": "PA", "address2": "", "address1": "918 S 22nd St", "zip_code": "19146", "country": "US"}, "review_count": 92, "distance": 1617.346788368, "display_phone": "(215) 309-3727", "price": "$$", "rating": 4.0, "phone": "+12153093727", "id": "los-camaradas-philadelphia", "name": "Los Camaradas", "transactions": [], "url": "https://www.yelp.com/biz/los-camaradas-philadelphia?adjust_creative=8_C4NSGbL05eUQksKleGYw&utm_campaign=yelp_api_v3&utm_medium=api_v3_business_search&utm_source=8_C4NSGbL05eUQksKleGYw", "is_closed": false, "image_url": "https://s3-media3.fl.yelpcdn.com/bphoto/Iq-hUfFSDZOtuJsA9a7_GQ/o.jpg"}, {"coordinates": {"longitude": -75.19459, "latitude": 40.05412}, "categories": [{"alias": "italian", "title": "Italian"}, {"alias": "vegan", "title": "Vegan"}, {"alias": "gluten_free", "title": "Gluten-Free"}], "location": {"display_address": ["311 W Mt Pleasant Ave", "Philadelphia, PA 19119"], "address3": "", "city": "Philadelphia", "state": "PA", "address2": "", "address1": "311 W Mt Pleasant Ave", "zip_code": "19119", "country": "US"}, "review_count": 162, "distance": 11333.488395338, "display_phone": "(215) 248-2740", "price": "$$", "rating": 4.0, "phone": "+12152482740", "id": "bacio-philadelphia", "name": "Bacio", "transactions": [], "url": "https://www.yelp.com/biz/bacio-philadelphia?adjust_creative=8_C4NSGbL05eUQksKleGYw&utm_campaign=yelp_api_v3&utm_medium=api_v3_business_search&utm_source=8_C4NSGbL05eUQksKleGYw", "is_closed": false, "image_url": "https://s3-media4.fl.yelpcdn.com/bphoto/ZehmqMRsm-2a-M8xKi3Lrg/o.jpg"}, {"coordinates": {"longitude": -75.140608743093, "latitude": 39.965321168582}, "categories": [{"alias": "greek", "title": "Greek"}, {"alias": "mediterranean", "title": "Mediterranean"}], "location": {"display_address": ["944 N 2nd St", "Philadelphia, PA 19123"], "address3": "", "city": "Philadelphia", "state": "PA", "address2": "", "address1": "944 N 2nd St", "zip_code": "19123", "country": "US"}, "review_count": 186, "distance": 2906.1402174419995, "display_phone": "(215) 592-4550", "price": "$$", "rating": 4.0, "phone": "+12155924550", "id": "dmitris-philadelphia-3", "name": "Dmitri's", "transactions": [], "url": "https://www.yelp.com/biz/dmitris-philadelphia-3?adjust_creative=8_C4NSGbL05eUQksKleGYw&utm_campaign=yelp_api_v3&utm_medium=api_v3_business_search&utm_source=8_C4NSGbL05eUQksKleGYw", "is_closed": false, "image_url": "https://s3-media3.fl.yelpcdn.com/bphoto/NXZdI91HkZp18dXBeAFqRQ/o.jpg"}, {"coordinates": {"longitude": -75.16185, "latitude": 39.96422}, "categories": [{"alias": "southern", "title": "Southern"}, {"alias": "jazzandblues", "title": "Jazz & Blues"}, {"alias": "bars", "title": "Bars"}], "location": {"display_address": ["600 N Broad St", "Philadelphia, PA 19130"], "address3": "", "city": "Philadelphia", "state": "PA", "address2": "", "address1": "600 N Broad St", "zip_code": "19130", "country": "US"}, "review_count": 137, "distance": 1408.388473428, "display_phone": "(215) 600-0220", "price": "$$", "rating": 4.0, "phone": "+12156000220", "id": "south-philadelphia", "name": "South", "transactions": [], "url": "https://www.yelp.com/biz/south-philadelphia?adjust_creative=8_C4NSGbL05eUQksKleGYw&utm_campaign=yelp_api_v3&utm_medium=api_v3_business_search&utm_source=8_C4NSGbL05eUQksKleGYw", "is_closed": false, "image_url": "https://s3-media2.fl.yelpcdn.com/bphoto/e-ZiNHQiArocE7-orIBVHg/o.jpg"}, {"coordinates": {"longitude": -75.21878, "latitude": 39.95313}, "categories": [{"alias": "caribbean", "title": "Caribbean"}, {"alias": "newamerican", "title": "American (New)"}], "location": {"display_address": ["310 S 48th St", "Philadelphia, PA 19143"], "address3": "", "city": "Philadelphia", "state": "PA", "address2": "", "address1": "310 S 48th St", "zip_code": "19143", "country": "US"}, "review_count": 151, "distance": 4004.1103402999997, "display_phone": "(267) 244-4764", "price": "$$", "rating": 4.5, "phone": "+12672444764", "id": "48th-street-grille-philadelphia", "name": "48th Street Grille", "transactions": [], "url": "https://www.yelp.com/biz/48th-street-grille-philadelphia?adjust_creative=8_C4NSGbL05eUQksKleGYw&utm_campaign=yelp_api_v3&utm_medium=api_v3_business_search&utm_source=8_C4NSGbL05eUQksKleGYw", "is_closed": false, "image_url": "https://s3-media3.fl.yelpcdn.com/bphoto/3gKypT447z8rxJ-Plwh4gw/o.jpg"}, {"coordinates": {"longitude": -75.14451, "latitude": 39.96397}, "categories": [{"alias": "southern", "title": "Southern"}, {"alias": "tradamerican", "title": "American (Traditional)"}], "location": {"display_address": ["800 N 4th St", "Philadelphia, PA 19123"], "address3": "", "city": "Philadelphia", "state": "PA", "address2": null, "address1": "800 N 4th St", "zip_code": "19123", "country": "US"}, "review_count": 1146, "distance": 2538.54555722, "display_phone": "(215) 925-1150", "price": "$$", "rating": 4.0, "phone": "+12159251150", "id": "honeys-sit-n-eat-philadelphia", "name": "Honey's Sit-N-Eat", "transactions": [], "url": "https://www.yelp.com/biz/honeys-sit-n-eat-philadelphia?adjust_creative=8_C4NSGbL05eUQksKleGYw&utm_campaign=yelp_api_v3&utm_medium=api_v3_business_search&utm_source=8_C4NSGbL05eUQksKleGYw", "is_closed": false, "image_url": "https://s3-media1.fl.yelpcdn.com/bphoto/yFq0nKkMCsq1GaI892CFCA/o.jpg"}, {"coordinates": {"longitude": -75.15448, "latitude": 39.9553986}, "categories": [{"alias": "ramen", "title": "Ramen"}], "location": {"display_address": ["204 N 9th St", "Philadelphia, PA 19107"], "address3": "", "city": "Philadelphia", "state": "PA", "address2": "", "address1": "204 N 9th St", "zip_code": "19107", "country": "US"}, "review_count": 848, "distance": 1436.177590944, "display_phone": "(267) 687-1355", "price": "$$", "rating": 4.0, "phone": "+12676871355", "id": "terakawa-ramen-philadelphia", "name": "Terakawa Ramen", "transactions": [], "url": "https://www.yelp.com/biz/terakawa-ramen-philadelphia?adjust_creative=8_C4NSGbL05eUQksKleGYw&utm_campaign=yelp_api_v3&utm_medium=api_v3_business_search&utm_source=8_C4NSGbL05eUQksKleGYw", "is_closed": false, "image_url": "https://s3-media4.fl.yelpcdn.com/bphoto/IKiROrMWxoWxLuf_-yOs1w/o.jpg"}, {"coordinates": {"longitude": -75.1404441920654, "latitude": 39.967331590792}, "categories": [{"alias": "mediterranean", "title": "Mediterranean"}, {"alias": "mideastern", "title": "Middle Eastern"}, {"alias": "armenian", "title": "Armenian"}], "location": {"display_address": ["1040 N American St", "Ste 601", "Philadelphia, PA 19123"], "address3": "", "city": "Philadelphia", "state": "PA", "address2": "Ste 601", "address1": "1040 N American St", "zip_code": "19123", "country": "US"}, "review_count": 95, "distance": 3023.886452004, "display_phone": "(267) 606-6596", "price": "$$", "rating": 4.5, "phone": "+12676066596", "id": "apricotstone-philadelphia-6", "name": "apricotstone", "transactions": [], "url": "https://www.yelp.com/biz/apricotstone-philadelphia-6?adjust_creative=8_C4NSGbL05eUQksKleGYw&utm_campaign=yelp_api_v3&utm_medium=api_v3_business_search&utm_source=8_C4NSGbL05eUQksKleGYw", "is_closed": false, "image_url": "https://s3-media1.fl.yelpcdn.com/bphoto/aITrWfVOlNeATTYrbepODw/o.jpg"}, {"coordinates": {"longitude": -75.1444168, "latitude": 39.9519196}, "categories": [{"alias": "newamerican", "title": "American (New)"}], "location": {"display_address": ["232 Arch St", "Philadelphia, PA 19106"], "address3": "", "city": "Philadelphia", "state": "PA", "address2": "", "address1": "232 Arch St", "zip_code": "19106", "country": "US"}, "review_count": 126, "distance": 2294.9294616439997, "display_phone": "(215) 629-2337", "price": "$$$", "rating": 4.0, "phone": "+12156292337", "id": "chloe-philadelphia", "name": "Chloe", "transactions": [], "url": "https://www.yelp.com/biz/chloe-philadelphia?adjust_creative=8_C4NSGbL05eUQksKleGYw&utm_campaign=yelp_api_v3&utm_medium=api_v3_business_search&utm_source=8_C4NSGbL05eUQksKleGYw", "is_closed": false, "image_url": "https://s3-media3.fl.yelpcdn.com/bphoto/OcMEIZh3ZyTyH2gYJrmz1w/o.jpg"}, {"coordinates": {"longitude": -75.1675666, "latitude": 39.9493695}, "categories": [{"alias": "tradamerican", "title": "American (Traditional)"}, {"alias": "gluten_free", "title": "Gluten-Free"}], "location": {"display_address": ["207 S 16th St", "Philadelphia, PA 19102"], "address3": null, "city": "Philadelphia", "state": "PA", "address2": "", "address1": "207 S 16th St", "zip_code": "19102", "country": "US"}, "review_count": 117, "distance": 580.2315401604, "display_phone": "(215) 608-8941", "price": "$$", "rating": 4.5, "phone": "+12156088941", "id": "real-food-eatery-philadelphia", "name": "Real Food Eatery", "transactions": [], "url": "https://www.yelp.com/biz/real-food-eatery-philadelphia?adjust_creative=8_C4NSGbL05eUQksKleGYw&utm_campaign=yelp_api_v3&utm_medium=api_v3_business_search&utm_source=8_C4NSGbL05eUQksKleGYw", "is_closed": false, "image_url": "https://s3-media3.fl.yelpcdn.com/bphoto/469Km7BFrrxb9OZd4byRLQ/o.jpg"}, {"coordinates": {"longitude": -75.1692651229736, "latitude": 40.0324443788558}, "categories": [{"alias": "pizza", "title": "Pizza"}], "location": {"display_address": ["5301 Germantown Ave", "Philadelphia, PA 19144"], "address3": "", "city": "Philadelphia", "state": "PA", "address2": "", "address1": "5301 Germantown Ave", "zip_code": "19144", "country": "US"}, "review_count": 65, "distance": 8748.460270897998, "display_phone": "(267) 766-6900", "price": "$$", "rating": 4.0, "phone": "+12677666900", "id": "pizzeria-nonna-philadelphia", "name": "Pizzeria Nonna", "transactions": [], "url": "https://www.yelp.com/biz/pizzeria-nonna-philadelphia?adjust_creative=8_C4NSGbL05eUQksKleGYw&utm_campaign=yelp_api_v3&utm_medium=api_v3_business_search&utm_source=8_C4NSGbL05eUQksKleGYw", "is_closed": false, "image_url": "https://s3-media3.fl.yelpcdn.com/bphoto/82BxdGuPPikf0tVhXARutQ/o.jpg"}, {"coordinates": {"longitude": -75.1440616697073, "latitude": 39.9486594647169}, "categories": [{"alias": "gastropubs", "title": "Gastropubs"}, {"alias": "pubs", "title": "Pubs"}, {"alias": "tradamerican", "title": "American (Traditional)"}], "location": {"display_address": ["56 S 2nd St", "Philadelphia, PA 19106"], "address3": "", "city": "Philadelphia", "state": "PA", "address2": "", "address1": "56 S 2nd St", "zip_code": "19106", "country": "US"}, "review_count": 678, "distance": 2371.60871902, "display_phone": "(215) 238-5888", "price": "$$", "rating": 4.0, "phone": "+12152385888", "id": "khyber-pass-pub-philadelphia", "name": "Khyber Pass Pub", "transactions": [], "url": "https://www.yelp.com/biz/khyber-pass-pub-philadelphia?adjust_creative=8_C4NSGbL05eUQksKleGYw&utm_campaign=yelp_api_v3&utm_medium=api_v3_business_search&utm_source=8_C4NSGbL05eUQksKleGYw", "is_closed": false, "image_url": "https://s3-media4.fl.yelpcdn.com/bphoto/IqwtheOv0HLbTtDdjepiDw/o.jpg"}, {"coordinates": {"longitude": -75.21243, "latitude": 39.95015}, "categories": [{"alias": "newamerican", "title": "American (New)"}], "location": {"display_address": ["501 S 45th St", "Philadelphia, PA 19104"], "address3": "", "city": "Philadelphia", "state": "PA", "address2": null, "address1": "501 S 45th St", "zip_code": "19104", "country": "US"}, "review_count": 239, "distance": 3533.374849752, "display_phone": "(215) 222-3699", "price": "$$$$", "rating": 4.0, "phone": "+12152223699", "id": "marigold-kitchen-philadelphia", "name": "Marigold Kitchen", "transactions": [], "url": "https://www.yelp.com/biz/marigold-kitchen-philadelphia?adjust_creative=8_C4NSGbL05eUQksKleGYw&utm_campaign=yelp_api_v3&utm_medium=api_v3_business_search&utm_source=8_C4NSGbL05eUQksKleGYw", "is_closed": false, "image_url": "https://s3-media1.fl.yelpcdn.com/bphoto/ocmb9hfbgzYF-Q8flUEz3g/o.jpg"}, {"coordinates": {"longitude": -75.168884, "latitude": 39.926345}, "categories": [{"alias": "italian", "title": "Italian"}], "location": {"display_address": ["1915 S Broad St", "Philadelphia, PA 19148"], "address3": "", "city": "Philadelphia", "state": "PA", "address2": "", "address1": "1915 S Broad St", "zip_code": "19148", "country": "US"}, "review_count": 214, "distance": 3057.0647663779996, "display_phone": "(215) 336-8380", "price": "$$", "rating": 4.5, "phone": "+12153368380", "id": "ristorante-pesto-philadelphia", "name": "Ristorante Pesto", "transactions": [], "url": "https://www.yelp.com/biz/ristorante-pesto-philadelphia?adjust_creative=8_C4NSGbL05eUQksKleGYw&utm_campaign=yelp_api_v3&utm_medium=api_v3_business_search&utm_source=8_C4NSGbL05eUQksKleGYw", "is_closed": false, "image_url": "https://s3-media3.fl.yelpcdn.com/bphoto/IlY7ayAcEm5EAgF0CAq--w/o.jpg"}, {"coordinates": {"longitude": -75.1781539916992, "latitude": 39.9687690734863}, "categories": [{"alias": "irish", "title": "Irish"}, {"alias": "irish_pubs", "title": "Irish Pub"}], "location": {"display_address": ["747 N 25th St", "Philadelphia, PA 19130"], "address3": "", "city": "Philadelphia", "state": "PA", "address2": "", "address1": "747 N 25th St", "zip_code": "19130", "country": "US"}, "review_count": 44, "distance": 1769.92638256, "display_phone": "(215) 232-1086", "price": "$$", "rating": 4.0, "phone": "+12152321086", "id": "the-black-taxi-philadelphia-2", "name": "The Black Taxi", "transactions": [], "url": "https://www.yelp.com/biz/the-black-taxi-philadelphia-2?adjust_creative=8_C4NSGbL05eUQksKleGYw&utm_campaign=yelp_api_v3&utm_medium=api_v3_business_search&utm_source=8_C4NSGbL05eUQksKleGYw", "is_closed": false, "image_url": "https://s3-media3.fl.yelpcdn.com/bphoto/mV7n4iKoL6VmP4EOvXqNZA/o.jpg"}], "region": {"center": {"longitude": -75.17120361328125, "latitude": 39.95378209544653}}, "total": 10825}