{"businesses": [{"coordinates": {"longitude": -75.1556555181742, "latitude": 39.9274110049009}, "categories": [{"alias": "cambodian", "title": "Cambodian"}], "location": {"display_address": ["1700 S 6th St", "Philadelphia, PA 19148"], "address3": "", "city": "Philadelphia", "state": "PA", "address2": "", "address1": "1700 S 6th St", "zip_code": "19148", "country": "US"}, "review_count": 331, "distance": 3218.0254814219998, "display_phone": "(215) 755-2222", "price": "$$", "rating": 4.5, "phone": "+12157552222", "id": "khmer-kitchen-philadelphia-5", "name": "Khmer Kitchen", "transactions": [], "url": "https://www.yelp.com/biz/khmer-kitchen-philadelphia-5?adjust_creative=8_C4NSGbL05eUQksKleGYw&utm_campaign=yelp_api_v3&utm_medium=api_v3_business_search&utm_source=8_C4NSGbL05eUQksKleGYw", "is_closed": false, "image_url": "https://s3-media1.fl.yelpcdn.com/bphoto/Rwmj2cGeGchPiC52LSWuhg/o.jpg"}, {"coordinates": {"longitude": -75.1969604492188, "latitude": 39.9566383361816}, "categories": [{"alias": "szechuan", "title": "Szechuan"}], "location": {"display_address": ["3711 Market St", "Philadelphia, PA 19104"], "address3": "", "city": "Philadelphia", "state": "PA", "address2": "", "address1": "3711 Market St", "zip_code": "19104", "country": "US"}, "review_count": 513, "distance": 2218.279172388, "display_phone": "(215) 222-3711", "price": "$$", "rating": 4.0, "phone": "+12152223711", "id": "han-dynasty-philadelphia-3", "name": "Han Dynasty", "transactions": ["pickup", "delivery"], "url": "https://www.yelp.com/biz/han-dynasty-philadelphia-3?adjust_creative=8_C4NSGbL05eUQksKleGYw&utm_campaign=yelp_api_v3&utm_medium=api_v3_business_search&utm_source=8_C4NSGbL05eUQksKleGYw", "is_closed": false, "image_url": "https://s3-media3.fl.yelpcdn.com/bphoto/nQeV5bE8vCsVwTL8zNALzQ/o.jpg"}, {"coordinates": {"longitude": -75.1575317382812, "latitude": 39.9263954162598}, "categories": [{"alias": "mexican", "title": "Mexican"}], "location": {"display_address": ["700 Moore St", "Philadelphia, PA 19148"], "address3": "", "city": "Philadelphia", "state": "PA", "address2": "", "address1": "700 Moore St", "zip_code": "19148", "country": "US"}, "review_count": 28, "distance": 3260.604272604, "display_phone": "(215) 755-1005", "price": "$$", "rating": 5.0, "phone": "+12157551005", "id": "maribel-restaurant-philadelphia-2", "name": "Maribel Restaurant", "transactions": [], "url": "https://www.yelp.com/biz/maribel-restaurant-philadelphia-2?adjust_creative=8_C4NSGbL05eUQksKleGYw&utm_campaign=yelp_api_v3&utm_medium=api_v3_business_search&utm_source=8_C4NSGbL05eUQksKleGYw", "is_closed": false, "image_url": "https://s3-media3.fl.yelpcdn.com/bphoto/RXLFtesOuKgZ0-sDl8YFMQ/o.jpg"}, {"coordinates": {"longitude": -75.1543958857656, "latitude": 39.9421183017699}, "categories": [{"alias": "vietnamese", "title": "Vietnamese"}, {"alias": "beer_and_wine", "title": "Beer, Wine & Spirits"}, {"alias": "bars", "title": "Bars"}], "location": {"display_address": ["712-14 S St", "Philadelphia, PA 19147"], "address3": null, "city": "Philadelphia", "state": "PA", "address2": "", "address1": "712-14 S St", "zip_code": "19147", "country": "US"}, "review_count": 48, "distance": 1932.4179018119999, "display_phone": "(215) 800-1533", "price": "$$", "rating": 4.0, "phone": "+12158001533", "id": "banh-mi-and-bottles-philadelphia", "name": "Banh Mi and Bottles", "transactions": [], "url": "https://www.yelp.com/biz/banh-mi-and-bottles-philadelphia?adjust_creative=8_C4NSGbL05eUQksKleGYw&utm_campaign=yelp_api_v3&utm_medium=api_v3_business_search&utm_source=8_C4NSGbL05eUQksKleGYw", "is_closed": false, "image_url": "https://s3-media2.fl.yelpcdn.com/bphoto/WAuEmMFaUsD1IKt15rY9fw/o.jpg"}, {"coordinates": {"longitude": -75.1773865, "latitude": 39.9449658}, "categories": [{"alias": "newamerican", "title": "American (New)"}, {"alias": "desserts", "title": "Desserts"}, {"alias": "breakfast_brunch", "title": "Breakfast & Brunch"}], "location": {"display_address": ["2108 S St", "Philadelphia, PA 19146"], "address3": "", "city": "Philadelphia", "state": "PA", "address2": "", "address1": "2108 S St", "zip_code": "19146", "country": "US"}, "review_count": 46, "distance": 1112.8471193123999, "display_phone": "(215) 735-4200", "price": "$$", "rating": 4.0, "phone": "+12157354200", "id": "ti-penso-philadelphia", "name": "Ti Penso", "transactions": [], "url": "https://www.yelp.com/biz/ti-penso-philadelphia?adjust_creative=8_C4NSGbL05eUQksKleGYw&utm_campaign=yelp_api_v3&utm_medium=api_v3_business_search&utm_source=8_C4NSGbL05eUQksKleGYw", "is_closed": false, "image_url": "https://s3-media1.fl.yelpcdn.com/bphoto/vSNnNOknVg4wOMLC9viWpQ/o.jpg"}, {"coordinates": {"longitude": -75.1383361816406, "latitude": 39.9695281982422}, "categories": [{"alias": "italian", "title": "Italian"}, {"alias": "gluten_free", "title": "Gluten-Free"}], "location": {"display_address": ["161 W Girard Ave", "Philadelphia, PA 19123"], "address3": "", "city": "Philadelphia", "state": "PA", "address2": "", "address1": "161 W Girard Ave", "zip_code": "19123", "country": "US"}, "review_count": 480, "distance": 3303.078295752, "display_phone": "(215) 203-8707", "price": "$$$", "rating": 4.5, "phone": "+12152038707", "id": "modo-mio-philadelphia", "name": "Modo Mio", "transactions": [], "url": "https://www.yelp.com/biz/modo-mio-philadelphia?adjust_creative=8_C4NSGbL05eUQksKleGYw&utm_campaign=yelp_api_v3&utm_medium=api_v3_business_search&utm_source=8_C4NSGbL05eUQksKleGYw", "is_closed": false, "image_url": "https://s3-media3.fl.yelpcdn.com/bphoto/952NRGu3TvZNCyqkPEZT1g/o.jpg"}, {"coordinates": {"longitude": -75.1820392535737, "latitude": 39.9261167889562}, "categories": [{"alias": "newmexican", "title": "New Mexican Cuisine"}, {"alias": "mexican", "title": "Mexican"}, {"alias": "latin", "title": "Latin American"}], "location": {"display_address": ["2053 S Beechwood St", "Philadelphia, PA 19145"], "address3": null, "city": "Philadelphia", "state": "PA", "address2": null, "address1": "2053 S Beechwood St", "zip_code": "19145", "country": "US"}, "review_count": 22, "distance": 3211.7859093079996, "display_phone": "(267) 761-5194", "price": "$$", "rating": 5.0, "phone": "+12677615194", "id": "la-mula-terca-philadelphia", "name": "La Mula Terca", "transactions": [], "url": "https://www.yelp.com/biz/la-mula-terca-philadelphia?adjust_creative=8_C4NSGbL05eUQksKleGYw&utm_campaign=yelp_api_v3&utm_medium=api_v3_business_search&utm_source=8_C4NSGbL05eUQksKleGYw", "is_closed": false, "image_url": "https://s3-media1.fl.yelpcdn.com/bphoto/Qy9FWguWUcQFXlpq08pypA/o.jpg"}, {"coordinates": {"longitude": -75.16685, "latitude": 39.9503}, "categories": [{"alias": "breakfast_brunch", "title": "Breakfast & Brunch"}, {"alias": "soup", "title": "Soup"}, {"alias": "sandwiches", "title": "Sandwiches"}], "location": {"display_address": ["1526 Sansom St", "Philadelphia, PA 19102"], "address3": null, "city": "Philadelphia", "state": "PA", "address2": "", "address1": "1526 Sansom St", "zip_code": "19102", "country": "US"}, "review_count": 62, "distance": 538.7116464182, "display_phone": "(215) 454-6939", "price": "$$", "rating": 4.5, "phone": "+12154546939", "id": "rooster-soup-philadelphia", "name": "Rooster Soup", "transactions": [], "url": "https://www.yelp.com/biz/rooster-soup-philadelphia?adjust_creative=8_C4NSGbL05eUQksKleGYw&utm_campaign=yelp_api_v3&utm_medium=api_v3_business_search&utm_source=8_C4NSGbL05eUQksKleGYw", "is_closed": false, "image_url": "https://s3-media2.fl.yelpcdn.com/bphoto/vQira7gs3Hl5zn33KauHjg/o.jpg"}, {"coordinates": {"longitude": -75.1861881749959, "latitude": 40.0528589965787}, "categories": [{"alias": "mediterranean", "title": "Mediterranean"}, {"alias": "coffee", "title": "Coffee & Tea"}, {"alias": "newamerican", "title": "American (New)"}], "location": {"display_address": ["6734 Germantown Ave", "Philadelphia, PA 19119"], "address3": "", "city": "Philadelphia", "state": "PA", "address2": "", "address1": "6734 Germantown Ave", "zip_code": "19119", "country": "US"}, "review_count": 59, "distance": 11090.765000659998, "display_phone": "(267) 766-2396", "price": "$", "rating": 4.5, "phone": "+12677662396", "id": "malelani-cafe-philadelphia", "name": "Malelani  Cafe", "transactions": [], "url": "https://www.yelp.com/biz/malelani-cafe-philadelphia?adjust_creative=8_C4NSGbL05eUQksKleGYw&utm_campaign=yelp_api_v3&utm_medium=api_v3_business_search&utm_source=8_C4NSGbL05eUQksKleGYw", "is_closed": false, "image_url": "https://s3-media3.fl.yelpcdn.com/bphoto/tSteZVAbIh0XuUx2ymEC9g/o.jpg"}, {"coordinates": {"longitude": -75.1495438, "latitude": 39.9304008}, "categories": [{"alias": "newamerican", "title": "American (New)"}], "location": {"display_address": ["1401 E Moyamensing Ave", "Philadelphia, PA 19147"], "address3": "", "city": "Philadelphia", "state": "PA", "address2": "", "address1": "1401 E Moyamensing Ave", "zip_code": "19147", "country": "US"}, "review_count": 256, "distance": 3188.7535180299997, "display_phone": "(215) 271-9500", "price": "$$", "rating": 4.0, "phone": "+12152719500", "id": "the-industry-philadelphia-2", "name": "The Industry", "transactions": [], "url": "https://www.yelp.com/biz/the-industry-philadelphia-2?adjust_creative=8_C4NSGbL05eUQksKleGYw&utm_campaign=yelp_api_v3&utm_medium=api_v3_business_search&utm_source=8_C4NSGbL05eUQksKleGYw", "is_closed": false, "image_url": "https://s3-media3.fl.yelpcdn.com/bphoto/Ri0mxKrEyzu8tU0huROpqA/o.jpg"}, {"coordinates": {"longitude": -75.1831818, "latitude": 39.912262}, "categories": [{"alias": "diners", "title": "Diners"}, {"alias": "comfortfood", "title": "Comfort Food"}, {"alias": "breakfast_brunch", "title": "Breakfast & Brunch"}], "location": {"display_address": ["2016 Penrose Ave", "Philadelphia, PA 19145"], "address3": "", "city": "Philadelphia", "state": "PA", "address2": "", "address1": "2016 Penrose Ave", "zip_code": "19145", "country": "US"}, "review_count": 216, "distance": 4718.530645242, "display_phone": "(215) 465-1097", "price": "$$", "rating": 4.0, "phone": "+12154651097", "id": "penrose-diner-philadelphia", "name": "Penrose Diner", "transactions": [], "url": "https://www.yelp.com/biz/penrose-diner-philadelphia?adjust_creative=8_C4NSGbL05eUQksKleGYw&utm_campaign=yelp_api_v3&utm_medium=api_v3_business_search&utm_source=8_C4NSGbL05eUQksKleGYw", "is_closed": false, "image_url": "https://s3-media2.fl.yelpcdn.com/bphoto/RNqd2yaQys6sii0FR1Bz3g/o.jpg"}, {"coordinates": {"longitude": -75.1622009277344, "latitude": 39.9496994018555}, "categories": [{"alias": "wine_bars", "title": "Wine Bars"}, {"alias": "italian", "title": "Italian"}], "location": {"display_address": ["114 S 13th St", "Philadelphia, PA 19107"], "address3": "", "city": "Philadelphia", "state": "PA", "address2": null, "address1": "114 S 13th St", "zip_code": "19107", "country": "US"}, "review_count": 155, "distance": 891.2884446556, "display_phone": "(267) 928-2092", "price": "$$", "rating": 4.0, "phone": "+12679282092", "id": "tredici-enoteca-philadelphia", "name": "Tredici Enoteca", "transactions": [], "url": "https://www.yelp.com/biz/tredici-enoteca-philadelphia?adjust_creative=8_C4NSGbL05eUQksKleGYw&utm_campaign=yelp_api_v3&utm_medium=api_v3_business_search&utm_source=8_C4NSGbL05eUQksKleGYw", "is_closed": false, "image_url": "https://s3-media4.fl.yelpcdn.com/bphoto/S_TR8eTyznusBM1FGDN_pg/o.jpg"}, {"coordinates": {"longitude": -75.2250476, "latitude": 40.025875}, "categories": [{"alias": "mexican", "title": "Mexican"}], "location": {"display_address": ["4410 Main St", "Philadelphia, PA 19127"], "address3": "", "city": "Philadelphia", "state": "PA", "address2": "", "address1": "4410 Main St", "zip_code": "19127", "country": "US"}, "review_count": 262, "distance": 9240.426818462, "display_phone": "(267) 331-5874", "price": "$$", "rating": 4.0, "phone": "+12673315874", "id": "taqueria-feliz-philadelphia-4", "name": "Taqueria Feliz", "transactions": [], "url": "https://www.yelp.com/biz/taqueria-feliz-philadelphia-4?adjust_creative=8_C4NSGbL05eUQksKleGYw&utm_campaign=yelp_api_v3&utm_medium=api_v3_business_search&utm_source=8_C4NSGbL05eUQksKleGYw", "is_closed": false, "image_url": "https://s3-media1.fl.yelpcdn.com/bphoto/_b32TydZRSVWaA6uMnH_cg/o.jpg"}, {"coordinates": {"longitude": -75.1904373168945, "latitude": 40.0591201782227}, "categories": [{"alias": "pizza", "title": "Pizza"}, {"alias": "breweries", "title": "Breweries"}], "location": {"display_address": ["7136 Germantown Ave", "Philadelphia, PA 19119"], "address3": "", "city": "Philadelphia", "state": "PA", "address2": "", "address1": "7136 Germantown Ave", "zip_code": "19119", "country": "US"}, "review_count": 303, "distance": 11828.866743702, "display_phone": "(215) 242-6666", "price": "$$", "rating": 4.0, "phone": "+12152426666", "id": "earth-bread-brewery-philadelphia-2", "name": "Earth Bread + Brewery", "transactions": [], "url": "https://www.yelp.com/biz/earth-bread-brewery-philadelphia-2?adjust_creative=8_C4NSGbL05eUQksKleGYw&utm_campaign=yelp_api_v3&utm_medium=api_v3_business_search&utm_source=8_C4NSGbL05eUQksKleGYw", "is_closed": false, "image_url": "https://s3-media2.fl.yelpcdn.com/bphoto/kG6waE31mRnizXRzI70iQg/o.jpg"}, {"coordinates": {"longitude": -75.177109837532, "latitude": 39.9372500399819}, "categories": [{"alias": "newamerican", "title": "American (New)"}, {"alias": "breakfast_brunch", "title": "Breakfast & Brunch"}, {"alias": "burgers", "title": "Burgers"}], "location": {"display_address": ["1200 Point Breeze Ave", "Philadelphia, PA 19146"], "address3": null, "city": "Philadelphia", "state": "PA", "address2": "", "address1": "1200 Point Breeze Ave", "zip_code": "19146", "country": "US"}, "review_count": 69, "distance": 1906.0503143179997, "display_phone": "(267) 639-3318", "price": "$$", "rating": 4.5, "phone": "+12676393318", "id": "on-point-bistro-philadelphia-2", "name": "On Point Bistro", "transactions": [], "url": "https://www.yelp.com/biz/on-point-bistro-philadelphia-2?adjust_creative=8_C4NSGbL05eUQksKleGYw&utm_campaign=yelp_api_v3&utm_medium=api_v3_business_search&utm_source=8_C4NSGbL05eUQksKleGYw", "is_closed": false, "image_url": "https://s3-media1.fl.yelpcdn.com/bphoto/_JaejmW5sa7XUKhr26h7Sw/o.jpg"}, {"coordinates": {"longitude": -75.1797714233398, "latitude": 39.940803527832}, "categories": [{"alias": "mexican", "title": "Mexican"}], "location": {"display_address": ["918 S 22nd St", "Philadelphia, PA 19146"], "address3": "", "city": "Philadelphia", "state": "PA", "address2": "", "address1": "918 S 22nd St", "zip_code": "19146", "country": "US"}, "review_count": 92, "distance": 1617.346788368, "display_phone": "(215) 309-3727", "price": "$$", "rating": 4.0, "phone": "+12153093727", "id": "los-camaradas-philadelphia", "name": "Los Camaradas", "transactions": [], "url": "https://www.yelp.com/biz/los-camaradas-philadelphia?adjust_creative=8_C4NSGbL05eUQksKleGYw&utm_campaign=yelp_api_v3&utm_medium=api_v3_business_search&utm_source=8_C4NSGbL05eUQksKleGYw", "is_closed": false, "image_url": "https://s3-media3.fl.yelpcdn.com/bphoto/Iq-hUfFSDZOtuJsA9a7_GQ/o.jpg"}, {"coordinates": {"longitude": -75.19459, "latitude": 40.05412}, "categories": [{"alias": "italian", "title": "Italian"}, {"alias": "vegan", "title": "Vegan"}, {"alias": "gluten_free", "title": "Gluten-Free"}], "location": {"display_address": ["311 W Mt Pleasant Ave", "Philadelphia, PA 19119"], "address3": "", "city": "Philadelphia", "state": "PA", "address2": "", "address1": "311 W Mt Pleasant Ave", "zip_code": "19119", "country": "US"}, "review_count": 162, "distance": 11333.488395338, "display_phone": "(215) 248-2740", "price": "$$", "rating": 4.0, "phone": "+12152482740", "id": "bacio-philadelphia", "name": "Bacio", "transactions": [], "url": "https://www.yelp.com/biz/bacio-philadelphia?adjust_creative=8_C4NSGbL05eUQksKleGYw&utm_campaign=yelp_api_v3&utm_medium=api_v3_business_search&utm_source=8_C4NSGbL05eUQksKleGYw", "is_closed": false, "image_url": "https://s3-media4.fl.yelpcdn.com/bphoto/ZehmqMRsm-2a-M8xKi3Lrg/o.jpg"}, {"coordinates": {"longitude": -75.140608743093, "latitude": 39.965321168582}, "categories": [{"alias": "greek", "title": "Greek"}, {"alias": "mediterranean", "title": "Mediterranean"}], "location": {"display_address": ["944 N 2nd St", "Philadelphia, PA 19123"], "address3": "", "city": "Philadelphia", "state": "PA", "address2": "", "address1": "944 N 2nd St", "zip_code": "19123", "country": "US"}, "review_count": 186, "distance": 2906.1402174419995, "display_phone": "(215) 592-4550", "price": "$$", "rating": 4.0, "phone": "+12155924550", "id": "dmitris-philadelphia-3", "name": "Dmitri's", "transactions": [], "url": "https://www.yelp.com/biz/dmitris-philadelphia-3?adjust_creative=8_C4NSGbL05eUQksKleGYw&utm_campaign=yelp_api_v3&utm_medium=api_v3_business_search&utm_source=8_C4NSGbL05eUQksKleGYw", "is_closed": false, "image_url": "https://s3-media3.fl.yelpcdn.com/bphoto/NXZdI91HkZp18dXBeAFqRQ/o.jpg"}, {"coordinates": {"longitude": -75.16185, "latitude": 39.96422}, "categories": [{"alias": "southern", "title": "Southern"}, {"alias": "jazzandblues", "title": "Jazz & Blues"}, {"alias": "bars", "title": "Bars"}], "location": {"display_address": ["600 N Broad St", "Philadelphia, PA 19130"], "address3": "", "city": "Philadelphia", "state": "PA", "address2": "", "address1": "600 N Broad St", "zip_code": "19130", "country": "US"}, "review_count": 137, "distance": 1408.388473428, "display_phone": "(215) 600-0220", "price": "$$", "rating": 4.0, "phone": "+12156000220", "id": "south-philadelphia", "name": "South", "transactions": [], "url": "https://www.yelp.com/biz/south-philadelphia?adjust_creative=8_C4NSGbL05eUQksKleGYw&utm_campaign=yelp_api_v3&utm_medium=api_v3_business_search&utm_source=8_C4NSGbL05eUQksKleGYw", "is_closed": false, "image_url": "https://s3-media2.fl.yelpcdn.com/bphoto/e-ZiNHQiArocE7-orIBVHg/o.jpg"}, {"coordinates": {"longitude": -75.21878, "latitude": 39.95313}, "categories": [{"alias": "caribbean", "title": "Caribbean"}, {"alias": "newamerican", "title": "American (New)"}], "location": {"display_address": ["310 S 48th St", "Philadelphia, PA 19143"], "address3": "", "city": "Philadelphia", "state": "PA", "address2": "", "address1": "310 S 48th St", "zip_code": "19143", "country": "US"}, "review_count": 151, "distance": 4004.1103402999997, "display_phone": "(267) 244-4764", "price": "$$", "rating": 4.5, "phone": "+12672444764", "id": "48th-street-grille-philadelphia", "name": "48th Street Grille", "transactions": [], "url": "https://www.yelp.com/biz/48th-street-grille-philadelphia?adjust_creative=8_C4NSGbL05eUQksKleGYw&utm_campaign=yelp_api_v3&utm_medium=api_v3_business_search&utm_source=8_C4NSGbL05eUQksKleGYw", "is_closed": false, "image_url": "https://s3-media3.fl.yelpcdn.com/bphoto/3gKypT447z8rxJ-Plwh4gw/o.jpg"}, {"coordinates": {"longitude": -75.14451, "latitude": 39.96397}, "categories": [{"alias": "southern", "title": "Southern"}, {"alias": "tradamerican", "title": "American (Traditional)"}], "location": {"display_address": ["800 N 4th St", "Philadelphia, PA 19123"], "address3": "", "city": "Philadelphia", "state": "PA", "address2": null, "address1": "800 N 4th St", "zip_code": "19123", "country": "US"}, "review_count": 1146, "distance": 2538.54555722, "display_phone": "(215) 925-1150", "price": "$$", "rating": 4.0, "phone": "+12159251150", "id": "honeys-sit-n-eat-philadelphia", "name": "Honey's Sit-N-Eat", "transactions": [], "url": "https://www.yelp.com/biz/honeys-sit-n-eat-philadelphia?adjust_creative=8_C4NSGbL05eUQksKleGYw&utm_campaign=yelp_api_v3&utm_medium=api_v3_business_search&utm_source=8_C4NSGbL05eUQksKleGYw", "is_closed": false, "image_url": "https://s3-media1.fl.yelpcdn.com/bphoto/yFq0nKkMCsq1GaI892CFCA/o.jpg"}, {"coordinates": {"longitude": -75.15448, "latitude": 39.9553986}, "categories": [{"alias": "ramen", "title": "Ramen"}], "location": {"display_address": ["204 N 9th St", "Philadelphia, PA 19107"], "address3": "", "city": "Philadelphia", "state": "PA", "address2": "", "address1": "204 N 9th St", "zip_code": "19107", "country": "US"}, "review_count": 848, "distance": 1436.177590944, "display_phone": "(267) 687-1355", "price": "$$", "rating": 4.0, "phone": "+12676871355", "id": "terakawa-ramen-philadelphia", "name": "Terakawa Ramen", "transactions": [], "url": "https://www.yelp.com/biz/terakawa-ramen-philadelphia?adjust_creative=8_C4NSGbL05eUQksKleGYw&utm_campaign=yelp_api_v3&utm_medium=api_v3_business_search&utm_source=8_C4NSGbL05eUQksKleGYw", "is_closed": false, "image_url": "https://s3-media4.fl.yelpcdn.com/bphoto/IKiROrMWxoWxLuf_-yOs1w/o.jpg"}, {"coordinates": {"longitude": -75.1404441920654, "latitude": 39.967331590792}, "categories": [{"alias": "mediterranean", "title": "Mediterranean"}, {"alias": "mideastern", "title": "Middle Eastern"}, {"alias": "armenian", "title": "Armenian"}], "location": {"display_address": ["1040 N American St", "Ste 601", "Philadelphia, PA 19123"], "address3": "", "city": "Philadelphia", "state": "PA", "address2": "Ste 601", "address1": "1040 N American St", "zip_code": "19123", "country": "US"}, "review_count": 95, "distance": 3023.886452004, "display_phone": "(267) 606-6596", "price": "$$", "rating": 4.5, "phone": "+12676066596", "id": "apricotstone-philadelphia-6", "name": "apricotstone", "transactions": [], "url": "https://www.yelp.com/biz/apricotstone-philadelphia-6?adjust_creative=8_C4NSGbL05eUQksKleGYw&utm_campaign=yelp_api_v3&utm_medium=api_v3_business_search&utm_source=8_C4NSGbL05eUQksKleGYw", "is_closed": false, "image_url": "https://s3-media1.fl.yelpcdn.com/bphoto/aITrWfVOlNeATTYrbepODw/o.jpg"}, {"coordinates": {"longitude": -75.1444168, "latitude": 39.9519196}, "categories": [{"alias": "newamerican", "title": "American (New)"}], "location": {"display_address": ["232 Arch St", "Philadelphia, PA 19106"], "address3": "", "city": "Philadelphia", "state": "PA", "address2": "", "address1": "232 Arch St", "zip_code": "19106", "country": "US"}, "review_count": 126, "distance": 2294.9294616439997, "display_phone": "(215) 629-2337", "price": "$$$", "rating": 4.0, "phone": "+12156292337", "id": "chloe-philadelphia", "name": "Chloe", "transactions": [], "url": "https://www.yelp.com/biz/chloe-philadelphia?adjust_creative=8_C4NSGbL05eUQksKleGYw&utm_campaign=yelp_api_v3&utm_medium=api_v3_business_search&utm_source=8_C4NSGbL05eUQksKleGYw", "is_closed": false, "image_url": "https://s3-media3.fl.yelpcdn.com/bphoto/OcMEIZh3ZyTyH2gYJrmz1w/o.jpg"}, {"coordinates": {"longitude": -75.1675666, "latitude": 39.9493695}, "categories": [{"alias": "tradamerican", "title": "American (Traditional)"}, {"alias": "gluten_free", "title": "Gluten-Free"}], "location": {"display_address": ["207 S 16th St", "Philadelphia, PA 19102"], "address3": null, "city": "Philadelphia", "state": "PA", "address2": "", "address1": "207 S 16th St", "zip_code": "19102", "country": "US"}, "review_count": 117, "distance": 580.2315401604, "display_phone": "(215) 608-8941", "price": "$$", "rating": 4.5, "phone": "+12156088941", "id": "real-food-eatery-philadelphia", "name": "Real Food Eatery", "transactions": [], "url": "https://www.yelp.com/biz/real-food-eatery-philadelphia?adjust_creative=8_C4NSGbL05eUQksKleGYw&utm_campaign=yelp_api_v3&utm_medium=api_v3_business_search&utm_source=8_C4NSGbL05eUQksKleGYw", "is_closed": false, "image_url": "https://s3-media3.fl.yelpcdn.com/bphoto/469Km7BFrrxb9OZd4byRLQ/o.jpg"}, {"coordinates": {"longitude": -75.1692651229736, "latitude": 40.0324443788558}, "categories": [{"alias": "pizza", "title": "Pizza"}], "location": {"display_address": ["5301 Germantown Ave", "Philadelphia, PA 19144"], "address3": "", "city": "Philadelphia", "state": "PA", "address2": "", "address1": "5301 Germantown Ave", "zip_code": "19144", "country": "US"}, "review_count": 65, "distance": 8748.460270897998, "display_phone": "(267) 766-6900", "price": "$$", "rating": 4.0, "phone": "+12677666900", "id": "pizzeria-nonna-philadelphia", "name": "Pizzeria Nonna", "transactions": [], "url": "https://www.yelp.com/biz/pizzeria-nonna-philadelphia?adjust_creative=8_C4NSGbL05eUQksKleGYw&utm_campaign=yelp_api_v3&utm_medium=api_v3_business_search&utm_source=8_C4NSGbL05eUQksKleGYw", "is_closed": false, "image_url": "https://s3-media3.fl.yelpcdn.com/bphoto/82BxdGuPPikf0tVhXARutQ/o.jpg"}, {"coordinates": {"longitude": -75.1440616697073, "latitude": 39.9486594647169}, "categories": [{"alias": "gastropubs", "title": "Gastropubs"}, {"alias": "pubs", "title": "Pubs"}, {"alias": "tradamerican", "title": "American (Traditional)"}], "location": {"display_address": ["56 S 2nd St", "Philadelphia, PA 19106"], "address3": "", "city": "Philadelphia", "state": "PA", "address2": "", "address1": "56 S 2nd St", "zip_code": "19106", "country": "US"}, "review_count": 678, "distance": 2371.60871902, "display_phone": "(215) 238-5888", "price": "$$", "rating": 4.0, "phone": "+12152385888", "id": "khyber-pass-pub-philadelphia", "name": "Khyber Pass Pub", "transactions": [], "url": "https://www.yelp.com/biz/khyber-pass-pub-philadelphia?adjust_creative=8_C4NSGbL05eUQksKleGYw&utm_campaign=yelp_api_v3&utm_medium=api_v3_business_search&utm_source=8_C4NSGbL05eUQksKleGYw", "is_closed": false, "image_url": "https://s3-media4.fl.yelpcdn.com/bphoto/IqwtheOv0HLbTtDdjepiDw/o.jpg"}, {"coordinates": {"longitude": -75.21243, "latitude": 39.95015}, "categories": [{"alias": "newamerican", "title": "American (New)"}], "location": {"display_address": ["501 S 45th St", "Philadelphia, PA 19104"], "address3": "", "city": "Philadelphia", "state": "PA", "address2": null, "address1": "501 S 45th St", "zip_code": "19104", "country": "US"}, "review_count": 239, "distance": 3533.374849752, "display_phone": "(215) 222-3699", "price": "$$$$", "rating": 4.0, "phone": "+12152223699", "id": "marigold-kitchen-philadelphia", "name": "Marigold Kitchen", "transactions": [], "url": "https://www.yelp.com/biz/marigold-kitchen-philadelphia?adjust_creative=8_C4NSGbL05eUQksKleGYw&utm_campaign=yelp_api_v3&utm_medium=api_v3_business_search&utm_source=8_C4NSGbL05eUQksKleGYw", "is_closed": false, "image_url": "https://s3-media1.fl.yelpcdn.com/bphoto/ocmb9hfbgzYF-Q8flUEz3g/o.jpg"}, {"coordinates": {"longitude": -75.168884, "latitude": 39.926345}, "categories": [{"alias": "italian", "title": "Italian"}], "location": {"display_address": ["1915 S Broad St", "Philadelphia, PA 19148"], "address3": "", "city": "Philadelphia", "state": "PA", "address2": "", "address1": "1915 S Broad St", "zip_code": "19148", "country": "US"}, "review_count": 214, "distance": 3057.0647663779996, "display_phone": "(215) 336-8380", "price": "$$", "rating": 4.5, "phone": "+12153368380", "id": "ristorante-pesto-philadelphia", "name": "Ristorante Pesto", "transactions": [], "url": "https://www.yelp.com/biz/ristorante-pesto-philadelphia?adjust_creative=8_C4NSGbL05eUQksKleGYw&utm_campaign=yelp_api_v3&utm_medium=api_v3_business_search&utm_source=8_C4NSGbL05eUQksKleGYw", "is_closed": false, "image_url": "https://s3-media3.fl.yelpcdn.com/bphoto/IlY7ayAcEm5EAgF0CAq--w/o.jpg"}, {"coordinates": {"longitude": -75.1781539916992, "latitude": 39.9687690734863}, "categories": [{"alias": "irish", "title": "Irish"}, {"alias": "irish_pubs", "title": "Irish Pub"}], "location": {"display_address": ["747 N 25th St", "Philadelphia, PA 19130"], "address3": "", "city": "Philadelphia", "state": "PA", "address2": "", "address1": "747 N 25th St", "zip_code": "19130", "country": "US"}, "review_count": 44, "distance": 1769.92638256, "display_phone": "(215) 232-1086", "price": "$$", "rating": 4.0, "phone": "+12152321086", "id": "the-black-taxi-philadelphia-2", "name": "The Black Taxi", "transactions": [], "url": "https://www.yelp.com/biz/the-black-taxi-philadelphia-2?adjust_creative=8_C4NSGbL05eUQksKleGYw&utm_campaign=yelp_api_v3&utm_medium=api_v3_business_search&utm_source=8_C4NSGbL05eUQksKleGYw", "is_closed": false, "image_url": "https://s3-media3.fl.yelpcdn.com/bphoto/mV7n4iKoL6VmP4EOvXqNZA/o.jpg"}, {"coordinates": {"longitude": -75.1351413, "latitude": 39.9688395}, "categories": [{"alias": "mexican", "title": "Mexican"}, {"alias": "cocktailbars", "title": "Cocktail Bars"}], "location": {"display_address": ["19 W Girard Ave", "Philadelphia, PA 19125"], "address3": "", "city": "Philadelphia", "state": "PA", "address2": "", "address1": "19 W Girard Ave", "zip_code": "19125", "country": "US"}, "review_count": 181, "distance": 3500.081467568, "display_phone": "(267) 324-3530", "price": "$$", "rating": 4.0, "phone": "+12673243530", "id": "sancho-pistolas-philadelphia-2", "name": "Sancho Pistola's", "transactions": [], "url": "https://www.yelp.com/biz/sancho-pistolas-philadelphia-2?adjust_creative=8_C4NSGbL05eUQksKleGYw&utm_campaign=yelp_api_v3&utm_medium=api_v3_business_search&utm_source=8_C4NSGbL05eUQksKleGYw", "is_closed": false, "image_url": "https://s3-media2.fl.yelpcdn.com/bphoto/sPWOW0QKaCZOBcQIuRQePg/o.jpg"}, {"coordinates": {"longitude": -75.1642701029778, "latitude": 39.9630709056427}, "categories": [{"alias": "sandwiches", "title": "Sandwiches"}, {"alias": "breakfast_brunch", "title": "Breakfast & Brunch"}, {"alias": "gluten_free", "title": "Gluten-Free"}], "location": {"display_address": ["1541 Spring Garden St", "Philadelphia, PA 19130"], "address3": null, "city": "Philadelphia", "state": "PA", "address2": "", "address1": "1541 Spring Garden St", "zip_code": "19130", "country": "US"}, "review_count": 63, "distance": 1190.0429265482, "display_phone": "(215) 977-9273", "price": "$$", "rating": 5.0, "phone": "+12159779273", "id": "stockyard-sandwich-philadelphia", "name": "Stockyard Sandwich", "transactions": [], "url": "https://www.yelp.com/biz/stockyard-sandwich-philadelphia?adjust_creative=8_C4NSGbL05eUQksKleGYw&utm_campaign=yelp_api_v3&utm_medium=api_v3_business_search&utm_source=8_C4NSGbL05eUQksKleGYw", "is_closed": false, "image_url": "https://s3-media4.fl.yelpcdn.com/bphoto/Skv1XNGhvT7s9qxRGzM5Ow/o.jpg"}, {"coordinates": {"longitude": -75.1637115478516, "latitude": 39.9294204711914}, "categories": [{"alias": "french", "title": "French"}, {"alias": "newamerican", "title": "American (New)"}], "location": {"display_address": ["1617 E Passyunk Ave", "Philadelphia, PA 19148"], "address3": "", "city": "Philadelphia", "state": "PA", "address2": null, "address1": "1617 E Passyunk Ave", "zip_code": "19148", "country": "US"}, "review_count": 233, "distance": 2783.178594742, "display_phone": "(215) 271-8299", "price": "$$$$", "rating": 4.5, "phone": "+12152718299", "id": "laurel-philadelphia-2", "name": "Laurel", "transactions": [], "url": "https://www.yelp.com/biz/laurel-philadelphia-2?adjust_creative=8_C4NSGbL05eUQksKleGYw&utm_campaign=yelp_api_v3&utm_medium=api_v3_business_search&utm_source=8_C4NSGbL05eUQksKleGYw", "is_closed": false, "image_url": "https://s3-media3.fl.yelpcdn.com/bphoto/qrakp_ZVrwLwB0hUrWhN2w/o.jpg"}, {"coordinates": {"longitude": -75.1920144, "latitude": 39.9575513}, "categories": [{"alias": "ramen", "title": "Ramen"}, {"alias": "bars", "title": "Bars"}], "location": {"display_address": ["3438-48 Lancaster Ave", "Philadelphia, PA 19104"], "address3": null, "city": "Philadelphia", "state": "PA", "address2": "", "address1": "3438-48 Lancaster Ave", "zip_code": "19104", "country": "US"}, "review_count": 31, "distance": 1803.181140584, "display_phone": "(215) 921-5804", "price": "$$", "rating": 4.0, "phone": "+12159215804", "id": "ramen-bar-philadelphia-5", "name": "Ramen Bar", "transactions": [], "url": "https://www.yelp.com/biz/ramen-bar-philadelphia-5?adjust_creative=8_C4NSGbL05eUQksKleGYw&utm_campaign=yelp_api_v3&utm_medium=api_v3_business_search&utm_source=8_C4NSGbL05eUQksKleGYw", "is_closed": false, "image_url": "https://s3-media3.fl.yelpcdn.com/bphoto/RRssqpQOoJRtj6tPwHhO_g/o.jpg"}, {"coordinates": {"longitude": -75.15513, "latitude": 39.95369}, "categories": [{"alias": "sushi", "title": "Sushi Bars"}, {"alias": "bubbletea", "title": "Bubble Tea"}, {"alias": "japanese", "title": "Japanese"}], "location": {"display_address": ["909 Arch St", "Philadelphia, PA 19107"], "address3": "", "city": "Philadelphia", "state": "PA", "address2": "", "address1": "909 Arch St", "zip_code": "19107", "country": "US"}, "review_count": 239, "distance": 1370.908071366, "display_phone": "(267) 930-7634", "price": "$$", "rating": 4.0, "phone": "+12679307634", "id": "bubblefish-philadelphia-2", "name": "Bubblefish", "transactions": ["delivery", "pickup"], "url": "https://www.yelp.com/biz/bubblefish-philadelphia-2?adjust_creative=8_C4NSGbL05eUQksKleGYw&utm_campaign=yelp_api_v3&utm_medium=api_v3_business_search&utm_source=8_C4NSGbL05eUQksKleGYw", "is_closed": false, "image_url": "https://s3-media4.fl.yelpcdn.com/bphoto/Mp_NOJBkXhb1mNMaQmj7Ng/o.jpg"}, {"coordinates": {"longitude": -75.1662055, "latitude": 39.948793}, "categories": [{"alias": "pubs", "title": "Pubs"}, {"alias": "burgers", "title": "Burgers"}], "location": {"display_address": ["224 S 15th St", "Philadelphia, PA 19102"], "address3": "", "city": "Philadelphia", "state": "PA", "address2": null, "address1": "224 S 15th St", "zip_code": "19102", "country": "US"}, "review_count": 1030, "distance": 699.4828455837999, "display_phone": "(215) 985-9600", "price": "$$", "rating": 4.0, "phone": "+12159859600", "id": "good-dog-bar-philadelphia", "name": "Good Dog Bar", "transactions": [], "url": "https://www.yelp.com/biz/good-dog-bar-philadelphia?adjust_creative=8_C4NSGbL05eUQksKleGYw&utm_campaign=yelp_api_v3&utm_medium=api_v3_business_search&utm_source=8_C4NSGbL05eUQksKleGYw", "is_closed": false, "image_url": "https://s3-media4.fl.yelpcdn.com/bphoto/cj_xmLXR8-emiy7_lyhcNw/o.jpg"}, {"coordinates": {"longitude": -75.20891, "latitude": 40.0771}, "categories": [{"alias": "newamerican", "title": "American (New)"}, {"alias": "lounges", "title": "Lounges"}], "location": {"display_address": ["8636 Germantown Ave", "Philadelphia, PA 19118"], "address3": "", "city": "Philadelphia", "state": "PA", "address2": "", "address1": "8636 Germantown Ave", "zip_code": "19118", "country": "US"}, "review_count": 101, "distance": 14086.966620379999, "display_phone": "(215) 247-9948", "price": "$$", "rating": 4.0, "phone": "+12152479948", "id": "tavern-on-the-hill-philadelphia", "name": "Tavern On the Hill", "transactions": [], "url": "https://www.yelp.com/biz/tavern-on-the-hill-philadelphia?adjust_creative=8_C4NSGbL05eUQksKleGYw&utm_campaign=yelp_api_v3&utm_medium=api_v3_business_search&utm_source=8_C4NSGbL05eUQksKleGYw", "is_closed": false, "image_url": "https://s3-media2.fl.yelpcdn.com/bphoto/C9EQLBfH1DSa7-uCtbSW-Q/o.jpg"}, {"coordinates": {"longitude": -75.1313583, "latitude": 39.9696218}, "categories": [{"alias": "vietnamese", "title": "Vietnamese"}, {"alias": "thai", "title": "Thai"}, {"alias": "newamerican", "title": "American (New)"}], "location": {"display_address": ["308 E Girard Ave", "Philadelphia, PA 19125"], "address3": "", "city": "Philadelphia", "state": "PA", "address2": "", "address1": "308 E Girard Ave", "zip_code": "19125", "country": "US"}, "review_count": 166, "distance": 3825.876418102, "display_phone": "", "price": "$$", "rating": 4.0, "phone": "", "id": "stock-philadelphia", "name": "Stock", "transactions": [], "url": "https://www.yelp.com/biz/stock-philadelphia?adjust_creative=8_C4NSGbL05eUQksKleGYw&utm_campaign=yelp_api_v3&utm_medium=api_v3_business_search&utm_source=8_C4NSGbL05eUQksKleGYw", "is_closed": false, "image_url": "https://s3-media2.fl.yelpcdn.com/bphoto/s0wZTI75HCc9bVpfw3JLsw/o.jpg"}, {"coordinates": {"longitude": -75.1607, "latitude": 39.94516}, "categories": [{"alias": "latin", "title": "Latin American"}, {"alias": "caribbean", "title": "Caribbean"}, {"alias": "cuban", "title": "Cuban"}], "location": {"display_address": ["1141 Pine St", "Philadelphia, PA 19107"], "address3": "", "city": "Philadelphia", "state": "PA", "address2": "", "address1": "1141 Pine St", "zip_code": "19107", "country": "US"}, "review_count": 925, "distance": 1284.2818696916, "display_phone": "(215) 592-0363", "price": "$$", "rating": 4.0, "phone": "+12155920363", "id": "mixto-philadelphia", "name": "Mixto", "transactions": [], "url": "https://www.yelp.com/biz/mixto-philadelphia?adjust_creative=8_C4NSGbL05eUQksKleGYw&utm_campaign=yelp_api_v3&utm_medium=api_v3_business_search&utm_source=8_C4NSGbL05eUQksKleGYw", "is_closed": false, "image_url": "https://s3-media3.fl.yelpcdn.com/bphoto/o_gIJupqn6IOJhEVC3C1hw/o.jpg"}, {"coordinates": {"longitude": -75.249115, "latitude": 39.8860168}, "categories": [{"alias": "breakfast_brunch", "title": "Breakfast & Brunch"}, {"alias": "sandwiches", "title": "Sandwiches"}], "location": {"display_address": ["8900 Bartram Ave", "Philadelphia, PA 19153"], "address3": "", "city": "Philadelphia", "state": "PA", "address2": "", "address1": "8900 Bartram Ave", "zip_code": "19153", "country": "US"}, "review_count": 7, "distance": 10078.3710495, "display_phone": "", "rating": 4.0, "phone": "", "id": "the-bistro-philadelphia", "name": "The Bistro", "transactions": [], "url": "https://www.yelp.com/biz/the-bistro-philadelphia?adjust_creative=8_C4NSGbL05eUQksKleGYw&utm_campaign=yelp_api_v3&utm_medium=api_v3_business_search&utm_source=8_C4NSGbL05eUQksKleGYw", "is_closed": false, "image_url": "https://s3-media4.fl.yelpcdn.com/bphoto/kjnmZVFMQokUPQtIeJtkag/o.jpg"}, {"coordinates": {"longitude": -75.1753409206867, "latitude": 39.9671153197102}, "categories": [{"alias": "italian", "title": "Italian"}], "location": {"display_address": ["2244 Fairmount Ave", "Philadelphia, PA 19130"], "address3": "", "city": "Philadelphia", "state": "PA", "address2": "", "address1": "2244 Fairmount Ave", "zip_code": "19130", "country": "US"}, "review_count": 84, "distance": 1523.8067493997999, "display_phone": "(215) 236-1114", "price": "$$$", "rating": 4.0, "phone": "+12152361114", "id": "a-mano-philadelphia", "name": "A Mano", "transactions": [], "url": "https://www.yelp.com/biz/a-mano-philadelphia?adjust_creative=8_C4NSGbL05eUQksKleGYw&utm_campaign=yelp_api_v3&utm_medium=api_v3_business_search&utm_source=8_C4NSGbL05eUQksKleGYw", "is_closed": false, "image_url": "https://s3-media1.fl.yelpcdn.com/bphoto/dvaHt4VQyD7XTURKbZHXMw/o.jpg"}, {"coordinates": {"longitude": -75.2033457222612, "latitude": 39.9516153765444}, "categories": [{"alias": "chinese", "title": "Chinese"}, {"alias": "bars", "title": "Bars"}, {"alias": "karaoke", "title": "Karaoke"}], "location": {"display_address": ["4002 Spruce St", "Philadelphia, PA 19104"], "address3": "", "city": "Philadelphia", "state": "PA", "address2": null, "address1": "4002 Spruce St", "zip_code": "19104", "country": "US"}, "review_count": 42, "distance": 2750.383947024, "display_phone": "(215) 921-2112", "price": "$$", "rating": 4.0, "phone": "+12159212112", "id": "shanghai-station-philadelphia-5", "name": "Shanghai Station", "transactions": ["pickup"], "url": "https://www.yelp.com/biz/shanghai-station-philadelphia-5?adjust_creative=8_C4NSGbL05eUQksKleGYw&utm_campaign=yelp_api_v3&utm_medium=api_v3_business_search&utm_source=8_C4NSGbL05eUQksKleGYw", "is_closed": false, "image_url": "https://s3-media2.fl.yelpcdn.com/bphoto/IRCUP1sCfO676JmGFU7E_g/o.jpg"}, {"coordinates": {"longitude": -75.0846842676401, "latitude": 40.0605732947588}, "categories": [{"alias": "chicken_wings", "title": "Chicken Wings"}, {"alias": "beerbar", "title": "Beer Bar"}, {"alias": "delis", "title": "Delis"}], "location": {"display_address": ["7235 Rising Sun Ave", "Philadelphia, PA 19111"], "address3": "", "city": "Philadelphia", "state": "PA", "address2": "", "address1": "7235 Rising Sun Ave", "zip_code": "19111", "country": "US"}, "review_count": 59, "distance": 13958.39644778, "display_phone": "(267) 538-3609", "price": "$", "rating": 5.0, "phone": "+12675383609", "id": "chases-hop-shop-philadelphia-2", "name": "Chase's Hop Shop", "transactions": [], "url": "https://www.yelp.com/biz/chases-hop-shop-philadelphia-2?adjust_creative=8_C4NSGbL05eUQksKleGYw&utm_campaign=yelp_api_v3&utm_medium=api_v3_business_search&utm_source=8_C4NSGbL05eUQksKleGYw", "is_closed": false, "image_url": "https://s3-media1.fl.yelpcdn.com/bphoto/YhqL4KnsdHl4np8rMNxwQA/o.jpg"}, {"coordinates": {"longitude": -75.1706997, "latitude": 39.949136}, "categories": [{"alias": "french", "title": "French"}, {"alias": "newamerican", "title": "American (New)"}, {"alias": "cafes", "title": "Cafes"}], "location": {"display_address": ["227 S 18th St", "Philadelphia, PA 19103"], "address3": "", "city": "Philadelphia", "state": "PA", "address2": "", "address1": "227 S 18th St", "zip_code": "19103", "country": "US"}, "review_count": 1645, "distance": 510.6865835648, "display_phone": "(215) 545-2262", "price": "$$$", "rating": 4.0, "phone": "+12155452262", "id": "parc-restaurant-bistro-and-cafe-philadelphia", "name": "Parc Restaurant, Bistro & Cafe", "transactions": [], "url": "https://www.yelp.com/biz/parc-restaurant-bistro-and-cafe-philadelphia?adjust_creative=8_C4NSGbL05eUQksKleGYw&utm_campaign=yelp_api_v3&utm_medium=api_v3_business_search&utm_source=8_C4NSGbL05eUQksKleGYw", "is_closed": false, "image_url": "https://s3-media3.fl.yelpcdn.com/bphoto/HiiAgUDE7LV-42ET0-QJaA/o.jpg"}, {"coordinates": {"longitude": -75.2168865, "latitude": 39.9481782}, "categories": [{"alias": "vietnamese", "title": "Vietnamese"}], "location": {"display_address": ["816 S 47th St", "Philadelphia, PA 19143"], "address3": "", "city": "Philadelphia", "state": "PA", "address2": "", "address1": "816 S 47th St", "zip_code": "19143", "country": "US"}, "review_count": 252, "distance": 3943.768619802, "display_phone": "(215) 729-0260", "price": "$$", "rating": 4.0, "phone": "+12157290260", "id": "vietnam-cafe-philadelphia", "name": "Vietnam Cafe", "transactions": [], "url": "https://www.yelp.com/biz/vietnam-cafe-philadelphia?adjust_creative=8_C4NSGbL05eUQksKleGYw&utm_campaign=yelp_api_v3&utm_medium=api_v3_business_search&utm_source=8_C4NSGbL05eUQksKleGYw", "is_closed": false, "image_url": "https://s3-media3.fl.yelpcdn.com/bphoto/p5Dlqwmfj1jdaCDMIt4nFg/o.jpg"}, {"coordinates": {"longitude": -75.1242795983472, "latitude": 40.0385555068458}, "categories": [{"alias": "korean", "title": "Korean"}], "location": {"display_address": ["5734 Old 2nd St", "Philadelphia, PA 19120"], "address3": "", "city": "Philadelphia", "state": "PA", "address2": "", "address1": "5734 Old 2nd St", "zip_code": "19120", "country": "US"}, "review_count": 394, "distance": 10238.805188496, "display_phone": "(215) 924-3355", "price": "$$", "rating": 4.0, "phone": "+12159243355", "id": "seorabol-korean-restaurant-philadelphia", "name": "Seorabol Korean Restaurant", "transactions": ["pickup"], "url": "https://www.yelp.com/biz/seorabol-korean-restaurant-philadelphia?adjust_creative=8_C4NSGbL05eUQksKleGYw&utm_campaign=yelp_api_v3&utm_medium=api_v3_business_search&utm_source=8_C4NSGbL05eUQksKleGYw", "is_closed": false, "image_url": "https://s3-media2.fl.yelpcdn.com/bphoto/PI-K9TWV88Snf_ITcL5xtg/o.jpg"}, {"coordinates": {"longitude": -75.2088726, "latitude": 40.0771023}, "categories": [{"alias": "tradamerican", "title": "American (Traditional)"}, {"alias": "pubs", "title": "Pubs"}, {"alias": "cheesesteaks", "title": "Cheesesteaks"}], "location": {"display_address": ["8634 Germantown Ave", "Philadelphia, PA 19118"], "address3": "", "city": "Philadelphia", "state": "PA", "address2": "", "address1": "8634 Germantown Ave", "zip_code": "19118", "country": "US"}, "review_count": 148, "distance": 14082.891771499999, "display_phone": "(215) 247-9736", "price": "$$", "rating": 4.5, "phone": "+12152479736", "id": "mcnallys-tavern-philadelphia-3", "name": "McNally's Tavern", "transactions": [], "url": "https://www.yelp.com/biz/mcnallys-tavern-philadelphia-3?adjust_creative=8_C4NSGbL05eUQksKleGYw&utm_campaign=yelp_api_v3&utm_medium=api_v3_business_search&utm_source=8_C4NSGbL05eUQksKleGYw", "is_closed": false, "image_url": "https://s3-media2.fl.yelpcdn.com/bphoto/sowtPs1mRAWIXLXVuWGhug/o.jpg"}, {"coordinates": {"longitude": -75.22151, "latitude": 40.02485}, "categories": [{"alias": "japanese", "title": "Japanese"}, {"alias": "sushi", "title": "Sushi Bars"}], "location": {"display_address": ["4255 Main St", "Philadelphia, PA 19127"], "address3": "", "city": "Philadelphia", "state": "PA", "address2": "", "address1": "4255 Main St", "zip_code": "19127", "country": "US"}, "review_count": 166, "distance": 8990.740453339999, "display_phone": "(267) 297-8151", "price": "$$", "rating": 4.0, "phone": "+12672978151", "id": "yanako-philadelphia", "name": "Yanako", "transactions": ["delivery", "pickup"], "url": "https://www.yelp.com/biz/yanako-philadelphia?adjust_creative=8_C4NSGbL05eUQksKleGYw&utm_campaign=yelp_api_v3&utm_medium=api_v3_business_search&utm_source=8_C4NSGbL05eUQksKleGYw", "is_closed": false, "image_url": "https://s3-media2.fl.yelpcdn.com/bphoto/eEGiD8bGNHk0gfOpamnbpA/o.jpg"}, {"coordinates": {"longitude": -75.0379283353686, "latitude": 40.0273628391574}, "categories": [{"alias": "italian", "title": "Italian"}], "location": {"display_address": ["4741 Princeton Ave", "Philadelphia, PA 19135"], "address3": "", "city": "Philadelphia", "state": "PA", "address2": "", "address1": "4741 Princeton Ave", "zip_code": "19135", "country": "US"}, "review_count": 25, "distance": 13995.04433826, "display_phone": "(215) 332-2233", "price": "$$", "rating": 5.0, "phone": "+12153322233", "id": "lorenzos-cafe-espresso-ristorante-italiano-philadelphia-3", "name": "Lorenzo's Cafe Espresso Ristorante Italiano", "transactions": [], "url": "https://www.yelp.com/biz/lorenzos-cafe-espresso-ristorante-italiano-philadelphia-3?adjust_creative=8_C4NSGbL05eUQksKleGYw&utm_campaign=yelp_api_v3&utm_medium=api_v3_business_search&utm_source=8_C4NSGbL05eUQksKleGYw", "is_closed": false, "image_url": "https://s3-media3.fl.yelpcdn.com/bphoto/3zcXIZl88YQUoCueTkuOFg/o.jpg"}, {"coordinates": {"longitude": -75.20599, "latitude": 40.02951}, "categories": [{"alias": "sandwiches", "title": "Sandwiches"}, {"alias": "cheesesteaks", "title": "Cheesesteaks"}], "location": {"display_address": ["600 Wendover St", "Philadelphia, PA 19128"], "address3": "", "city": "Philadelphia", "state": "PA", "address2": "", "address1": "600 Wendover St", "zip_code": "19128", "country": "US"}, "review_count": 1020, "distance": 8927.645795838, "display_phone": "(215) 482-5407", "price": "$", "rating": 4.5, "phone": "+12154825407", "id": "dalessandros-steaks-philadelphia", "name": "Dalessandro's Steaks", "transactions": [], "url": "https://www.yelp.com/biz/dalessandros-steaks-philadelphia?adjust_creative=8_C4NSGbL05eUQksKleGYw&utm_campaign=yelp_api_v3&utm_medium=api_v3_business_search&utm_source=8_C4NSGbL05eUQksKleGYw", "is_closed": false, "image_url": "https://s3-media3.fl.yelpcdn.com/bphoto/t9oUxay14eUT50JUob8c6g/o.jpg"}], "region": {"center": {"longitude": -75.17120361328125, "latitude": 39.95378209544653}}, "total": 10826}