{"businesses": [{"coordinates": {"longitude": -75.14451, "latitude": 39.96397}, "categories": [{"alias": "southern", "title": "Southern"}, {"alias": "tradamerican", "title": "American (Traditional)"}], "location": {"display_address": ["800 N 4th St", "Philadelphia, PA 19123"], "address3": "", "city": "Philadelphia", "state": "PA", "address2": null, "address1": "800 N 4th St", "zip_code": "19123", "country": "US"}, "review_count": 1146, "distance": 2538.54555722, "display_phone": "(215) 925-1150", "price": "$$", "rating": 4.0, "phone": "+12159251150", "id": "honeys-sit-n-eat-philadelphia", "name": "Honey's Sit-N-Eat", "transactions": [], "url": "https://www.yelp.com/biz/honeys-sit-n-eat-philadelphia?adjust_creative=8_C4NSGbL05eUQksKleGYw&utm_campaign=yelp_api_v3&utm_medium=api_v3_business_search&utm_source=8_C4NSGbL05eUQksKleGYw", "is_closed": false, "image_url": "https://s3-media1.fl.yelpcdn.com/bphoto/yFq0nKkMCsq1GaI892CFCA/o.jpg"}, {"coordinates": {"longitude": -75.15448, "latitude": 39.9553986}, "categories": [{"alias": "ramen", "title": "Ramen"}], "location": {"display_address": ["204 N 9th St", "Philadelphia, PA 19107"], "address3": "", "city": "Philadelphia", "state": "PA", "address2": "", "address1": "204 N 9th St", "zip_code": "19107", "country": "US"}, "review_count": 848, "distance": 1436.177590944, "display_phone": "(267) 687-1355", "price": "$$", "rating": 4.0, "phone": "+12676871355", "id": "terakawa-ramen-philadelphia", "name": "Terakawa Ramen", "transactions": [], "url": "https://www.yelp.com/biz/terakawa-ramen-philadelphia?adjust_creative=8_C4NSGbL05eUQksKleGYw&utm_campaign=yelp_api_v3&utm_medium=api_v3_business_search&utm_source=8_C4NSGbL05eUQksKleGYw", "is_closed": false, "image_url": "https://s3-media4.fl.yelpcdn.com/bphoto/IKiROrMWxoWxLuf_-yOs1w/o.jpg"}, {"coordinates": {"longitude": -75.1404441920654, "latitude": 39.967331590792}, "categories": [{"alias": "mediterranean", "title": "Mediterranean"}, {"alias": "mideastern", "title": "Middle Eastern"}, {"alias": "armenian", "title": "Armenian"}], "location": {"display_address": ["1040 N American St", "Ste 601", "Philadelphia, PA 19123"], "address3": "", "city": "Philadelphia", "state": "PA", "address2": "Ste 601", "address1": "1040 N American St", "zip_code": "19123", "country": "US"}, "review_count": 95, "distance": 3023.886452004, "display_phone": "(267) 606-6596", "price": "$$", "rating": 4.5, "phone": "+12676066596", "id": "apricotstone-philadelphia-6", "name": "apricotstone", "transactions": [], "url": "https://www.yelp.com/biz/apricotstone-philadelphia-6?adjust_creative=8_C4NSGbL05eUQksKleGYw&utm_campaign=yelp_api_v3&utm_medium=api_v3_business_search&utm_source=8_C4NSGbL05eUQksKleGYw", "is_closed": false, "image_url": "https://s3-media1.fl.yelpcdn.com/bphoto/aITrWfVOlNeATTYrbepODw/o.jpg"}, {"coordinates": {"longitude": -75.1444168, "latitude": 39.9519196}, "categories": [{"alias": "newamerican", "title": "American (New)"}], "location": {"display_address": ["232 Arch St", "Philadelphia, PA 19106"], "address3": "", "city": "Philadelphia", "state": "PA", "address2": "", "address1": "232 Arch St", "zip_code": "19106", "country": "US"}, "review_count": 126, "distance": 2294.9294616439997, "display_phone": "(215) 629-2337", "price": "$$$", "rating": 4.0, "phone": "+12156292337", "id": "chloe-philadelphia", "name": "Chloe", "transactions": [], "url": "https://www.yelp.com/biz/chloe-philadelphia?adjust_creative=8_C4NSGbL05eUQksKleGYw&utm_campaign=yelp_api_v3&utm_medium=api_v3_business_search&utm_source=8_C4NSGbL05eUQksKleGYw", "is_closed": false, "image_url": "https://s3-media3.fl.yelpcdn.com/bphoto/OcMEIZh3ZyTyH2gYJrmz1w/o.jpg"}, {"coordinates": {"longitude": -75.1675666, "latitude": 39.9493695}, "categories": [{"alias": "tradamerican", "title": "American (Traditional)"}, {"alias": "gluten_free", "title": "Gluten-Free"}], "location": {"display_address": ["207 S 16th St", "Philadelphia, PA 19102"], "address3": null, "city": "Philadelphia", "state": "PA", "address2": "", "address1": "207 S 16th St", "zip_code": "19102", "country": "US"}, "review_count": 117, "distance": 580.2315401604, "display_phone": "(215) 608-8941", "price": "$$", "rating": 4.5, "phone": "+12156088941", "id": "real-food-eatery-philadelphia", "name": "Real Food Eatery", "transactions": [], "url": "https://www.yelp.com/biz/real-food-eatery-philadelphia?adjust_creative=8_C4NSGbL05eUQksKleGYw&utm_campaign=yelp_api_v3&utm_medium=api_v3_business_search&utm_source=8_C4NSGbL05eUQksKleGYw", "is_closed": false, "image_url": "https://s3-media3.fl.yelpcdn.com/bphoto/469Km7BFrrxb9OZd4byRLQ/o.jpg"}, {"coordinates": {"longitude": -75.1692651229736, "latitude": 40.0324443788558}, "categories": [{"alias": "pizza", "title": "Pizza"}], "location": {"display_address": ["5301 Germantown Ave", "Philadelphia, PA 19144"], "address3": "", "city": "Philadelphia", "state": "PA", "address2": "", "address1": "5301 Germantown Ave", "zip_code": "19144", "country": "US"}, "review_count": 65, "distance": 8748.460270897998, "display_phone": "(267) 766-6900", "price": "$$", "rating": 4.0, "phone": "+12677666900", "id": "pizzeria-nonna-philadelphia", "name": "Pizzeria Nonna", "transactions": [], "url": "https://www.yelp.com/biz/pizzeria-nonna-philadelphia?adjust_creative=8_C4NSGbL05eUQksKleGYw&utm_campaign=yelp_api_v3&utm_medium=api_v3_business_search&utm_source=8_C4NSGbL05eUQksKleGYw", "is_closed": false, "image_url": "https://s3-media3.fl.yelpcdn.com/bphoto/82BxdGuPPikf0tVhXARutQ/o.jpg"}, {"coordinates": {"longitude": -75.1440616697073, "latitude": 39.9486594647169}, "categories": [{"alias": "gastropubs", "title": "Gastropubs"}, {"alias": "pubs", "title": "Pubs"}, {"alias": "tradamerican", "title": "American (Traditional)"}], "location": {"display_address": ["56 S 2nd St", "Philadelphia, PA 19106"], "address3": "", "city": "Philadelphia", "state": "PA", "address2": "", "address1": "56 S 2nd St", "zip_code": "19106", "country": "US"}, "review_count": 678, "distance": 2371.60871902, "display_phone": "(215) 238-5888", "price": "$$", "rating": 4.0, "phone": "+12152385888", "id": "khyber-pass-pub-philadelphia", "name": "Khyber Pass Pub", "transactions": [], "url": "https://www.yelp.com/biz/khyber-pass-pub-philadelphia?adjust_creative=8_C4NSGbL05eUQksKleGYw&utm_campaign=yelp_api_v3&utm_medium=api_v3_business_search&utm_source=8_C4NSGbL05eUQksKleGYw", "is_closed": false, "image_url": "https://s3-media4.fl.yelpcdn.com/bphoto/IqwtheOv0HLbTtDdjepiDw/o.jpg"}, {"coordinates": {"longitude": -75.21243, "latitude": 39.95015}, "categories": [{"alias": "newamerican", "title": "American (New)"}], "location": {"display_address": ["501 S 45th St", "Philadelphia, PA 19104"], "address3": "", "city": "Philadelphia", "state": "PA", "address2": null, "address1": "501 S 45th St", "zip_code": "19104", "country": "US"}, "review_count": 239, "distance": 3533.374849752, "display_phone": "(215) 222-3699", "price": "$$$$", "rating": 4.0, "phone": "+12152223699", "id": "marigold-kitchen-philadelphia", "name": "Marigold Kitchen", "transactions": [], "url": "https://www.yelp.com/biz/marigold-kitchen-philadelphia?adjust_creative=8_C4NSGbL05eUQksKleGYw&utm_campaign=yelp_api_v3&utm_medium=api_v3_business_search&utm_source=8_C4NSGbL05eUQksKleGYw", "is_closed": false, "image_url": "https://s3-media1.fl.yelpcdn.com/bphoto/ocmb9hfbgzYF-Q8flUEz3g/o.jpg"}, {"coordinates": {"longitude": -75.168884, "latitude": 39.926345}, "categories": [{"alias": "italian", "title": "Italian"}], "location": {"display_address": ["1915 S Broad St", "Philadelphia, PA 19148"], "address3": "", "city": "Philadelphia", "state": "PA", "address2": "", "address1": "1915 S Broad St", "zip_code": "19148", "country": "US"}, "review_count": 214, "distance": 3057.0647663779996, "display_phone": "(215) 336-8380", "price": "$$", "rating": 4.5, "phone": "+12153368380", "id": "ristorante-pesto-philadelphia", "name": "Ristorante Pesto", "transactions": [], "url": "https://www.yelp.com/biz/ristorante-pesto-philadelphia?adjust_creative=8_C4NSGbL05eUQksKleGYw&utm_campaign=yelp_api_v3&utm_medium=api_v3_business_search&utm_source=8_C4NSGbL05eUQksKleGYw", "is_closed": false, "image_url": "https://s3-media3.fl.yelpcdn.com/bphoto/IlY7ayAcEm5EAgF0CAq--w/o.jpg"}, {"coordinates": {"longitude": -75.1781539916992, "latitude": 39.9687690734863}, "categories": [{"alias": "irish", "title": "Irish"}, {"alias": "irish_pubs", "title": "Irish Pub"}], "location": {"display_address": ["747 N 25th St", "Philadelphia, PA 19130"], "address3": "", "city": "Philadelphia", "state": "PA", "address2": "", "address1": "747 N 25th St", "zip_code": "19130", "country": "US"}, "review_count": 44, "distance": 1769.92638256, "display_phone": "(215) 232-1086", "price": "$$", "rating": 4.0, "phone": "+12152321086", "id": "the-black-taxi-philadelphia-2", "name": "The Black Taxi", "transactions": [], "url": "https://www.yelp.com/biz/the-black-taxi-philadelphia-2?adjust_creative=8_C4NSGbL05eUQksKleGYw&utm_campaign=yelp_api_v3&utm_medium=api_v3_business_search&utm_source=8_C4NSGbL05eUQksKleGYw", "is_closed": false, "image_url": "https://s3-media3.fl.yelpcdn.com/bphoto/mV7n4iKoL6VmP4EOvXqNZA/o.jpg"}, {"coordinates": {"longitude": -75.1351413, "latitude": 39.9688395}, "categories": [{"alias": "mexican", "title": "Mexican"}, {"alias": "cocktailbars", "title": "Cocktail Bars"}], "location": {"display_address": ["19 W Girard Ave", "Philadelphia, PA 19125"], "address3": "", "city": "Philadelphia", "state": "PA", "address2": "", "address1": "19 W Girard Ave", "zip_code": "19125", "country": "US"}, "review_count": 181, "distance": 3500.081467568, "display_phone": "(267) 324-3530", "price": "$$", "rating": 4.0, "phone": "+12673243530", "id": "sancho-pistolas-philadelphia-2", "name": "Sancho Pistola's", "transactions": [], "url": "https://www.yelp.com/biz/sancho-pistolas-philadelphia-2?adjust_creative=8_C4NSGbL05eUQksKleGYw&utm_campaign=yelp_api_v3&utm_medium=api_v3_business_search&utm_source=8_C4NSGbL05eUQksKleGYw", "is_closed": false, "image_url": "https://s3-media2.fl.yelpcdn.com/bphoto/sPWOW0QKaCZOBcQIuRQePg/o.jpg"}, {"coordinates": {"longitude": -75.1642701029778, "latitude": 39.9630709056427}, "categories": [{"alias": "sandwiches", "title": "Sandwiches"}, {"alias": "breakfast_brunch", "title": "Breakfast & Brunch"}, {"alias": "gluten_free", "title": "Gluten-Free"}], "location": {"display_address": ["1541 Spring Garden St", "Philadelphia, PA 19130"], "address3": null, "city": "Philadelphia", "state": "PA", "address2": "", "address1": "1541 Spring Garden St", "zip_code": "19130", "country": "US"}, "review_count": 63, "distance": 1190.0429265482, "display_phone": "(215) 977-9273", "price": "$$", "rating": 5.0, "phone": "+12159779273", "id": "stockyard-sandwich-philadelphia", "name": "Stockyard Sandwich", "transactions": [], "url": "https://www.yelp.com/biz/stockyard-sandwich-philadelphia?adjust_creative=8_C4NSGbL05eUQksKleGYw&utm_campaign=yelp_api_v3&utm_medium=api_v3_business_search&utm_source=8_C4NSGbL05eUQksKleGYw", "is_closed": false, "image_url": "https://s3-media4.fl.yelpcdn.com/bphoto/Skv1XNGhvT7s9qxRGzM5Ow/o.jpg"}, {"coordinates": {"longitude": -75.1637115478516, "latitude": 39.9294204711914}, "categories": [{"alias": "french", "title": "French"}, {"alias": "newamerican", "title": "American (New)"}], "location": {"display_address": ["1617 E Passyunk Ave", "Philadelphia, PA 19148"], "address3": "", "city": "Philadelphia", "state": "PA", "address2": null, "address1": "1617 E Passyunk Ave", "zip_code": "19148", "country": "US"}, "review_count": 233, "distance": 2783.178594742, "display_phone": "(215) 271-8299", "price": "$$$$", "rating": 4.5, "phone": "+12152718299", "id": "laurel-philadelphia-2", "name": "Laurel", "transactions": [], "url": "https://www.yelp.com/biz/laurel-philadelphia-2?adjust_creative=8_C4NSGbL05eUQksKleGYw&utm_campaign=yelp_api_v3&utm_medium=api_v3_business_search&utm_source=8_C4NSGbL05eUQksKleGYw", "is_closed": false, "image_url": "https://s3-media3.fl.yelpcdn.com/bphoto/qrakp_ZVrwLwB0hUrWhN2w/o.jpg"}, {"coordinates": {"longitude": -75.1920144, "latitude": 39.9575513}, "categories": [{"alias": "ramen", "title": "Ramen"}, {"alias": "bars", "title": "Bars"}], "location": {"display_address": ["3438-48 Lancaster Ave", "Philadelphia, PA 19104"], "address3": null, "city": "Philadelphia", "state": "PA", "address2": "", "address1": "3438-48 Lancaster Ave", "zip_code": "19104", "country": "US"}, "review_count": 31, "distance": 1803.181140584, "display_phone": "(215) 921-5804", "price": "$$", "rating": 4.0, "phone": "+12159215804", "id": "ramen-bar-philadelphia-5", "name": "Ramen Bar", "transactions": [], "url": "https://www.yelp.com/biz/ramen-bar-philadelphia-5?adjust_creative=8_C4NSGbL05eUQksKleGYw&utm_campaign=yelp_api_v3&utm_medium=api_v3_business_search&utm_source=8_C4NSGbL05eUQksKleGYw", "is_closed": false, "image_url": "https://s3-media3.fl.yelpcdn.com/bphoto/RRssqpQOoJRtj6tPwHhO_g/o.jpg"}, {"coordinates": {"longitude": -75.15513, "latitude": 39.95369}, "categories": [{"alias": "sushi", "title": "Sushi Bars"}, {"alias": "bubbletea", "title": "Bubble Tea"}, {"alias": "japanese", "title": "Japanese"}], "location": {"display_address": ["909 Arch St", "Philadelphia, PA 19107"], "address3": "", "city": "Philadelphia", "state": "PA", "address2": "", "address1": "909 Arch St", "zip_code": "19107", "country": "US"}, "review_count": 239, "distance": 1370.908071366, "display_phone": "(267) 930-7634", "price": "$$", "rating": 4.0, "phone": "+12679307634", "id": "bubblefish-philadelphia-2", "name": "Bubblefish", "transactions": ["delivery", "pickup"], "url": "https://www.yelp.com/biz/bubblefish-philadelphia-2?adjust_creative=8_C4NSGbL05eUQksKleGYw&utm_campaign=yelp_api_v3&utm_medium=api_v3_business_search&utm_source=8_C4NSGbL05eUQksKleGYw", "is_closed": false, "image_url": "https://s3-media4.fl.yelpcdn.com/bphoto/Mp_NOJBkXhb1mNMaQmj7Ng/o.jpg"}, {"coordinates": {"longitude": -75.1662055, "latitude": 39.948793}, "categories": [{"alias": "pubs", "title": "Pubs"}, {"alias": "burgers", "title": "Burgers"}], "location": {"display_address": ["224 S 15th St", "Philadelphia, PA 19102"], "address3": "", "city": "Philadelphia", "state": "PA", "address2": null, "address1": "224 S 15th St", "zip_code": "19102", "country": "US"}, "review_count": 1030, "distance": 699.4828455837999, "display_phone": "(215) 985-9600", "price": "$$", "rating": 4.0, "phone": "+12159859600", "id": "good-dog-bar-philadelphia", "name": "Good Dog Bar", "transactions": [], "url": "https://www.yelp.com/biz/good-dog-bar-philadelphia?adjust_creative=8_C4NSGbL05eUQksKleGYw&utm_campaign=yelp_api_v3&utm_medium=api_v3_business_search&utm_source=8_C4NSGbL05eUQksKleGYw", "is_closed": false, "image_url": "https://s3-media4.fl.yelpcdn.com/bphoto/cj_xmLXR8-emiy7_lyhcNw/o.jpg"}, {"coordinates": {"longitude": -75.20891, "latitude": 40.0771}, "categories": [{"alias": "newamerican", "title": "American (New)"}, {"alias": "lounges", "title": "Lounges"}], "location": {"display_address": ["8636 Germantown Ave", "Philadelphia, PA 19118"], "address3": "", "city": "Philadelphia", "state": "PA", "address2": "", "address1": "8636 Germantown Ave", "zip_code": "19118", "country": "US"}, "review_count": 101, "distance": 14086.966620379999, "display_phone": "(215) 247-9948", "price": "$$", "rating": 4.0, "phone": "+12152479948", "id": "tavern-on-the-hill-philadelphia", "name": "Tavern On the Hill", "transactions": [], "url": "https://www.yelp.com/biz/tavern-on-the-hill-philadelphia?adjust_creative=8_C4NSGbL05eUQksKleGYw&utm_campaign=yelp_api_v3&utm_medium=api_v3_business_search&utm_source=8_C4NSGbL05eUQksKleGYw", "is_closed": false, "image_url": "https://s3-media2.fl.yelpcdn.com/bphoto/C9EQLBfH1DSa7-uCtbSW-Q/o.jpg"}, {"coordinates": {"longitude": -75.1313583, "latitude": 39.9696218}, "categories": [{"alias": "vietnamese", "title": "Vietnamese"}, {"alias": "thai", "title": "Thai"}, {"alias": "newamerican", "title": "American (New)"}], "location": {"display_address": ["308 E Girard Ave", "Philadelphia, PA 19125"], "address3": "", "city": "Philadelphia", "state": "PA", "address2": "", "address1": "308 E Girard Ave", "zip_code": "19125", "country": "US"}, "review_count": 166, "distance": 3825.876418102, "display_phone": "", "price": "$$", "rating": 4.0, "phone": "", "id": "stock-philadelphia", "name": "Stock", "transactions": [], "url": "https://www.yelp.com/biz/stock-philadelphia?adjust_creative=8_C4NSGbL05eUQksKleGYw&utm_campaign=yelp_api_v3&utm_medium=api_v3_business_search&utm_source=8_C4NSGbL05eUQksKleGYw", "is_closed": false, "image_url": "https://s3-media2.fl.yelpcdn.com/bphoto/s0wZTI75HCc9bVpfw3JLsw/o.jpg"}, {"coordinates": {"longitude": -75.1607, "latitude": 39.94516}, "categories": [{"alias": "latin", "title": "Latin American"}, {"alias": "caribbean", "title": "Caribbean"}, {"alias": "cuban", "title": "Cuban"}], "location": {"display_address": ["1141 Pine St", "Philadelphia, PA 19107"], "address3": "", "city": "Philadelphia", "state": "PA", "address2": "", "address1": "1141 Pine St", "zip_code": "19107", "country": "US"}, "review_count": 925, "distance": 1284.2818696916, "display_phone": "(215) 592-0363", "price": "$$", "rating": 4.0, "phone": "+12155920363", "id": "mixto-philadelphia", "name": "Mixto", "transactions": [], "url": "https://www.yelp.com/biz/mixto-philadelphia?adjust_creative=8_C4NSGbL05eUQksKleGYw&utm_campaign=yelp_api_v3&utm_medium=api_v3_business_search&utm_source=8_C4NSGbL05eUQksKleGYw", "is_closed": false, "image_url": "https://s3-media3.fl.yelpcdn.com/bphoto/o_gIJupqn6IOJhEVC3C1hw/o.jpg"}, {"coordinates": {"longitude": -75.249115, "latitude": 39.8860168}, "categories": [{"alias": "breakfast_brunch", "title": "Breakfast & Brunch"}, {"alias": "sandwiches", "title": "Sandwiches"}], "location": {"display_address": ["8900 Bartram Ave", "Philadelphia, PA 19153"], "address3": "", "city": "Philadelphia", "state": "PA", "address2": "", "address1": "8900 Bartram Ave", "zip_code": "19153", "country": "US"}, "review_count": 7, "distance": 10078.3710495, "display_phone": "", "rating": 4.0, "phone": "", "id": "the-bistro-philadelphia", "name": "The Bistro", "transactions": [], "url": "https://www.yelp.com/biz/the-bistro-philadelphia?adjust_creative=8_C4NSGbL05eUQksKleGYw&utm_campaign=yelp_api_v3&utm_medium=api_v3_business_search&utm_source=8_C4NSGbL05eUQksKleGYw", "is_closed": false, "image_url": "https://s3-media4.fl.yelpcdn.com/bphoto/kjnmZVFMQokUPQtIeJtkag/o.jpg"}, {"coordinates": {"longitude": -75.1753409206867, "latitude": 39.9671153197102}, "categories": [{"alias": "italian", "title": "Italian"}], "location": {"display_address": ["2244 Fairmount Ave", "Philadelphia, PA 19130"], "address3": "", "city": "Philadelphia", "state": "PA", "address2": "", "address1": "2244 Fairmount Ave", "zip_code": "19130", "country": "US"}, "review_count": 84, "distance": 1523.8067493997999, "display_phone": "(215) 236-1114", "price": "$$$", "rating": 4.0, "phone": "+12152361114", "id": "a-mano-philadelphia", "name": "A Mano", "transactions": [], "url": "https://www.yelp.com/biz/a-mano-philadelphia?adjust_creative=8_C4NSGbL05eUQksKleGYw&utm_campaign=yelp_api_v3&utm_medium=api_v3_business_search&utm_source=8_C4NSGbL05eUQksKleGYw", "is_closed": false, "image_url": "https://s3-media1.fl.yelpcdn.com/bphoto/dvaHt4VQyD7XTURKbZHXMw/o.jpg"}, {"coordinates": {"longitude": -75.2033457222612, "latitude": 39.9516153765444}, "categories": [{"alias": "chinese", "title": "Chinese"}, {"alias": "bars", "title": "Bars"}, {"alias": "karaoke", "title": "Karaoke"}], "location": {"display_address": ["4002 Spruce St", "Philadelphia, PA 19104"], "address3": "", "city": "Philadelphia", "state": "PA", "address2": null, "address1": "4002 Spruce St", "zip_code": "19104", "country": "US"}, "review_count": 42, "distance": 2750.383947024, "display_phone": "(215) 921-2112", "price": "$$", "rating": 4.0, "phone": "+12159212112", "id": "shanghai-station-philadelphia-5", "name": "Shanghai Station", "transactions": ["pickup"], "url": "https://www.yelp.com/biz/shanghai-station-philadelphia-5?adjust_creative=8_C4NSGbL05eUQksKleGYw&utm_campaign=yelp_api_v3&utm_medium=api_v3_business_search&utm_source=8_C4NSGbL05eUQksKleGYw", "is_closed": false, "image_url": "https://s3-media2.fl.yelpcdn.com/bphoto/IRCUP1sCfO676JmGFU7E_g/o.jpg"}, {"coordinates": {"longitude": -75.0846842676401, "latitude": 40.0605732947588}, "categories": [{"alias": "chicken_wings", "title": "Chicken Wings"}, {"alias": "beerbar", "title": "Beer Bar"}, {"alias": "delis", "title": "Delis"}], "location": {"display_address": ["7235 Rising Sun Ave", "Philadelphia, PA 19111"], "address3": "", "city": "Philadelphia", "state": "PA", "address2": "", "address1": "7235 Rising Sun Ave", "zip_code": "19111", "country": "US"}, "review_count": 59, "distance": 13958.39644778, "display_phone": "(267) 538-3609", "price": "$", "rating": 5.0, "phone": "+12675383609", "id": "chases-hop-shop-philadelphia-2", "name": "Chase's Hop Shop", "transactions": [], "url": "https://www.yelp.com/biz/chases-hop-shop-philadelphia-2?adjust_creative=8_C4NSGbL05eUQksKleGYw&utm_campaign=yelp_api_v3&utm_medium=api_v3_business_search&utm_source=8_C4NSGbL05eUQksKleGYw", "is_closed": false, "image_url": "https://s3-media1.fl.yelpcdn.com/bphoto/YhqL4KnsdHl4np8rMNxwQA/o.jpg"}, {"coordinates": {"longitude": -75.1706997, "latitude": 39.949136}, "categories": [{"alias": "french", "title": "French"}, {"alias": "newamerican", "title": "American (New)"}, {"alias": "cafes", "title": "Cafes"}], "location": {"display_address": ["227 S 18th St", "Philadelphia, PA 19103"], "address3": "", "city": "Philadelphia", "state": "PA", "address2": "", "address1": "227 S 18th St", "zip_code": "19103", "country": "US"}, "review_count": 1645, "distance": 510.6865835648, "display_phone": "(215) 545-2262", "price": "$$$", "rating": 4.0, "phone": "+12155452262", "id": "parc-restaurant-bistro-and-cafe-philadelphia", "name": "Parc Restaurant, Bistro & Cafe", "transactions": [], "url": "https://www.yelp.com/biz/parc-restaurant-bistro-and-cafe-philadelphia?adjust_creative=8_C4NSGbL05eUQksKleGYw&utm_campaign=yelp_api_v3&utm_medium=api_v3_business_search&utm_source=8_C4NSGbL05eUQksKleGYw", "is_closed": false, "image_url": "https://s3-media3.fl.yelpcdn.com/bphoto/HiiAgUDE7LV-42ET0-QJaA/o.jpg"}, {"coordinates": {"longitude": -75.2168865, "latitude": 39.9481782}, "categories": [{"alias": "vietnamese", "title": "Vietnamese"}], "location": {"display_address": ["816 S 47th St", "Philadelphia, PA 19143"], "address3": "", "city": "Philadelphia", "state": "PA", "address2": "", "address1": "816 S 47th St", "zip_code": "19143", "country": "US"}, "review_count": 252, "distance": 3943.768619802, "display_phone": "(215) 729-0260", "price": "$$", "rating": 4.0, "phone": "+12157290260", "id": "vietnam-cafe-philadelphia", "name": "Vietnam Cafe", "transactions": [], "url": "https://www.yelp.com/biz/vietnam-cafe-philadelphia?adjust_creative=8_C4NSGbL05eUQksKleGYw&utm_campaign=yelp_api_v3&utm_medium=api_v3_business_search&utm_source=8_C4NSGbL05eUQksKleGYw", "is_closed": false, "image_url": "https://s3-media3.fl.yelpcdn.com/bphoto/p5Dlqwmfj1jdaCDMIt4nFg/o.jpg"}, {"coordinates": {"longitude": -75.1242795983472, "latitude": 40.0385555068458}, "categories": [{"alias": "korean", "title": "Korean"}], "location": {"display_address": ["5734 Old 2nd St", "Philadelphia, PA 19120"], "address3": "", "city": "Philadelphia", "state": "PA", "address2": "", "address1": "5734 Old 2nd St", "zip_code": "19120", "country": "US"}, "review_count": 394, "distance": 10238.805188496, "display_phone": "(215) 924-3355", "price": "$$", "rating": 4.0, "phone": "+12159243355", "id": "seorabol-korean-restaurant-philadelphia", "name": "Seorabol Korean Restaurant", "transactions": ["pickup"], "url": "https://www.yelp.com/biz/seorabol-korean-restaurant-philadelphia?adjust_creative=8_C4NSGbL05eUQksKleGYw&utm_campaign=yelp_api_v3&utm_medium=api_v3_business_search&utm_source=8_C4NSGbL05eUQksKleGYw", "is_closed": false, "image_url": "https://s3-media2.fl.yelpcdn.com/bphoto/PI-K9TWV88Snf_ITcL5xtg/o.jpg"}, {"coordinates": {"longitude": -75.2088726, "latitude": 40.0771023}, "categories": [{"alias": "tradamerican", "title": "American (Traditional)"}, {"alias": "pubs", "title": "Pubs"}, {"alias": "cheesesteaks", "title": "Cheesesteaks"}], "location": {"display_address": ["8634 Germantown Ave", "Philadelphia, PA 19118"], "address3": "", "city": "Philadelphia", "state": "PA", "address2": "", "address1": "8634 Germantown Ave", "zip_code": "19118", "country": "US"}, "review_count": 148, "distance": 14082.891771499999, "display_phone": "(215) 247-9736", "price": "$$", "rating": 4.5, "phone": "+12152479736", "id": "mcnallys-tavern-philadelphia-3", "name": "McNally's Tavern", "transactions": [], "url": "https://www.yelp.com/biz/mcnallys-tavern-philadelphia-3?adjust_creative=8_C4NSGbL05eUQksKleGYw&utm_campaign=yelp_api_v3&utm_medium=api_v3_business_search&utm_source=8_C4NSGbL05eUQksKleGYw", "is_closed": false, "image_url": "https://s3-media2.fl.yelpcdn.com/bphoto/sowtPs1mRAWIXLXVuWGhug/o.jpg"}, {"coordinates": {"longitude": -75.22151, "latitude": 40.02485}, "categories": [{"alias": "japanese", "title": "Japanese"}, {"alias": "sushi", "title": "Sushi Bars"}], "location": {"display_address": ["4255 Main St", "Philadelphia, PA 19127"], "address3": "", "city": "Philadelphia", "state": "PA", "address2": "", "address1": "4255 Main St", "zip_code": "19127", "country": "US"}, "review_count": 166, "distance": 8990.740453339999, "display_phone": "(267) 297-8151", "price": "$$", "rating": 4.0, "phone": "+12672978151", "id": "yanako-philadelphia", "name": "Yanako", "transactions": ["delivery", "pickup"], "url": "https://www.yelp.com/biz/yanako-philadelphia?adjust_creative=8_C4NSGbL05eUQksKleGYw&utm_campaign=yelp_api_v3&utm_medium=api_v3_business_search&utm_source=8_C4NSGbL05eUQksKleGYw", "is_closed": false, "image_url": "https://s3-media2.fl.yelpcdn.com/bphoto/eEGiD8bGNHk0gfOpamnbpA/o.jpg"}, {"coordinates": {"longitude": -75.0379283353686, "latitude": 40.0273628391574}, "categories": [{"alias": "italian", "title": "Italian"}], "location": {"display_address": ["4741 Princeton Ave", "Philadelphia, PA 19135"], "address3": "", "city": "Philadelphia", "state": "PA", "address2": "", "address1": "4741 Princeton Ave", "zip_code": "19135", "country": "US"}, "review_count": 25, "distance": 13995.04433826, "display_phone": "(215) 332-2233", "price": "$$", "rating": 5.0, "phone": "+12153322233", "id": "lorenzos-cafe-espresso-ristorante-italiano-philadelphia-3", "name": "Lorenzo's Cafe Espresso Ristorante Italiano", "transactions": [], "url": "https://www.yelp.com/biz/lorenzos-cafe-espresso-ristorante-italiano-philadelphia-3?adjust_creative=8_C4NSGbL05eUQksKleGYw&utm_campaign=yelp_api_v3&utm_medium=api_v3_business_search&utm_source=8_C4NSGbL05eUQksKleGYw", "is_closed": false, "image_url": "https://s3-media3.fl.yelpcdn.com/bphoto/3zcXIZl88YQUoCueTkuOFg/o.jpg"}, {"coordinates": {"longitude": -75.20599, "latitude": 40.02951}, "categories": [{"alias": "sandwiches", "title": "Sandwiches"}, {"alias": "cheesesteaks", "title": "Cheesesteaks"}], "location": {"display_address": ["600 Wendover St", "Philadelphia, PA 19128"], "address3": "", "city": "Philadelphia", "state": "PA", "address2": "", "address1": "600 Wendover St", "zip_code": "19128", "country": "US"}, "review_count": 1020, "distance": 8927.645795838, "display_phone": "(215) 482-5407", "price": "$", "rating": 4.5, "phone": "+12154825407", "id": "dalessandros-steaks-philadelphia", "name": "Dalessandro's Steaks", "transactions": [], "url": "https://www.yelp.com/biz/dalessandros-steaks-philadelphia?adjust_creative=8_C4NSGbL05eUQksKleGYw&utm_campaign=yelp_api_v3&utm_medium=api_v3_business_search&utm_source=8_C4NSGbL05eUQksKleGYw", "is_closed": false, "image_url": "https://s3-media3.fl.yelpcdn.com/bphoto/t9oUxay14eUT50JUob8c6g/o.jpg"}, {"coordinates": {"longitude": -75.1556091, "latitude": 39.9261894}, "categories": [{"alias": "cambodian", "title": "Cambodian"}], "location": {"display_address": ["1801 S 6th St", "Philadelphia, PA 19148"], "address3": "", "city": "Philadelphia", "state": "PA", "address2": null, "address1": "1801 S 6th St", "zip_code": "19148", "country": "US"}, "review_count": 16, "distance": 3342.695257598, "display_phone": "(215) 465-2329", "price": "$$", "rating": 5.0, "phone": "+12154652329", "id": "khmer-sweet-basil-philadelphia", "name": "Khmer Sweet Basil", "transactions": [], "url": "https://www.yelp.com/biz/khmer-sweet-basil-philadelphia?adjust_creative=8_C4NSGbL05eUQksKleGYw&utm_campaign=yelp_api_v3&utm_medium=api_v3_business_search&utm_source=8_C4NSGbL05eUQksKleGYw", "is_closed": false, "image_url": "https://s3-media2.fl.yelpcdn.com/bphoto/a8AOHWXbeUybvJQeXAu9jQ/o.jpg"}, {"coordinates": {"longitude": -75.1411133, "latitude": 39.966877}, "categories": [{"alias": "thai", "title": "Thai"}], "location": {"display_address": ["1030 N American St", "Philadelphia, PA 19123"], "address3": "", "city": "Philadelphia", "state": "PA", "address2": "", "address1": "1030 N American St", "zip_code": "19123", "country": "US"}, "review_count": 143, "distance": 2974.2296225679997, "display_phone": "(215) 238-1219", "price": "$$", "rating": 4.5, "phone": "+12152381219", "id": "baan-thai-philadelphia", "name": "Baan Thai", "transactions": ["delivery"], "url": "https://www.yelp.com/biz/baan-thai-philadelphia?adjust_creative=8_C4NSGbL05eUQksKleGYw&utm_campaign=yelp_api_v3&utm_medium=api_v3_business_search&utm_source=8_C4NSGbL05eUQksKleGYw", "is_closed": false, "image_url": "https://s3-media4.fl.yelpcdn.com/bphoto/qfjRsWLkSrhl24VFfe0pYg/o.jpg"}, {"coordinates": {"longitude": -75.1756896, "latitude": 39.9519071}, "categories": [{"alias": "japanese", "title": "Japanese"}, {"alias": "korean", "title": "Korean"}], "location": {"display_address": ["104 S 21st St", "Ste A", "Philadelphia, PA 19103"], "address3": "", "city": "Philadelphia", "state": "PA", "address2": "Ste A", "address1": "104 S 21st St", "zip_code": "19103", "country": "US"}, "review_count": 227, "distance": 444.198922354, "display_phone": "(215) 557-9593", "price": "$", "rating": 4.0, "phone": "+12155579593", "id": "tampopo-philadelphia", "name": "Tampopo", "transactions": [], "url": "https://www.yelp.com/biz/tampopo-philadelphia?adjust_creative=8_C4NSGbL05eUQksKleGYw&utm_campaign=yelp_api_v3&utm_medium=api_v3_business_search&utm_source=8_C4NSGbL05eUQksKleGYw", "is_closed": false, "image_url": "https://s3-media2.fl.yelpcdn.com/bphoto/y234FGKeaSnQ9ZzSFqk1HQ/o.jpg"}, {"coordinates": {"longitude": -75.0304835714111, "latitude": 40.0571673032683}, "categories": [{"alias": "newamerican", "title": "American (New)"}, {"alias": "burgers", "title": "Burgers"}, {"alias": "sandwiches", "title": "Sandwiches"}], "location": {"display_address": ["2859 Holme Ave", "Philadelphia, PA 19152"], "address3": "", "city": "Philadelphia", "state": "PA", "address2": null, "address1": "2859 Holme Ave", "zip_code": "19152", "country": "US"}, "review_count": 370, "distance": 16607.36847844, "display_phone": "(267) 686-4687", "price": "$$", "rating": 4.0, "phone": "+12676864687", "id": "the-blue-duck-philadelphia-3", "name": "The Blue Duck", "transactions": ["pickup"], "url": "https://www.yelp.com/biz/the-blue-duck-philadelphia-3?adjust_creative=8_C4NSGbL05eUQksKleGYw&utm_campaign=yelp_api_v3&utm_medium=api_v3_business_search&utm_source=8_C4NSGbL05eUQksKleGYw", "is_closed": false, "image_url": "https://s3-media4.fl.yelpcdn.com/bphoto/blPqN_pnvyvhLGE5RsXw1g/o.jpg"}, {"coordinates": {"longitude": -75.1563672, "latitude": 39.9539091}, "categories": [{"alias": "chinese", "title": "Chinese"}, {"alias": "desserts", "title": "Desserts"}], "location": {"display_address": ["112 N 10th St", "Philadelphia, PA 19107"], "address3": "", "city": "Philadelphia", "state": "PA", "address2": "", "address1": "112 N 10th St", "zip_code": "19107", "country": "US"}, "review_count": 137, "distance": 1263.406895244, "display_phone": "(215) 238-8968", "price": "$", "rating": 4.5, "phone": "+12152388968", "id": "heung-fa-chun-sweet-house-philadelphia", "name": "Heung Fa Chun Sweet House", "transactions": [], "url": "https://www.yelp.com/biz/heung-fa-chun-sweet-house-philadelphia?adjust_creative=8_C4NSGbL05eUQksKleGYw&utm_campaign=yelp_api_v3&utm_medium=api_v3_business_search&utm_source=8_C4NSGbL05eUQksKleGYw", "is_closed": false, "image_url": "https://s3-media3.fl.yelpcdn.com/bphoto/Ww8jBRavR-OAjkAODLsOjw/o.jpg"}, {"coordinates": {"longitude": -75.2213093, "latitude": 40.024759}, "categories": [{"alias": "pizza", "title": "Pizza"}, {"alias": "italian", "title": "Italian"}], "location": {"display_address": ["102 Rector St", "Philadelphia, PA 19127"], "address3": "", "city": "Philadelphia", "state": "PA", "address2": "", "address1": "102 Rector St", "zip_code": "19127", "country": "US"}, "review_count": 365, "distance": 8972.513712236, "display_phone": "(215) 483-2233", "price": "$$", "rating": 4.5, "phone": "+12154832233", "id": "the-couch-tomato-bistro-philadelphia-2", "name": "The Couch Tomato Bistro", "transactions": [], "url": "https://www.yelp.com/biz/the-couch-tomato-bistro-philadelphia-2?adjust_creative=8_C4NSGbL05eUQksKleGYw&utm_campaign=yelp_api_v3&utm_medium=api_v3_business_search&utm_source=8_C4NSGbL05eUQksKleGYw", "is_closed": false, "image_url": "https://s3-media3.fl.yelpcdn.com/bphoto/8bZ_RLFU5lxi0PNdHTlIcw/o.jpg"}, {"coordinates": {"longitude": -75.1666412353516, "latitude": 39.9502296447754}, "categories": [{"alias": "bars", "title": "Bars"}, {"alias": "tradamerican", "title": "American (Traditional)"}], "location": {"display_address": ["1518 Sansom St", "Philadelphia, PA 19102"], "address3": "", "city": "Philadelphia", "state": "PA", "address2": "", "address1": "1518 Sansom St", "zip_code": "19102", "country": "US"}, "review_count": 127, "distance": 553.9469463301999, "display_phone": "(267) 639-6851", "price": "$$", "rating": 4.0, "phone": "+12676396851", "id": "1518-bar-and-grill-philadelphia", "name": "1518 Bar & Grill", "transactions": [], "url": "https://www.yelp.com/biz/1518-bar-and-grill-philadelphia?adjust_creative=8_C4NSGbL05eUQksKleGYw&utm_campaign=yelp_api_v3&utm_medium=api_v3_business_search&utm_source=8_C4NSGbL05eUQksKleGYw", "is_closed": false, "image_url": "https://s3-media2.fl.yelpcdn.com/bphoto/0Jo403VHjBVLE8M62Zidow/o.jpg"}, {"coordinates": {"longitude": -75.1732940673828, "latitude": 39.9670715332031}, "categories": [{"alias": "bars", "title": "Bars"}, {"alias": "newamerican", "title": "American (New)"}, {"alias": "bbq", "title": "Barbeque"}], "location": {"display_address": ["2130 Fairmount Ave", "Philadelphia, PA 19130"], "address3": "", "city": "Philadelphia", "state": "PA", "address2": "", "address1": "2130 Fairmount Ave", "zip_code": "19130", "country": "US"}, "review_count": 409, "distance": 1487.5758228204, "display_phone": "(215) 232-9000", "price": "$$", "rating": 3.5, "phone": "+12152329000", "id": "jacks-firehouse-philadelphia", "name": "Jack's Firehouse", "transactions": [], "url": "https://www.yelp.com/biz/jacks-firehouse-philadelphia?adjust_creative=8_C4NSGbL05eUQksKleGYw&utm_campaign=yelp_api_v3&utm_medium=api_v3_business_search&utm_source=8_C4NSGbL05eUQksKleGYw", "is_closed": false, "image_url": "https://s3-media4.fl.yelpcdn.com/bphoto/KXW1YgOIPWd1P3q7FY_hqg/o.jpg"}, {"coordinates": {"longitude": -75.1795366774709, "latitude": 39.9703702755229}, "categories": [{"alias": "vietnamese", "title": "Vietnamese"}, {"alias": "coffee", "title": "Coffee & Tea"}, {"alias": "sandwiches", "title": "Sandwiches"}], "location": {"display_address": ["2545 Brown St", "Philadelphia, PA 19130"], "address3": "", "city": "Philadelphia", "state": "PA", "address2": "", "address1": "2545 Brown St", "zip_code": "19130", "country": "US"}, "review_count": 48, "distance": 1976.6704065939998, "display_phone": "(267) 239-0241", "price": "$", "rating": 4.5, "phone": "+12672390241", "id": "brown-street-coffee-and-b\u00e1nhery-philadelphia", "name": "Brown Street Coffee & B\u00e1nhery", "transactions": [], "url": "https://www.yelp.com/biz/brown-street-coffee-and-b%C3%A1nhery-philadelphia?adjust_creative=8_C4NSGbL05eUQksKleGYw&utm_campaign=yelp_api_v3&utm_medium=api_v3_business_search&utm_source=8_C4NSGbL05eUQksKleGYw", "is_closed": false, "image_url": "https://s3-media1.fl.yelpcdn.com/bphoto/jNxie_KzQbkGZ0bGhvI4dA/o.jpg"}, {"coordinates": {"longitude": -75.1743, "latitude": 39.95083}, "categories": [{"alias": "mexican", "title": "Mexican"}], "location": {"display_address": ["2015 Walnut St", "Philadelphia, PA 19103"], "address3": "", "city": "Philadelphia", "state": "PA", "address2": "", "address1": "2015 Walnut St", "zip_code": "19103", "country": "US"}, "review_count": 142, "distance": 428.233947686, "display_phone": "(267) 639-5681", "price": "$$", "rating": 4.0, "phone": "+12676395681", "id": "revolution-taco-philadelphia", "name": "Revolution Taco", "transactions": [], "url": "https://www.yelp.com/biz/revolution-taco-philadelphia?adjust_creative=8_C4NSGbL05eUQksKleGYw&utm_campaign=yelp_api_v3&utm_medium=api_v3_business_search&utm_source=8_C4NSGbL05eUQksKleGYw", "is_closed": false, "image_url": "https://s3-media1.fl.yelpcdn.com/bphoto/8UeTwFIQom5Ysb8OCf2qSQ/o.jpg"}, {"coordinates": {"longitude": -75.145164913124, "latitude": 39.953007242619}, "categories": [{"alias": "italian", "title": "Italian"}], "location": {"display_address": ["130 N 3rd St", "Philadelphia, PA 19106"], "address3": "", "city": "Philadelphia", "state": "PA", "address2": "", "address1": "130 N 3rd St", "zip_code": "19106", "country": "US"}, "review_count": 209, "distance": 2221.1996416859997, "display_phone": "(215) 829-1465", "price": "$$", "rating": 4.0, "phone": "+12158291465", "id": "la-locanda-del-ghiottone-philadelphia", "name": "La Locanda Del Ghiottone", "transactions": [], "url": "https://www.yelp.com/biz/la-locanda-del-ghiottone-philadelphia?adjust_creative=8_C4NSGbL05eUQksKleGYw&utm_campaign=yelp_api_v3&utm_medium=api_v3_business_search&utm_source=8_C4NSGbL05eUQksKleGYw", "is_closed": false, "image_url": "https://s3-media2.fl.yelpcdn.com/bphoto/9r1RgQP5vSzNco1XRcAu5A/o.jpg"}, {"coordinates": {"longitude": -75.1793946709417, "latitude": 39.9513494417897}, "categories": [{"alias": "italian", "title": "Italian"}], "location": {"display_address": ["151 S 24th St", "Philadelphia, PA 19103"], "address3": "", "city": "Philadelphia", "state": "PA", "address2": "", "address1": "151 S 24th St", "zip_code": "19103", "country": "US"}, "review_count": 95, "distance": 748.8908871492, "display_phone": "(215) 496-9222", "price": "$$", "rating": 4.0, "phone": "+12154969222", "id": "sotto-philadelphia", "name": "Sotto", "transactions": [], "url": "https://www.yelp.com/biz/sotto-philadelphia?adjust_creative=8_C4NSGbL05eUQksKleGYw&utm_campaign=yelp_api_v3&utm_medium=api_v3_business_search&utm_source=8_C4NSGbL05eUQksKleGYw", "is_closed": false, "image_url": "https://s3-media4.fl.yelpcdn.com/bphoto/xiirH5E0ZV0LRLGR2FqmlA/o.jpg"}, {"coordinates": {"longitude": -75.1435844420196, "latitude": 39.9483978526255}, "categories": [{"alias": "szechuan", "title": "Szechuan"}], "location": {"display_address": ["123 Chestnut St", "Philadelphia, PA 19106"], "address3": "", "city": "Philadelphia", "state": "PA", "address2": "", "address1": "123 Chestnut St", "zip_code": "19106", "country": "US"}, "review_count": 1118, "distance": 2429.112690296, "display_phone": "(215) 922-1888", "price": "$$", "rating": 4.0, "phone": "+12159221888", "id": "han-dynasty-philadelphia", "name": "Han Dynasty", "transactions": [], "url": "https://www.yelp.com/biz/han-dynasty-philadelphia?adjust_creative=8_C4NSGbL05eUQksKleGYw&utm_campaign=yelp_api_v3&utm_medium=api_v3_business_search&utm_source=8_C4NSGbL05eUQksKleGYw", "is_closed": false, "image_url": "https://s3-media1.fl.yelpcdn.com/bphoto/sqzklZmDGSU8p3g2EP80MQ/o.jpg"}, {"coordinates": {"longitude": -75.1805801391602, "latitude": 39.9702606201172}, "categories": [{"alias": "seafood", "title": "Seafood"}], "location": {"display_address": ["2624 Brown St", "Philadelphia, PA 19130"], "address3": "", "city": "Philadelphia", "state": "PA", "address2": null, "address1": "2624 Brown St", "zip_code": "19130", "country": "US"}, "review_count": 12, "distance": 2002.8703008599998, "display_phone": "(215) 236-2193", "price": "$$", "rating": 4.5, "phone": "+12152362193", "id": "all-aboard-seafood-philadelphia-2", "name": "ALL ABOARD SEAFOOD", "transactions": [], "url": "https://www.yelp.com/biz/all-aboard-seafood-philadelphia-2?adjust_creative=8_C4NSGbL05eUQksKleGYw&utm_campaign=yelp_api_v3&utm_medium=api_v3_business_search&utm_source=8_C4NSGbL05eUQksKleGYw", "is_closed": false, "image_url": "https://s3-media4.fl.yelpcdn.com/bphoto/t_pPVVf7YrXCq1Hlpm5o2A/o.jpg"}, {"coordinates": {"longitude": -75.1617736816406, "latitude": 39.9464645385742}, "categories": [{"alias": "italian", "title": "Italian"}], "location": {"display_address": ["1216 Spruce St", "Philadelphia, PA 19107"], "address3": "", "city": "Philadelphia", "state": "PA", "address2": null, "address1": "1216 Spruce St", "zip_code": "19107", "country": "US"}, "review_count": 569, "distance": 1141.4382353239998, "display_phone": "(215) 985-2962", "price": "$$$", "rating": 4.0, "phone": "+12159852962", "id": "mercato-philadelphia", "name": "Mercato", "transactions": ["delivery"], "url": "https://www.yelp.com/biz/mercato-philadelphia?adjust_creative=8_C4NSGbL05eUQksKleGYw&utm_campaign=yelp_api_v3&utm_medium=api_v3_business_search&utm_source=8_C4NSGbL05eUQksKleGYw", "is_closed": false, "image_url": "https://s3-media2.fl.yelpcdn.com/bphoto/-AuJxPaxgRRPg6AZXzP52g/o.jpg"}, {"coordinates": {"longitude": -75.144063, "latitude": 39.948832}, "categories": [{"alias": "bars", "title": "Bars"}, {"alias": "newamerican", "title": "American (New)"}, {"alias": "sandwiches", "title": "Sandwiches"}], "location": {"display_address": ["48 S 2nd St", "Philadelphia, PA 19106"], "address3": "", "city": "Philadelphia", "state": "PA", "address2": "", "address1": "48 S 2nd St", "zip_code": "19106", "country": "US"}, "review_count": 246, "distance": 2377.7671803979997, "display_phone": "(215) 925-2317", "price": "$$", "rating": 4.0, "phone": "+12159252317", "id": "sassafras-bar-philadelphia-2", "name": "Sassafras Bar", "transactions": ["delivery"], "url": "https://www.yelp.com/biz/sassafras-bar-philadelphia-2?adjust_creative=8_C4NSGbL05eUQksKleGYw&utm_campaign=yelp_api_v3&utm_medium=api_v3_business_search&utm_source=8_C4NSGbL05eUQksKleGYw", "is_closed": false, "image_url": "https://s3-media2.fl.yelpcdn.com/bphoto/hQvw89bHUCR9ztv3rJDm_Q/o.jpg"}, {"coordinates": {"longitude": -75.1712674, "latitude": 39.9607767}, "categories": [{"alias": "pizza", "title": "Pizza"}, {"alias": "italian", "title": "Italian"}], "location": {"display_address": ["1939 Callowhill St", "Philadelphia, PA 19130"], "address3": "", "city": "Philadelphia", "state": "PA", "address2": "", "address1": "1939 Callowhill St", "zip_code": "19130", "country": "US"}, "review_count": 422, "distance": 777.9534432203999, "display_phone": "(215) 600-2629", "price": "$$", "rating": 4.0, "phone": "+12156002629", "id": "pizzeria-vetri-philadelphia-5", "name": "Pizzeria Vetri", "transactions": [], "url": "https://www.yelp.com/biz/pizzeria-vetri-philadelphia-5?adjust_creative=8_C4NSGbL05eUQksKleGYw&utm_campaign=yelp_api_v3&utm_medium=api_v3_business_search&utm_source=8_C4NSGbL05eUQksKleGYw", "is_closed": false, "image_url": "https://s3-media1.fl.yelpcdn.com/bphoto/zUY8ozJ8ibhMcdqo6yW03w/o.jpg"}, {"coordinates": {"longitude": -75.1673, "latitude": 39.9981099}, "categories": [{"alias": "soulfood", "title": "Soul Food"}], "location": {"display_address": ["2836 N 22nd St", "Philadelphia, PA 19132"], "address3": "", "city": "Philadelphia", "state": "PA", "address2": "", "address1": "2836 N 22nd St", "zip_code": "19132", "country": "US"}, "review_count": 29, "distance": 4941.756563952, "display_phone": "(267) 625-3664", "price": "$$", "rating": 4.0, "phone": "+12676253664", "id": "saudia-shulers-country-cookin-philadelphia", "name": "Saudia Shuler's Country Cookin'", "transactions": [], "url": "https://www.yelp.com/biz/saudia-shulers-country-cookin-philadelphia?adjust_creative=8_C4NSGbL05eUQksKleGYw&utm_campaign=yelp_api_v3&utm_medium=api_v3_business_search&utm_source=8_C4NSGbL05eUQksKleGYw", "is_closed": false, "image_url": "https://s3-media2.fl.yelpcdn.com/bphoto/gT_1NZerjg7GY2RsrYVv8A/o.jpg"}, {"coordinates": {"longitude": -75.165093275115, "latitude": 39.9286739095549}, "categories": [{"alias": "pizza", "title": "Pizza"}, {"alias": "italian", "title": "Italian"}], "location": {"display_address": ["1700 E Passyunk Ave", "Philadelphia, PA 19148"], "address3": "", "city": "Philadelphia", "state": "PA", "address2": "", "address1": "1700 E Passyunk Ave", "zip_code": "19148", "country": "US"}, "review_count": 264, "distance": 2840.1118940539995, "display_phone": "(267) 324-3127", "price": "$$", "rating": 4.0, "phone": "+12673243127", "id": "birra-philadelphia", "name": "Birra", "transactions": [], "url": "https://www.yelp.com/biz/birra-philadelphia?adjust_creative=8_C4NSGbL05eUQksKleGYw&utm_campaign=yelp_api_v3&utm_medium=api_v3_business_search&utm_source=8_C4NSGbL05eUQksKleGYw", "is_closed": false, "image_url": "https://s3-media1.fl.yelpcdn.com/bphoto/kqk2LcM6Bshz2aGBr4zR4w/o.jpg"}, {"coordinates": {"longitude": -75.20746, "latitude": 40.07699}, "categories": [{"alias": "newamerican", "title": "American (New)"}], "location": {"display_address": ["8609 Germantown Ave", "Philadelphia, PA 19118"], "address3": "", "city": "Philadelphia", "state": "PA", "address2": "", "address1": "8609 Germantown Ave", "zip_code": "19118", "country": "US"}, "review_count": 109, "distance": 14040.228168099999, "display_phone": "(267) 335-3912", "price": "$$$$", "rating": 4.0, "phone": "+12673353912", "id": "mica-restaurant-philadelphia", "name": "Mica Restaurant", "transactions": [], "url": "https://www.yelp.com/biz/mica-restaurant-philadelphia?adjust_creative=8_C4NSGbL05eUQksKleGYw&utm_campaign=yelp_api_v3&utm_medium=api_v3_business_search&utm_source=8_C4NSGbL05eUQksKleGYw", "is_closed": false, "image_url": "https://s3-media3.fl.yelpcdn.com/bphoto/C0KeyLza-X5WJI1x2gl1VQ/o.jpg"}], "region": {"center": {"longitude": -75.17120361328125, "latitude": 39.95378209544653}}, "total": 10825}