{"businesses": [{"coordinates": {"longitude": -75.0304835714111, "latitude": 40.0571673032683}, "categories": [{"alias": "newamerican", "title": "American (New)"}, {"alias": "burgers", "title": "Burgers"}, {"alias": "sandwiches", "title": "Sandwiches"}], "location": {"display_address": ["2859 Holme Ave", "Philadelphia, PA 19152"], "address3": "", "city": "Philadelphia", "state": "PA", "address2": null, "address1": "2859 Holme Ave", "zip_code": "19152", "country": "US"}, "review_count": 370, "distance": 16607.36847844, "display_phone": "(267) 686-4687", "price": "$$", "rating": 4.0, "phone": "+12676864687", "id": "the-blue-duck-philadelphia-3", "name": "The Blue Duck", "transactions": ["pickup"], "url": "https://www.yelp.com/biz/the-blue-duck-philadelphia-3?adjust_creative=8_C4NSGbL05eUQksKleGYw&utm_campaign=yelp_api_v3&utm_medium=api_v3_business_search&utm_source=8_C4NSGbL05eUQksKleGYw", "is_closed": false, "image_url": "https://s3-media4.fl.yelpcdn.com/bphoto/blPqN_pnvyvhLGE5RsXw1g/o.jpg"}, {"coordinates": {"longitude": -75.1563672, "latitude": 39.9539091}, "categories": [{"alias": "chinese", "title": "Chinese"}, {"alias": "desserts", "title": "Desserts"}], "location": {"display_address": ["112 N 10th St", "Philadelphia, PA 19107"], "address3": "", "city": "Philadelphia", "state": "PA", "address2": "", "address1": "112 N 10th St", "zip_code": "19107", "country": "US"}, "review_count": 137, "distance": 1263.406895244, "display_phone": "(215) 238-8968", "price": "$", "rating": 4.5, "phone": "+12152388968", "id": "heung-fa-chun-sweet-house-philadelphia", "name": "Heung Fa Chun Sweet House", "transactions": [], "url": "https://www.yelp.com/biz/heung-fa-chun-sweet-house-philadelphia?adjust_creative=8_C4NSGbL05eUQksKleGYw&utm_campaign=yelp_api_v3&utm_medium=api_v3_business_search&utm_source=8_C4NSGbL05eUQksKleGYw", "is_closed": false, "image_url": "https://s3-media3.fl.yelpcdn.com/bphoto/Ww8jBRavR-OAjkAODLsOjw/o.jpg"}, {"coordinates": {"longitude": -75.2213093, "latitude": 40.024759}, "categories": [{"alias": "pizza", "title": "Pizza"}, {"alias": "italian", "title": "Italian"}], "location": {"display_address": ["102 Rector St", "Philadelphia, PA 19127"], "address3": "", "city": "Philadelphia", "state": "PA", "address2": "", "address1": "102 Rector St", "zip_code": "19127", "country": "US"}, "review_count": 365, "distance": 8972.513712236, "display_phone": "(215) 483-2233", "price": "$$", "rating": 4.5, "phone": "+12154832233", "id": "the-couch-tomato-bistro-philadelphia-2", "name": "The Couch Tomato Bistro", "transactions": [], "url": "https://www.yelp.com/biz/the-couch-tomato-bistro-philadelphia-2?adjust_creative=8_C4NSGbL05eUQksKleGYw&utm_campaign=yelp_api_v3&utm_medium=api_v3_business_search&utm_source=8_C4NSGbL05eUQksKleGYw", "is_closed": false, "image_url": "https://s3-media3.fl.yelpcdn.com/bphoto/8bZ_RLFU5lxi0PNdHTlIcw/o.jpg"}, {"coordinates": {"longitude": -75.1666412353516, "latitude": 39.9502296447754}, "categories": [{"alias": "bars", "title": "Bars"}, {"alias": "tradamerican", "title": "American (Traditional)"}], "location": {"display_address": ["1518 Sansom St", "Philadelphia, PA 19102"], "address3": "", "city": "Philadelphia", "state": "PA", "address2": "", "address1": "1518 Sansom St", "zip_code": "19102", "country": "US"}, "review_count": 127, "distance": 553.9469463301999, "display_phone": "(267) 639-6851", "price": "$$", "rating": 4.0, "phone": "+12676396851", "id": "1518-bar-and-grill-philadelphia", "name": "1518 Bar & Grill", "transactions": [], "url": "https://www.yelp.com/biz/1518-bar-and-grill-philadelphia?adjust_creative=8_C4NSGbL05eUQksKleGYw&utm_campaign=yelp_api_v3&utm_medium=api_v3_business_search&utm_source=8_C4NSGbL05eUQksKleGYw", "is_closed": false, "image_url": "https://s3-media2.fl.yelpcdn.com/bphoto/0Jo403VHjBVLE8M62Zidow/o.jpg"}, {"coordinates": {"longitude": -75.1732940673828, "latitude": 39.9670715332031}, "categories": [{"alias": "bars", "title": "Bars"}, {"alias": "newamerican", "title": "American (New)"}, {"alias": "bbq", "title": "Barbeque"}], "location": {"display_address": ["2130 Fairmount Ave", "Philadelphia, PA 19130"], "address3": "", "city": "Philadelphia", "state": "PA", "address2": "", "address1": "2130 Fairmount Ave", "zip_code": "19130", "country": "US"}, "review_count": 409, "distance": 1487.5758228204, "display_phone": "(215) 232-9000", "price": "$$", "rating": 3.5, "phone": "+12152329000", "id": "jacks-firehouse-philadelphia", "name": "Jack's Firehouse", "transactions": [], "url": "https://www.yelp.com/biz/jacks-firehouse-philadelphia?adjust_creative=8_C4NSGbL05eUQksKleGYw&utm_campaign=yelp_api_v3&utm_medium=api_v3_business_search&utm_source=8_C4NSGbL05eUQksKleGYw", "is_closed": false, "image_url": "https://s3-media4.fl.yelpcdn.com/bphoto/KXW1YgOIPWd1P3q7FY_hqg/o.jpg"}, {"coordinates": {"longitude": -75.1795366774709, "latitude": 39.9703702755229}, "categories": [{"alias": "vietnamese", "title": "Vietnamese"}, {"alias": "coffee", "title": "Coffee & Tea"}, {"alias": "sandwiches", "title": "Sandwiches"}], "location": {"display_address": ["2545 Brown St", "Philadelphia, PA 19130"], "address3": "", "city": "Philadelphia", "state": "PA", "address2": "", "address1": "2545 Brown St", "zip_code": "19130", "country": "US"}, "review_count": 48, "distance": 1976.6704065939998, "display_phone": "(267) 239-0241", "price": "$", "rating": 4.5, "phone": "+12672390241", "id": "brown-street-coffee-and-b\u00e1nhery-philadelphia", "name": "Brown Street Coffee & B\u00e1nhery", "transactions": [], "url": "https://www.yelp.com/biz/brown-street-coffee-and-b%C3%A1nhery-philadelphia?adjust_creative=8_C4NSGbL05eUQksKleGYw&utm_campaign=yelp_api_v3&utm_medium=api_v3_business_search&utm_source=8_C4NSGbL05eUQksKleGYw", "is_closed": false, "image_url": "https://s3-media1.fl.yelpcdn.com/bphoto/jNxie_KzQbkGZ0bGhvI4dA/o.jpg"}, {"coordinates": {"longitude": -75.1743, "latitude": 39.95083}, "categories": [{"alias": "mexican", "title": "Mexican"}], "location": {"display_address": ["2015 Walnut St", "Philadelphia, PA 19103"], "address3": "", "city": "Philadelphia", "state": "PA", "address2": "", "address1": "2015 Walnut St", "zip_code": "19103", "country": "US"}, "review_count": 142, "distance": 428.233947686, "display_phone": "(267) 639-5681", "price": "$$", "rating": 4.0, "phone": "+12676395681", "id": "revolution-taco-philadelphia", "name": "Revolution Taco", "transactions": [], "url": "https://www.yelp.com/biz/revolution-taco-philadelphia?adjust_creative=8_C4NSGbL05eUQksKleGYw&utm_campaign=yelp_api_v3&utm_medium=api_v3_business_search&utm_source=8_C4NSGbL05eUQksKleGYw", "is_closed": false, "image_url": "https://s3-media1.fl.yelpcdn.com/bphoto/8UeTwFIQom5Ysb8OCf2qSQ/o.jpg"}, {"coordinates": {"longitude": -75.145164913124, "latitude": 39.953007242619}, "categories": [{"alias": "italian", "title": "Italian"}], "location": {"display_address": ["130 N 3rd St", "Philadelphia, PA 19106"], "address3": "", "city": "Philadelphia", "state": "PA", "address2": "", "address1": "130 N 3rd St", "zip_code": "19106", "country": "US"}, "review_count": 209, "distance": 2221.1996416859997, "display_phone": "(215) 829-1465", "price": "$$", "rating": 4.0, "phone": "+12158291465", "id": "la-locanda-del-ghiottone-philadelphia", "name": "La Locanda Del Ghiottone", "transactions": [], "url": "https://www.yelp.com/biz/la-locanda-del-ghiottone-philadelphia?adjust_creative=8_C4NSGbL05eUQksKleGYw&utm_campaign=yelp_api_v3&utm_medium=api_v3_business_search&utm_source=8_C4NSGbL05eUQksKleGYw", "is_closed": false, "image_url": "https://s3-media2.fl.yelpcdn.com/bphoto/9r1RgQP5vSzNco1XRcAu5A/o.jpg"}, {"coordinates": {"longitude": -75.1793946709417, "latitude": 39.9513494417897}, "categories": [{"alias": "italian", "title": "Italian"}], "location": {"display_address": ["151 S 24th St", "Philadelphia, PA 19103"], "address3": "", "city": "Philadelphia", "state": "PA", "address2": "", "address1": "151 S 24th St", "zip_code": "19103", "country": "US"}, "review_count": 95, "distance": 748.8908871492, "display_phone": "(215) 496-9222", "price": "$$", "rating": 4.0, "phone": "+12154969222", "id": "sotto-philadelphia", "name": "Sotto", "transactions": [], "url": "https://www.yelp.com/biz/sotto-philadelphia?adjust_creative=8_C4NSGbL05eUQksKleGYw&utm_campaign=yelp_api_v3&utm_medium=api_v3_business_search&utm_source=8_C4NSGbL05eUQksKleGYw", "is_closed": false, "image_url": "https://s3-media4.fl.yelpcdn.com/bphoto/xiirH5E0ZV0LRLGR2FqmlA/o.jpg"}, {"coordinates": {"longitude": -75.1435844420196, "latitude": 39.9483978526255}, "categories": [{"alias": "szechuan", "title": "Szechuan"}], "location": {"display_address": ["123 Chestnut St", "Philadelphia, PA 19106"], "address3": "", "city": "Philadelphia", "state": "PA", "address2": "", "address1": "123 Chestnut St", "zip_code": "19106", "country": "US"}, "review_count": 1118, "distance": 2429.112690296, "display_phone": "(215) 922-1888", "price": "$$", "rating": 4.0, "phone": "+12159221888", "id": "han-dynasty-philadelphia", "name": "Han Dynasty", "transactions": [], "url": "https://www.yelp.com/biz/han-dynasty-philadelphia?adjust_creative=8_C4NSGbL05eUQksKleGYw&utm_campaign=yelp_api_v3&utm_medium=api_v3_business_search&utm_source=8_C4NSGbL05eUQksKleGYw", "is_closed": false, "image_url": "https://s3-media1.fl.yelpcdn.com/bphoto/sqzklZmDGSU8p3g2EP80MQ/o.jpg"}, {"coordinates": {"longitude": -75.1805801391602, "latitude": 39.9702606201172}, "categories": [{"alias": "seafood", "title": "Seafood"}], "location": {"display_address": ["2624 Brown St", "Philadelphia, PA 19130"], "address3": "", "city": "Philadelphia", "state": "PA", "address2": null, "address1": "2624 Brown St", "zip_code": "19130", "country": "US"}, "review_count": 12, "distance": 2002.8703008599998, "display_phone": "(215) 236-2193", "price": "$$", "rating": 4.5, "phone": "+12152362193", "id": "all-aboard-seafood-philadelphia-2", "name": "ALL ABOARD SEAFOOD", "transactions": [], "url": "https://www.yelp.com/biz/all-aboard-seafood-philadelphia-2?adjust_creative=8_C4NSGbL05eUQksKleGYw&utm_campaign=yelp_api_v3&utm_medium=api_v3_business_search&utm_source=8_C4NSGbL05eUQksKleGYw", "is_closed": false, "image_url": "https://s3-media4.fl.yelpcdn.com/bphoto/t_pPVVf7YrXCq1Hlpm5o2A/o.jpg"}, {"coordinates": {"longitude": -75.1617736816406, "latitude": 39.9464645385742}, "categories": [{"alias": "italian", "title": "Italian"}], "location": {"display_address": ["1216 Spruce St", "Philadelphia, PA 19107"], "address3": "", "city": "Philadelphia", "state": "PA", "address2": null, "address1": "1216 Spruce St", "zip_code": "19107", "country": "US"}, "review_count": 569, "distance": 1141.4382353239998, "display_phone": "(215) 985-2962", "price": "$$$", "rating": 4.0, "phone": "+12159852962", "id": "mercato-philadelphia", "name": "Mercato", "transactions": ["delivery"], "url": "https://www.yelp.com/biz/mercato-philadelphia?adjust_creative=8_C4NSGbL05eUQksKleGYw&utm_campaign=yelp_api_v3&utm_medium=api_v3_business_search&utm_source=8_C4NSGbL05eUQksKleGYw", "is_closed": false, "image_url": "https://s3-media2.fl.yelpcdn.com/bphoto/-AuJxPaxgRRPg6AZXzP52g/o.jpg"}, {"coordinates": {"longitude": -75.144063, "latitude": 39.948832}, "categories": [{"alias": "bars", "title": "Bars"}, {"alias": "newamerican", "title": "American (New)"}, {"alias": "sandwiches", "title": "Sandwiches"}], "location": {"display_address": ["48 S 2nd St", "Philadelphia, PA 19106"], "address3": "", "city": "Philadelphia", "state": "PA", "address2": "", "address1": "48 S 2nd St", "zip_code": "19106", "country": "US"}, "review_count": 246, "distance": 2377.7671803979997, "display_phone": "(215) 925-2317", "price": "$$", "rating": 4.0, "phone": "+12159252317", "id": "sassafras-bar-philadelphia-2", "name": "Sassafras Bar", "transactions": ["delivery"], "url": "https://www.yelp.com/biz/sassafras-bar-philadelphia-2?adjust_creative=8_C4NSGbL05eUQksKleGYw&utm_campaign=yelp_api_v3&utm_medium=api_v3_business_search&utm_source=8_C4NSGbL05eUQksKleGYw", "is_closed": false, "image_url": "https://s3-media2.fl.yelpcdn.com/bphoto/hQvw89bHUCR9ztv3rJDm_Q/o.jpg"}, {"coordinates": {"longitude": -75.1712674, "latitude": 39.9607767}, "categories": [{"alias": "pizza", "title": "Pizza"}, {"alias": "italian", "title": "Italian"}], "location": {"display_address": ["1939 Callowhill St", "Philadelphia, PA 19130"], "address3": "", "city": "Philadelphia", "state": "PA", "address2": "", "address1": "1939 Callowhill St", "zip_code": "19130", "country": "US"}, "review_count": 422, "distance": 777.9534432203999, "display_phone": "(215) 600-2629", "price": "$$", "rating": 4.0, "phone": "+12156002629", "id": "pizzeria-vetri-philadelphia-5", "name": "Pizzeria Vetri", "transactions": [], "url": "https://www.yelp.com/biz/pizzeria-vetri-philadelphia-5?adjust_creative=8_C4NSGbL05eUQksKleGYw&utm_campaign=yelp_api_v3&utm_medium=api_v3_business_search&utm_source=8_C4NSGbL05eUQksKleGYw", "is_closed": false, "image_url": "https://s3-media1.fl.yelpcdn.com/bphoto/zUY8ozJ8ibhMcdqo6yW03w/o.jpg"}, {"coordinates": {"longitude": -75.1673, "latitude": 39.9981099}, "categories": [{"alias": "soulfood", "title": "Soul Food"}], "location": {"display_address": ["2836 N 22nd St", "Philadelphia, PA 19132"], "address3": "", "city": "Philadelphia", "state": "PA", "address2": "", "address1": "2836 N 22nd St", "zip_code": "19132", "country": "US"}, "review_count": 29, "distance": 4941.756563952, "display_phone": "(267) 625-3664", "price": "$$", "rating": 4.0, "phone": "+12676253664", "id": "saudia-shulers-country-cookin-philadelphia", "name": "Saudia Shuler's Country Cookin'", "transactions": [], "url": "https://www.yelp.com/biz/saudia-shulers-country-cookin-philadelphia?adjust_creative=8_C4NSGbL05eUQksKleGYw&utm_campaign=yelp_api_v3&utm_medium=api_v3_business_search&utm_source=8_C4NSGbL05eUQksKleGYw", "is_closed": false, "image_url": "https://s3-media2.fl.yelpcdn.com/bphoto/gT_1NZerjg7GY2RsrYVv8A/o.jpg"}, {"coordinates": {"longitude": -75.165093275115, "latitude": 39.9286739095549}, "categories": [{"alias": "pizza", "title": "Pizza"}, {"alias": "italian", "title": "Italian"}], "location": {"display_address": ["1700 E Passyunk Ave", "Philadelphia, PA 19148"], "address3": "", "city": "Philadelphia", "state": "PA", "address2": "", "address1": "1700 E Passyunk Ave", "zip_code": "19148", "country": "US"}, "review_count": 264, "distance": 2840.1118940539995, "display_phone": "(267) 324-3127", "price": "$$", "rating": 4.0, "phone": "+12673243127", "id": "birra-philadelphia", "name": "Birra", "transactions": [], "url": "https://www.yelp.com/biz/birra-philadelphia?adjust_creative=8_C4NSGbL05eUQksKleGYw&utm_campaign=yelp_api_v3&utm_medium=api_v3_business_search&utm_source=8_C4NSGbL05eUQksKleGYw", "is_closed": false, "image_url": "https://s3-media1.fl.yelpcdn.com/bphoto/kqk2LcM6Bshz2aGBr4zR4w/o.jpg"}, {"coordinates": {"longitude": -75.20746, "latitude": 40.07699}, "categories": [{"alias": "newamerican", "title": "American (New)"}], "location": {"display_address": ["8609 Germantown Ave", "Philadelphia, PA 19118"], "address3": "", "city": "Philadelphia", "state": "PA", "address2": "", "address1": "8609 Germantown Ave", "zip_code": "19118", "country": "US"}, "review_count": 109, "distance": 14040.228168099999, "display_phone": "(267) 335-3912", "price": "$$$$", "rating": 4.0, "phone": "+12673353912", "id": "mica-restaurant-philadelphia", "name": "Mica Restaurant", "transactions": [], "url": "https://www.yelp.com/biz/mica-restaurant-philadelphia?adjust_creative=8_C4NSGbL05eUQksKleGYw&utm_campaign=yelp_api_v3&utm_medium=api_v3_business_search&utm_source=8_C4NSGbL05eUQksKleGYw", "is_closed": false, "image_url": "https://s3-media3.fl.yelpcdn.com/bphoto/C0KeyLza-X5WJI1x2gl1VQ/o.jpg"}, {"coordinates": {"longitude": -75.1714396476746, "latitude": 39.9962365651129}, "categories": [{"alias": "breakfast_brunch", "title": "Breakfast & Brunch"}, {"alias": "burgers", "title": "Burgers"}, {"alias": "sandwiches", "title": "Sandwiches"}], "location": {"display_address": ["2415 W Lehigh Ave", "Philadelphia, PA 19132"], "address3": "", "city": "Philadelphia", "state": "PA", "address2": "", "address1": "2415 W Lehigh Ave", "zip_code": "19132", "country": "US"}, "review_count": 13, "distance": 4720.681206284, "display_phone": "(267) 519-8633", "price": "$$", "rating": 4.5, "phone": "+12675198633", "id": "reddys-philadelphia", "name": "Reddy's", "transactions": [], "url": "https://www.yelp.com/biz/reddys-philadelphia?adjust_creative=8_C4NSGbL05eUQksKleGYw&utm_campaign=yelp_api_v3&utm_medium=api_v3_business_search&utm_source=8_C4NSGbL05eUQksKleGYw", "is_closed": false, "image_url": "https://s3-media1.fl.yelpcdn.com/bphoto/9sFtaYtXq1nWiR04LFwPWA/o.jpg"}, {"coordinates": {"longitude": -75.146621, "latitude": 39.938022}, "categories": [{"alias": "divebars", "title": "Dive Bars"}, {"alias": "izakaya", "title": "Izakaya"}], "location": {"display_address": ["780-782 S 2nd St", "Philadelphia, PA 19147"], "address3": null, "city": "Philadelphia", "state": "PA", "address2": "", "address1": "780-782 S 2nd St", "zip_code": "19147", "country": "US"}, "review_count": 58, "distance": 2731.621778502, "display_phone": "(267) 909-9002", "price": "$$$", "rating": 4.0, "phone": "+12679099002", "id": "royal-sushi-and-izakaya-philadelphia", "name": "Royal Sushi & Izakaya", "transactions": [], "url": "https://www.yelp.com/biz/royal-sushi-and-izakaya-philadelphia?adjust_creative=8_C4NSGbL05eUQksKleGYw&utm_campaign=yelp_api_v3&utm_medium=api_v3_business_search&utm_source=8_C4NSGbL05eUQksKleGYw", "is_closed": false, "image_url": "https://s3-media1.fl.yelpcdn.com/bphoto/TuVNGiAzScDTnqaPDbrlNg/o.jpg"}, {"coordinates": {"longitude": -75.14026, "latitude": 39.96481}, "categories": [{"alias": "mexican", "title": "Mexican"}, {"alias": "bars", "title": "Bars"}, {"alias": "breakfast_brunch", "title": "Breakfast & Brunch"}], "location": {"display_address": ["931 N 2nd St", "Philadelphia, PA 19123"], "address3": "", "city": "Philadelphia", "state": "PA", "address2": "", "address1": "931 N 2nd St", "zip_code": "19123", "country": "US"}, "review_count": 667, "distance": 2910.905634116, "display_phone": "(215) 629-0500", "price": "$$", "rating": 4.0, "phone": "+12156290500", "id": "cantina-dos-segundos-philadelphia", "name": "Cantina Dos Segundos", "transactions": [], "url": "https://www.yelp.com/biz/cantina-dos-segundos-philadelphia?adjust_creative=8_C4NSGbL05eUQksKleGYw&utm_campaign=yelp_api_v3&utm_medium=api_v3_business_search&utm_source=8_C4NSGbL05eUQksKleGYw", "is_closed": false, "image_url": "https://s3-media2.fl.yelpcdn.com/bphoto/rDz44zd19sAeyOmtmCllDQ/o.jpg"}, {"coordinates": {"longitude": -75.127101, "latitude": 39.9768438}, "categories": [{"alias": "mexican", "title": "Mexican"}, {"alias": "tradamerican", "title": "American (Traditional)"}], "location": {"display_address": ["2401 E Norris St", "Philadelphia, PA 19125"], "address3": "", "city": "Philadelphia", "state": "PA", "address2": "", "address1": "2401 E Norris St", "zip_code": "19125", "country": "US"}, "review_count": 468, "distance": 4550.353810572, "display_phone": "(267) 886-8061", "price": "$$", "rating": 4.0, "phone": "+12678868061", "id": "loco-pez-philadelphia", "name": "Loco Pez", "transactions": ["delivery"], "url": "https://www.yelp.com/biz/loco-pez-philadelphia?adjust_creative=8_C4NSGbL05eUQksKleGYw&utm_campaign=yelp_api_v3&utm_medium=api_v3_business_search&utm_source=8_C4NSGbL05eUQksKleGYw", "is_closed": false, "image_url": "https://s3-media3.fl.yelpcdn.com/bphoto/4Kk64zu1023LvmT_KToErw/o.jpg"}, {"coordinates": {"longitude": -75.1490618, "latitude": 39.9498303}, "categories": [{"alias": "asianfusion", "title": "Asian Fusion"}, {"alias": "chicken_wings", "title": "Chicken Wings"}, {"alias": "thai", "title": "Thai"}], "location": {"display_address": ["21 S 5th St", "111 S Independence Mall E", "Philadelphia, PA 19106"], "address3": "111 S Independence Mall E", "city": "Philadelphia", "state": "PA", "address2": "", "address1": "21 S 5th St", "zip_code": "19106", "country": "US"}, "review_count": 29, "distance": 1937.748518694, "display_phone": "(215) 922-1960", "price": "$", "rating": 4.0, "phone": "+12159221960", "id": "liberty-chicken-philadelphia", "name": "Liberty Chicken", "transactions": [], "url": "https://www.yelp.com/biz/liberty-chicken-philadelphia?adjust_creative=8_C4NSGbL05eUQksKleGYw&utm_campaign=yelp_api_v3&utm_medium=api_v3_business_search&utm_source=8_C4NSGbL05eUQksKleGYw", "is_closed": false, "image_url": "https://s3-media2.fl.yelpcdn.com/bphoto/7Ar2LX97seGYVOYpvc7Jtg/o.jpg"}, {"coordinates": {"longitude": -75.16951, "latitude": 39.951275}, "categories": [{"alias": "coffee", "title": "Coffee & Tea"}, {"alias": "italian", "title": "Italian"}, {"alias": "bakeries", "title": "Bakeries"}], "location": {"display_address": ["1716 Chestnut St", "Philadelphia, PA 19103"], "address3": "", "city": "Philadelphia", "state": "PA", "address2": "", "address1": "1716 Chestnut St", "zip_code": "19103", "country": "US"}, "review_count": 429, "distance": 313.8587493418, "display_phone": "(215) 568-5600", "price": "$$", "rating": 4.5, "phone": "+12155685600", "id": "gran-caffe-l-aquila-philadelphia", "name": "Gran Caffe L'Aquila", "transactions": [], "url": "https://www.yelp.com/biz/gran-caffe-l-aquila-philadelphia?adjust_creative=8_C4NSGbL05eUQksKleGYw&utm_campaign=yelp_api_v3&utm_medium=api_v3_business_search&utm_source=8_C4NSGbL05eUQksKleGYw", "is_closed": false, "image_url": "https://s3-media1.fl.yelpcdn.com/bphoto/8fm2VDFQePpK5G5QSPNO3A/o.jpg"}, {"coordinates": {"longitude": -75.1455635682039, "latitude": 39.9664506631665}, "categories": [{"alias": "cocktailbars", "title": "Cocktail Bars"}, {"alias": "newamerican", "title": "American (New)"}, {"alias": "beerbar", "title": "Beer Bar"}], "location": {"display_address": ["447 Poplar St", "Philadelphia, PA 19123"], "address3": "", "city": "Philadelphia", "state": "PA", "address2": "", "address1": "447 Poplar St", "zip_code": "19123", "country": "US"}, "review_count": 120, "distance": 2600.152540826, "display_phone": "(267) 639-4761", "price": "$$", "rating": 4.5, "phone": "+12676394761", "id": "bardot-cafe-philadelphia-2", "name": "Bardot Cafe", "transactions": [], "url": "https://www.yelp.com/biz/bardot-cafe-philadelphia-2?adjust_creative=8_C4NSGbL05eUQksKleGYw&utm_campaign=yelp_api_v3&utm_medium=api_v3_business_search&utm_source=8_C4NSGbL05eUQksKleGYw", "is_closed": false, "image_url": "https://s3-media1.fl.yelpcdn.com/bphoto/-x3E_27N2q4Gf0JSUxIFxg/o.jpg"}, {"coordinates": {"longitude": -75.1476332, "latitude": 39.963675}, "categories": [{"alias": "latin", "title": "Latin American"}, {"alias": "spanish", "title": "Spanish"}, {"alias": "tapas", "title": "Tapas Bars"}], "location": {"display_address": ["527 Fairmount Ave", "Philadelphia, PA 19123"], "address3": "", "city": "Philadelphia", "state": "PA", "address2": null, "address1": "527 Fairmount Ave", "zip_code": "19123", "country": "US"}, "review_count": 120, "distance": 2290.2918265659996, "display_phone": "(215) 922-6433", "price": "$$", "rating": 4.0, "phone": "+12159226433", "id": "pura-vida-philadelphia", "name": "Pura Vida", "transactions": [], "url": "https://www.yelp.com/biz/pura-vida-philadelphia?adjust_creative=8_C4NSGbL05eUQksKleGYw&utm_campaign=yelp_api_v3&utm_medium=api_v3_business_search&utm_source=8_C4NSGbL05eUQksKleGYw", "is_closed": false, "image_url": "https://s3-media1.fl.yelpcdn.com/bphoto/lhRWaIAo8A2gzPGXgRgsYA/o.jpg"}, {"coordinates": {"longitude": -75.1749572753906, "latitude": 39.9115753173828}, "categories": [{"alias": "delis", "title": "Delis"}, {"alias": "sandwiches", "title": "Sandwiches"}], "location": {"display_address": ["1528 Packer Ave", "Philadelphia, PA 19145"], "address3": null, "city": "Philadelphia", "state": "PA", "address2": null, "address1": "1528 Packer Ave", "zip_code": "19145", "country": "US"}, "review_count": 54, "distance": 4709.506110258, "display_phone": "(215) 467-1111", "price": "$", "rating": 4.5, "phone": "+12154671111", "id": "pastificio-philadelphia", "name": "Pastificio", "transactions": ["delivery", "pickup"], "url": "https://www.yelp.com/biz/pastificio-philadelphia?adjust_creative=8_C4NSGbL05eUQksKleGYw&utm_campaign=yelp_api_v3&utm_medium=api_v3_business_search&utm_source=8_C4NSGbL05eUQksKleGYw", "is_closed": false, "image_url": "https://s3-media2.fl.yelpcdn.com/bphoto/Drq86wwGZkSmP1W7S9KNLQ/o.jpg"}, {"coordinates": {"longitude": -75.1534042358398, "latitude": 39.9600524902344}, "categories": [{"alias": "tradamerican", "title": "American (Traditional)"}], "location": {"display_address": ["448 N 9th St", "Philadelphia, PA 19123"], "address3": "", "city": "Philadelphia", "state": "PA", "address2": "", "address1": "448 N 9th St", "zip_code": "19123", "country": "US"}, "review_count": 12, "distance": 1663.6775948260001, "display_phone": "(215) 978-7156", "price": "$", "rating": 4.5, "phone": "+12159787156", "id": "new-town-restaurant-philadelphia", "name": "New Town Restaurant", "transactions": [], "url": "https://www.yelp.com/biz/new-town-restaurant-philadelphia?adjust_creative=8_C4NSGbL05eUQksKleGYw&utm_campaign=yelp_api_v3&utm_medium=api_v3_business_search&utm_source=8_C4NSGbL05eUQksKleGYw", "is_closed": false, "image_url": "https://s3-media1.fl.yelpcdn.com/bphoto/IBzfJh4FdEF785TMVdqNTQ/o.jpg"}, {"coordinates": {"longitude": -75.162757, "latitude": 39.936748}, "categories": [{"alias": "indonesian", "title": "Indonesian"}], "location": {"display_address": ["1122-38 Washington Ave", "Ste B", "Philadelphia, PA 19147"], "address3": "", "city": "Philadelphia", "state": "PA", "address2": "Ste B", "address1": "1122-38 Washington Ave", "zip_code": "19147", "country": "US"}, "review_count": 44, "distance": 1999.749146864, "display_phone": "(215) 271-1983", "price": "$", "rating": 4.5, "phone": "+12152711983", "id": "sky-cafe-philadelphia-2", "name": "Sky Cafe", "transactions": [], "url": "https://www.yelp.com/biz/sky-cafe-philadelphia-2?adjust_creative=8_C4NSGbL05eUQksKleGYw&utm_campaign=yelp_api_v3&utm_medium=api_v3_business_search&utm_source=8_C4NSGbL05eUQksKleGYw", "is_closed": false, "image_url": "https://s3-media4.fl.yelpcdn.com/bphoto/g2o8jxoj98APvjjoqp8KnA/o.jpg"}, {"coordinates": {"longitude": -75.1958062, "latitude": 39.9547006}, "categories": [{"alias": "japanese", "title": "Japanese"}, {"alias": "bubbletea", "title": "Bubble Tea"}, {"alias": "noodles", "title": "Noodles"}], "location": {"display_address": ["3608 Chestnut St", "Philadelphia, PA 19104"], "address3": "", "city": "Philadelphia", "state": "PA", "address2": "", "address1": "3608 Chestnut St", "zip_code": "19104", "country": "US"}, "review_count": 74, "distance": 2020.5590396019998, "display_phone": "(215) 382-5555", "price": "$$", "rating": 3.5, "phone": "+12153825555", "id": "ochatto-philadelphia", "name": "Ochatto", "transactions": [], "url": "https://www.yelp.com/biz/ochatto-philadelphia?adjust_creative=8_C4NSGbL05eUQksKleGYw&utm_campaign=yelp_api_v3&utm_medium=api_v3_business_search&utm_source=8_C4NSGbL05eUQksKleGYw", "is_closed": false, "image_url": "https://s3-media4.fl.yelpcdn.com/bphoto/0wQ6uvI-6b4SWisg3Pg17w/o.jpg"}, {"coordinates": {"longitude": -75.1548857, "latitude": 39.9496074}, "categories": [{"alias": "newamerican", "title": "American (New)"}, {"alias": "bars", "title": "Bars"}], "location": {"display_address": ["834 Chestnut St", "Philadelphia, PA 19107"], "address3": null, "city": "Philadelphia", "state": "PA", "address2": "", "address1": "834 Chestnut St", "zip_code": "19107", "country": "US"}, "review_count": 29, "distance": 1454.4079369695999, "display_phone": "(215) 305-8752", "price": "$$", "rating": 4.0, "phone": "+12153058752", "id": "rarest-philadelphia", "name": "Rarest", "transactions": [], "url": "https://www.yelp.com/biz/rarest-philadelphia?adjust_creative=8_C4NSGbL05eUQksKleGYw&utm_campaign=yelp_api_v3&utm_medium=api_v3_business_search&utm_source=8_C4NSGbL05eUQksKleGYw", "is_closed": false, "image_url": "https://s3-media1.fl.yelpcdn.com/bphoto/2EzM9xzCaWgs4XD1XYo3vQ/o.jpg"}, {"coordinates": {"longitude": -75.143003697265, "latitude": 39.962247651128}, "categories": [{"alias": "bars", "title": "Bars"}, {"alias": "tradamerican", "title": "American (Traditional)"}], "location": {"display_address": ["637 N 3rd St", "Philadelphia, PA 19123"], "address3": "", "city": "Philadelphia", "state": "PA", "address2": null, "address1": "637 N 3rd St", "zip_code": "19123", "country": "US"}, "review_count": 275, "distance": 2581.1439823499995, "display_phone": "(215) 627-6711", "price": "$$", "rating": 4.0, "phone": "+12156276711", "id": "the-abbaye-philadelphia", "name": "The Abbaye", "transactions": [], "url": "https://www.yelp.com/biz/the-abbaye-philadelphia?adjust_creative=8_C4NSGbL05eUQksKleGYw&utm_campaign=yelp_api_v3&utm_medium=api_v3_business_search&utm_source=8_C4NSGbL05eUQksKleGYw", "is_closed": false, "image_url": "https://s3-media3.fl.yelpcdn.com/bphoto/pnk9f-r2qcxD6ZmhA4EJ7Q/o.jpg"}, {"coordinates": {"longitude": -75.0272619, "latitude": 40.029103}, "categories": [{"alias": "bbq", "title": "Barbeque"}, {"alias": "smokehouse", "title": "Smokehouse"}], "location": {"display_address": ["7500 State Rd", "Philadelphia, PA 19136"], "address3": "", "city": "Philadelphia", "state": "PA", "address2": null, "address1": "7500 State Rd", "zip_code": "19136", "country": "US"}, "review_count": 437, "distance": 14849.90241083, "display_phone": "(215) 333-9663", "price": "$$", "rating": 4.0, "phone": "+12153339663", "id": "sweet-lucys-smokehouse-philadelphia", "name": "Sweet Lucy's Smokehouse", "transactions": [], "url": "https://www.yelp.com/biz/sweet-lucys-smokehouse-philadelphia?adjust_creative=8_C4NSGbL05eUQksKleGYw&utm_campaign=yelp_api_v3&utm_medium=api_v3_business_search&utm_source=8_C4NSGbL05eUQksKleGYw", "is_closed": false, "image_url": "https://s3-media1.fl.yelpcdn.com/bphoto/3r6nyF_nJtmsLNNTwTLErg/o.jpg"}, {"coordinates": {"longitude": -75.172968506813, "latitude": 39.9496203660965}, "categories": [{"alias": "newamerican", "title": "American (New)"}, {"alias": "breakfast_brunch", "title": "Breakfast & Brunch"}], "location": {"display_address": ["210 West Rittenhouse Sq", "Philadelphia, PA 19103"], "address3": "", "city": "Philadelphia", "state": "PA", "address2": "", "address1": "210 West Rittenhouse Sq", "zip_code": "19103", "country": "US"}, "review_count": 352, "distance": 473.53783429, "display_phone": "(215) 790-2533", "price": "$$$$", "rating": 4.5, "phone": "+12157902533", "id": "lacroix-restaurant-philadelphia", "name": "Lacroix Restaurant", "transactions": [], "url": "https://www.yelp.com/biz/lacroix-restaurant-philadelphia?adjust_creative=8_C4NSGbL05eUQksKleGYw&utm_campaign=yelp_api_v3&utm_medium=api_v3_business_search&utm_source=8_C4NSGbL05eUQksKleGYw", "is_closed": false, "image_url": "https://s3-media3.fl.yelpcdn.com/bphoto/lPLONsOubCySALUSPT5wuQ/o.jpg"}, {"coordinates": {"longitude": -75.16285, "latitude": 39.92985}, "categories": [{"alias": "newamerican", "title": "American (New)"}, {"alias": "seafood", "title": "Seafood"}], "location": {"display_address": ["1537 S 11th St", "Philadelphia, PA 19147"], "address3": "", "city": "Philadelphia", "state": "PA", "address2": "", "address1": "1537 S 11th St", "zip_code": "19147", "country": "US"}, "review_count": 269, "distance": 2751.702479286, "display_phone": "(215) 551-5000", "price": "$$$", "rating": 4.5, "phone": "+12155515000", "id": "fond-philadelphia", "name": "Fond", "transactions": [], "url": "https://www.yelp.com/biz/fond-philadelphia?adjust_creative=8_C4NSGbL05eUQksKleGYw&utm_campaign=yelp_api_v3&utm_medium=api_v3_business_search&utm_source=8_C4NSGbL05eUQksKleGYw", "is_closed": false, "image_url": "https://s3-media1.fl.yelpcdn.com/bphoto/yoF1V_26CKerZYYvtWDsGg/o.jpg"}, {"coordinates": {"longitude": -75.1561456581204, "latitude": 39.954709455981}, "categories": [{"alias": "chinese", "title": "Chinese"}, {"alias": "asianfusion", "title": "Asian Fusion"}], "location": {"display_address": ["138 N 10th St", "Philadelphia, PA 19107"], "address3": "", "city": "Philadelphia", "state": "PA", "address2": "", "address1": "138 N 10th St", "zip_code": "19107", "country": "US"}, "review_count": 250, "distance": 1287.8400560579998, "display_phone": "(215) 928-1883", "price": "$", "rating": 4.0, "phone": "+12159281883", "id": "ting-wong-restaurant-philadelphia", "name": "Ting Wong Restaurant", "transactions": ["pickup"], "url": "https://www.yelp.com/biz/ting-wong-restaurant-philadelphia?adjust_creative=8_C4NSGbL05eUQksKleGYw&utm_campaign=yelp_api_v3&utm_medium=api_v3_business_search&utm_source=8_C4NSGbL05eUQksKleGYw", "is_closed": false, "image_url": "https://s3-media4.fl.yelpcdn.com/bphoto/X-bPm4wBwHWLJd06TIlNBQ/o.jpg"}, {"coordinates": {"longitude": -75.1701276, "latitude": 39.9553887}, "categories": [{"alias": "bars", "title": "Bars"}, {"alias": "newamerican", "title": "American (New)"}], "location": {"display_address": ["1835 Arch St", "Philadelphia, PA 19103"], "address3": "", "city": "Philadelphia", "state": "PA", "address2": null, "address1": "1835 Arch St", "zip_code": "19103", "country": "US"}, "review_count": 24, "distance": 213.10111015479998, "display_phone": "(267) 324-5005", "price": "$$$", "rating": 3.5, "phone": "+12673245005", "id": "james-philadelphia-2", "name": "James", "transactions": [], "url": "https://www.yelp.com/biz/james-philadelphia-2?adjust_creative=8_C4NSGbL05eUQksKleGYw&utm_campaign=yelp_api_v3&utm_medium=api_v3_business_search&utm_source=8_C4NSGbL05eUQksKleGYw", "is_closed": false, "image_url": "https://s3-media2.fl.yelpcdn.com/bphoto/peoRjPhYZFjUDf-ZSr2OQA/o.jpg"}, {"coordinates": {"longitude": -75.16985, "latitude": 39.96075}, "categories": [{"alias": "newamerican", "title": "American (New)"}, {"alias": "desserts", "title": "Desserts"}, {"alias": "wine_bars", "title": "Wine Bars"}], "location": {"display_address": ["1847 Callowhill St", "Philadelphia, PA 19130"], "address3": "", "city": "Philadelphia", "state": "PA", "address2": "", "address1": "1847 Callowhill St", "zip_code": "19130", "country": "US"}, "review_count": 211, "distance": 784.3067473922, "display_phone": "(215) 569-8939", "price": "$$$", "rating": 4.0, "phone": "+12155698939", "id": "rose-tattoo-cafe-philadelphia-3", "name": "Rose Tattoo Cafe", "transactions": [], "url": "https://www.yelp.com/biz/rose-tattoo-cafe-philadelphia-3?adjust_creative=8_C4NSGbL05eUQksKleGYw&utm_campaign=yelp_api_v3&utm_medium=api_v3_business_search&utm_source=8_C4NSGbL05eUQksKleGYw", "is_closed": false, "image_url": "https://s3-media2.fl.yelpcdn.com/bphoto/MSZVTXyU__y7pjinph3VBw/o.jpg"}, {"coordinates": {"longitude": -75.12352, "latitude": 40.03331}, "categories": [{"alias": "laotian", "title": "Laotian"}], "location": {"display_address": ["5419 N Mascher St", "Philadelphia, PA 19120"], "address3": "", "city": "Philadelphia", "state": "PA", "address2": null, "address1": "5419 N Mascher St", "zip_code": "19120", "country": "US"}, "review_count": 22, "distance": 9724.408625615999, "display_phone": "(215) 927-1417", "price": "$$", "rating": 4.5, "phone": "+12159271417", "id": "dansavann-laos-cafe-philadelphia", "name": "Dansavann Laos Cafe", "transactions": ["pickup"], "url": "https://www.yelp.com/biz/dansavann-laos-cafe-philadelphia?adjust_creative=8_C4NSGbL05eUQksKleGYw&utm_campaign=yelp_api_v3&utm_medium=api_v3_business_search&utm_source=8_C4NSGbL05eUQksKleGYw", "is_closed": false, "image_url": "https://s3-media4.fl.yelpcdn.com/bphoto/JiwWypKI1fsKi1dxMmDfww/o.jpg"}, {"coordinates": {"longitude": -75.1552917273078, "latitude": 39.955083683693}, "categories": [{"alias": "korean", "title": "Korean"}, {"alias": "chinese", "title": "Chinese"}, {"alias": "hotpot", "title": "Hot Pot"}], "location": {"display_address": ["926 Race St", "Philadelphia, PA 19107"], "address3": "", "city": "Philadelphia", "state": "PA", "address2": "", "address1": "926 Race St", "zip_code": "19107", "country": "US"}, "review_count": 589, "distance": 1364.2290689650001, "display_phone": "(215) 238-9996", "price": "$$", "rating": 4.0, "phone": "+12152389996", "id": "nine-ting-philadelphia", "name": "Nine Ting", "transactions": [], "url": "https://www.yelp.com/biz/nine-ting-philadelphia?adjust_creative=8_C4NSGbL05eUQksKleGYw&utm_campaign=yelp_api_v3&utm_medium=api_v3_business_search&utm_source=8_C4NSGbL05eUQksKleGYw", "is_closed": false, "image_url": "https://s3-media2.fl.yelpcdn.com/bphoto/cIGzBaaDti8zm9PG-Wt-Cg/o.jpg"}, {"coordinates": {"longitude": -75.2188, "latitude": 40.022471}, "categories": [{"alias": "newamerican", "title": "American (New)"}, {"alias": "breweries", "title": "Breweries"}, {"alias": "tradamerican", "title": "American (Traditional)"}], "location": {"display_address": ["4120 Main St", "Philadelphia, PA 19127"], "address3": "", "city": "Philadelphia", "state": "PA", "address2": "", "address1": "4120 Main St", "zip_code": "19127", "country": "US"}, "review_count": 441, "distance": 8647.88344106, "display_phone": "(215) 482-8220", "price": "$$", "rating": 3.5, "phone": "+12154828220", "id": "manayunk-brewery-philadelphia-2", "name": "Manayunk Brewery", "transactions": [], "url": "https://www.yelp.com/biz/manayunk-brewery-philadelphia-2?adjust_creative=8_C4NSGbL05eUQksKleGYw&utm_campaign=yelp_api_v3&utm_medium=api_v3_business_search&utm_source=8_C4NSGbL05eUQksKleGYw", "is_closed": false, "image_url": "https://s3-media1.fl.yelpcdn.com/bphoto/DIeJjlpJxKV72dkkgk24Hw/o.jpg"}, {"coordinates": {"longitude": -75.1545639038086, "latitude": 39.9606437683105}, "categories": [{"alias": "mexican", "title": "Mexican"}], "location": {"display_address": ["469 N 10th St", "Philadelphia, PA 19123"], "address3": "", "city": "Philadelphia", "state": "PA", "address2": "", "address1": "469 N 10th St", "zip_code": "19123", "country": "US"}, "review_count": 37, "distance": 1610.719526248, "display_phone": "(215) 765-2369", "price": "$", "rating": 4.5, "phone": "+12157652369", "id": "el-purepecha-philadelphia", "name": "El Purepecha", "transactions": ["pickup"], "url": "https://www.yelp.com/biz/el-purepecha-philadelphia?adjust_creative=8_C4NSGbL05eUQksKleGYw&utm_campaign=yelp_api_v3&utm_medium=api_v3_business_search&utm_source=8_C4NSGbL05eUQksKleGYw", "is_closed": false, "image_url": "https://s3-media2.fl.yelpcdn.com/bphoto/yBLmi3Iv787EbPhX0eMXFw/o.jpg"}, {"coordinates": {"longitude": -75.171478, "latitude": 39.927312}, "categories": [{"alias": "gastropubs", "title": "Gastropubs"}], "location": {"display_address": ["1509 Mifflin St", "Philadelphia, PA 19145"], "address3": "", "city": "Philadelphia", "state": "PA", "address2": "", "address1": "1509 Mifflin St", "zip_code": "19145", "country": "US"}, "review_count": 450, "distance": 2943.4400515559996, "display_phone": "(215) 271-7787", "price": "$$", "rating": 4.0, "phone": "+12152717787", "id": "south-philadelphia-tap-room-philadelphia-3", "name": "South Philadelphia Tap Room", "transactions": [], "url": "https://www.yelp.com/biz/south-philadelphia-tap-room-philadelphia-3?adjust_creative=8_C4NSGbL05eUQksKleGYw&utm_campaign=yelp_api_v3&utm_medium=api_v3_business_search&utm_source=8_C4NSGbL05eUQksKleGYw", "is_closed": false, "image_url": "https://s3-media2.fl.yelpcdn.com/bphoto/dFSOgD9oQyfaojIgb-IugQ/o.jpg"}, {"coordinates": {"longitude": -75.15647, "latitude": 39.98695}, "categories": [{"alias": "seafood", "title": "Seafood"}, {"alias": "fishnchips", "title": "Fish & Chips"}, {"alias": "spanish", "title": "Spanish"}], "location": {"display_address": ["2226 N Broad St", "Philadelphia, PA 19132"], "address3": "", "city": "Philadelphia", "state": "PA", "address2": null, "address1": "2226 N Broad St", "zip_code": "19132", "country": "US"}, "review_count": 11, "distance": 3896.8748662119997, "display_phone": "(267) 500-5941", "price": "$$", "rating": 5.0, "phone": "+12675005941", "id": "captain-hooks-philadelphia-7", "name": "Captain Hooks", "transactions": ["pickup"], "url": "https://www.yelp.com/biz/captain-hooks-philadelphia-7?adjust_creative=8_C4NSGbL05eUQksKleGYw&utm_campaign=yelp_api_v3&utm_medium=api_v3_business_search&utm_source=8_C4NSGbL05eUQksKleGYw", "is_closed": false, "image_url": "https://s3-media2.fl.yelpcdn.com/bphoto/S50ltersZOCZKUoVFJshyg/o.jpg"}, {"coordinates": {"longitude": -75.151604, "latitude": 39.925014}, "categories": [{"alias": "gastropubs", "title": "Gastropubs"}, {"alias": "pubs", "title": "Pubs"}], "location": {"display_address": ["1825 E Moyamensing Ave", "Philadelphia, PA 19148"], "address3": "", "city": "Philadelphia", "state": "PA", "address2": "", "address1": "1825 E Moyamensing Ave", "zip_code": "19148", "country": "US"}, "review_count": 132, "distance": 3608.8693110199997, "display_phone": "(267) 639-9720", "price": "$$", "rating": 4.0, "phone": "+12676399720", "id": "moonshine-philly-philadelphia", "name": "Moonshine Philly", "transactions": [], "url": "https://www.yelp.com/biz/moonshine-philly-philadelphia?adjust_creative=8_C4NSGbL05eUQksKleGYw&utm_campaign=yelp_api_v3&utm_medium=api_v3_business_search&utm_source=8_C4NSGbL05eUQksKleGYw", "is_closed": false, "image_url": "https://s3-media2.fl.yelpcdn.com/bphoto/-xJ4Ql6hN4q0oyFjo5oZCQ/o.jpg"}, {"coordinates": {"longitude": -75.1692428588867, "latitude": 39.9603004455566}, "categories": [{"alias": "sushi", "title": "Sushi Bars"}, {"alias": "japanese", "title": "Japanese"}, {"alias": "korean", "title": "Korean"}], "location": {"display_address": ["1822 Callowhill St", "Philadelphia, PA 19130"], "address3": "", "city": "Philadelphia", "state": "PA", "address2": "", "address1": "1822 Callowhill St", "zip_code": "19130", "country": "US"}, "review_count": 354, "distance": 744.7558328598, "display_phone": "(215) 564-1114", "price": "$$", "rating": 4.0, "phone": "+12155641114", "id": "doma-philadelphia", "name": "Doma", "transactions": ["delivery", "pickup"], "url": "https://www.yelp.com/biz/doma-philadelphia?adjust_creative=8_C4NSGbL05eUQksKleGYw&utm_campaign=yelp_api_v3&utm_medium=api_v3_business_search&utm_source=8_C4NSGbL05eUQksKleGYw", "is_closed": false, "image_url": "https://s3-media2.fl.yelpcdn.com/bphoto/yRfZdPJ5A6Kcz11PObaSWQ/o.jpg"}, {"coordinates": {"longitude": -75.170791, "latitude": 39.94445}, "categories": [{"alias": "newamerican", "title": "American (New)"}], "location": {"display_address": ["1713 South St", "Philadelphia, PA 19146"], "address3": "", "city": "Philadelphia", "state": "PA", "address2": "", "address1": "1713 South St", "zip_code": "19146", "country": "US"}, "review_count": 332, "distance": 1039.820806242, "display_phone": "(215) 545-4448", "price": "$$$", "rating": 4.0, "phone": "+12155454448", "id": "pumpkin-philadelphia-2", "name": "Pumpkin", "transactions": [], "url": "https://www.yelp.com/biz/pumpkin-philadelphia-2?adjust_creative=8_C4NSGbL05eUQksKleGYw&utm_campaign=yelp_api_v3&utm_medium=api_v3_business_search&utm_source=8_C4NSGbL05eUQksKleGYw", "is_closed": false, "image_url": "https://s3-media1.fl.yelpcdn.com/bphoto/fnHkgFZcw-YYJ0g30CSqVA/o.jpg"}, {"coordinates": {"longitude": -75.11027, "latitude": 39.99843}, "categories": [{"alias": "vietnamese", "title": "Vietnamese"}], "location": {"display_address": ["3324 Kensington Ave", "Philadelphia, PA 19134"], "address3": "", "city": "Philadelphia", "state": "PA", "address2": "", "address1": "3324 Kensington Ave", "zip_code": "19134", "country": "US"}, "review_count": 13, "distance": 7183.87328042, "display_phone": "(267) 239-0739", "price": "$", "rating": 5.0, "phone": "+12672390739", "id": "cafe-mi-quang-philadelphia", "name": "Cafe Mi Quang", "transactions": [], "url": "https://www.yelp.com/biz/cafe-mi-quang-philadelphia?adjust_creative=8_C4NSGbL05eUQksKleGYw&utm_campaign=yelp_api_v3&utm_medium=api_v3_business_search&utm_source=8_C4NSGbL05eUQksKleGYw", "is_closed": false, "image_url": "https://s3-media2.fl.yelpcdn.com/bphoto/C2iLWOhKHB_c_305MmMKgA/o.jpg"}, {"coordinates": {"longitude": -75.1678431, "latitude": 39.9437696}, "categories": [{"alias": "southern", "title": "Southern"}, {"alias": "newamerican", "title": "American (New)"}, {"alias": "salad", "title": "Salad"}], "location": {"display_address": ["1516 South St", "Philadelphia, PA 19146"], "address3": "", "city": "Philadelphia", "state": "PA", "address2": null, "address1": "1516 South St", "zip_code": "19146", "country": "US"}, "review_count": 298, "distance": 1149.2306596039998, "display_phone": "(267) 319-1366", "price": "$$", "rating": 4.5, "phone": "+12673191366", "id": "rex-1516-philadelphia", "name": "Rex 1516", "transactions": [], "url": "https://www.yelp.com/biz/rex-1516-philadelphia?adjust_creative=8_C4NSGbL05eUQksKleGYw&utm_campaign=yelp_api_v3&utm_medium=api_v3_business_search&utm_source=8_C4NSGbL05eUQksKleGYw", "is_closed": false, "image_url": "https://s3-media1.fl.yelpcdn.com/bphoto/kLWar3eFpYk-Nl9Sm-DnVw/o.jpg"}, {"coordinates": {"longitude": -75.16016, "latitude": 39.9475399}, "categories": [{"alias": "mideastern", "title": "Middle Eastern"}, {"alias": "vegan", "title": "Vegan"}, {"alias": "vegetarian", "title": "Vegetarian"}], "location": {"display_address": ["1112 Locust St", "Philadelphia, PA 19107"], "address3": null, "city": "Philadelphia", "state": "PA", "address2": "", "address1": "1112 Locust St", "zip_code": "19107", "country": "US"}, "review_count": 57, "distance": 1171.88517785, "display_phone": "(215) 592-6505", "price": "$$", "rating": 4.5, "phone": "+12155926505", "id": "hummusology-philadelphia-2", "name": "Hummusology", "transactions": [], "url": "https://www.yelp.com/biz/hummusology-philadelphia-2?adjust_creative=8_C4NSGbL05eUQksKleGYw&utm_campaign=yelp_api_v3&utm_medium=api_v3_business_search&utm_source=8_C4NSGbL05eUQksKleGYw", "is_closed": false, "image_url": "https://s3-media3.fl.yelpcdn.com/bphoto/hjqPkln_eS370kgnbQYiUQ/o.jpg"}, {"coordinates": {"longitude": -75.17116, "latitude": 39.91932}, "categories": [{"alias": "italian", "title": "Italian"}], "location": {"display_address": ["2500 S Broad St", "Philadelphia, PA 19145"], "address3": "", "city": "Philadelphia", "state": "PA", "address2": "", "address1": "2500 S Broad St", "zip_code": "19145", "country": "US"}, "review_count": 113, "distance": 3831.148776876, "display_phone": "(215) 468-3900", "price": "$$", "rating": 4.0, "phone": "+12154683900", "id": "scannicchios-philadelphia", "name": "Scannicchio's", "transactions": [], "url": "https://www.yelp.com/biz/scannicchios-philadelphia?adjust_creative=8_C4NSGbL05eUQksKleGYw&utm_campaign=yelp_api_v3&utm_medium=api_v3_business_search&utm_source=8_C4NSGbL05eUQksKleGYw", "is_closed": false, "image_url": "https://s3-media2.fl.yelpcdn.com/bphoto/b1gN1bfeS9AnCoPtvX6EvA/o.jpg"}], "region": {"center": {"longitude": -75.17120361328125, "latitude": 39.95378209544653}}, "total": 10825}