{"businesses": [{"coordinates": {"longitude": -75.1205402, "latitude": 39.9826256}, "categories": [{"alias": "comfortfood", "title": "Comfort Food"}, {"alias": "newamerican", "title": "American (New)"}, {"alias": "cocktailbars", "title": "Cocktail Bars"}], "location": {"display_address": ["2301 E Albert St", "Philadelphia, PA 19125"], "address3": "", "city": "Philadelphia", "state": "PA", "address2": "", "address1": "2301 E Albert St", "zip_code": "19125", "country": "US"}, "review_count": 92, "distance": 5378.620758322, "display_phone": "(215) 426-2665", "price": "$$", "rating": 4.5, "phone": "+12154262665", "id": "cook-and-shaker-philadelphia-2", "name": "Cook and Shaker", "transactions": [], "url": "https://www.yelp.com/biz/cook-and-shaker-philadelphia-2?adjust_creative=8_C4NSGbL05eUQksKleGYw&utm_campaign=yelp_api_v3&utm_medium=api_v3_business_search&utm_source=8_C4NSGbL05eUQksKleGYw", "is_closed": false, "image_url": "https://s3-media1.fl.yelpcdn.com/bphoto/omKwNhOg34x4zqpACyTfCQ/o.jpg"}, {"coordinates": {"longitude": -75.2223081694503, "latitude": 40.0028218856749}, "categories": [{"alias": "peruvian", "title": "Peruvian"}, {"alias": "chickenshop", "title": "Chicken Shop"}], "location": {"display_address": ["4510 W City Ave", "Philadelphia, PA 19131"], "address3": "", "city": "Philadelphia", "state": "PA", "address2": null, "address1": "4510 W City Ave", "zip_code": "19131", "country": "US"}, "review_count": 135, "distance": 6978.294579479999, "display_phone": "(215) 307-3658", "price": "$$", "rating": 4.5, "phone": "+12153073658", "id": "sardis-pollo-a-la-brasa-philadelphia", "name": "Sardi's Pollo a la Brasa", "transactions": [], "url": "https://www.yelp.com/biz/sardis-pollo-a-la-brasa-philadelphia?adjust_creative=8_C4NSGbL05eUQksKleGYw&utm_campaign=yelp_api_v3&utm_medium=api_v3_business_search&utm_source=8_C4NSGbL05eUQksKleGYw", "is_closed": false, "image_url": "https://s3-media2.fl.yelpcdn.com/bphoto/pkzvletJNa_BBxWgOTk0Xg/o.jpg"}, {"coordinates": {"longitude": -75.1923599, "latitude": 40.0079689}, "categories": [{"alias": "italian", "title": "Italian"}, {"alias": "pizza", "title": "Pizza"}], "location": {"display_address": ["4116 Ridge Ave", "Philadelphia, PA 19129"], "address3": "", "city": "Philadelphia", "state": "PA", "address2": "", "address1": "4116 Ridge Ave", "zip_code": "19129", "country": "US"}, "review_count": 471, "distance": 6280.06632708, "display_phone": "(215) 438-4848", "price": "$$", "rating": 4.0, "phone": "+12154384848", "id": "in-riva-philadelphia", "name": "In Riva", "transactions": [], "url": "https://www.yelp.com/biz/in-riva-philadelphia?adjust_creative=8_C4NSGbL05eUQksKleGYw&utm_campaign=yelp_api_v3&utm_medium=api_v3_business_search&utm_source=8_C4NSGbL05eUQksKleGYw", "is_closed": false, "image_url": "https://s3-media4.fl.yelpcdn.com/bphoto/p1VYpSyD7BnQF8DVcrcmIw/o.jpg"}, {"coordinates": {"longitude": -75.1462899, "latitude": 39.95067}, "categories": [{"alias": "newamerican", "title": "American (New)"}, {"alias": "gastropubs", "title": "Gastropubs"}, {"alias": "seafood", "title": "Seafood"}], "location": {"display_address": ["319 Market St", "Philadelphia, PA 19106"], "address3": "", "city": "Philadelphia", "state": "PA", "address2": "", "address1": "319 Market St", "zip_code": "19106", "country": "US"}, "review_count": 80, "distance": 2162.929463636, "display_phone": "(215) 372-7581", "price": "$$", "rating": 4.0, "phone": "+12153727581", "id": "common-wealth-old-city-philadelphia", "name": "Common Wealth Old City", "transactions": ["pickup"], "url": "https://www.yelp.com/biz/common-wealth-old-city-philadelphia?adjust_creative=8_C4NSGbL05eUQksKleGYw&utm_campaign=yelp_api_v3&utm_medium=api_v3_business_search&utm_source=8_C4NSGbL05eUQksKleGYw", "is_closed": false, "image_url": "https://s3-media4.fl.yelpcdn.com/bphoto/h2ibfZdCe510kU6nruQ6xQ/o.jpg"}, {"coordinates": {"longitude": -75.13638, "latitude": 39.96918}, "categories": [{"alias": "venezuelan", "title": "Venezuelan"}], "location": {"display_address": ["1204 N Front St", "Fishtown", "Philadelphia, PA 19122"], "address3": "", "city": "Philadelphia", "state": "PA", "address2": "Fishtown", "address1": "1204 N Front St", "zip_code": "19122", "country": "US"}, "review_count": 45, "distance": 3430.3162567, "display_phone": "(215) 982-1150", "price": "$$", "rating": 4.5, "phone": "+12159821150", "id": "tartareperia-18-64-philadelphia-2", "name": "TartAreperia 18.64", "transactions": [], "url": "https://www.yelp.com/biz/tartareperia-18-64-philadelphia-2?adjust_creative=8_C4NSGbL05eUQksKleGYw&utm_campaign=yelp_api_v3&utm_medium=api_v3_business_search&utm_source=8_C4NSGbL05eUQksKleGYw", "is_closed": false, "image_url": "https://s3-media3.fl.yelpcdn.com/bphoto/d6MuCd1s9ff48OvVh-pnIw/o.jpg"}, {"coordinates": {"longitude": -75.16176, "latitude": 39.94981}, "categories": [{"alias": "mexican", "title": "Mexican"}, {"alias": "breakfast_brunch", "title": "Breakfast & Brunch"}], "location": {"display_address": ["121 S 13th St", "Philadelphia, PA 19107"], "address3": "", "city": "Philadelphia", "state": "PA", "address2": "", "address1": "121 S 13th St", "zip_code": "19107", "country": "US"}, "review_count": 2095, "distance": 923.9092675602, "display_phone": "(215) 928-9800", "price": "$$", "rating": 4.0, "phone": "+12159289800", "id": "el-vez-philadelphia", "name": "El Vez", "transactions": ["delivery"], "url": "https://www.yelp.com/biz/el-vez-philadelphia?adjust_creative=8_C4NSGbL05eUQksKleGYw&utm_campaign=yelp_api_v3&utm_medium=api_v3_business_search&utm_source=8_C4NSGbL05eUQksKleGYw", "is_closed": false, "image_url": "https://s3-media1.fl.yelpcdn.com/bphoto/aYu_j7USJUNkbQxfVVPwtQ/o.jpg"}, {"coordinates": {"longitude": -75.173767791736, "latitude": 39.951416594943}, "categories": [{"alias": "newamerican", "title": "American (New)"}, {"alias": "burgers", "title": "Burgers"}, {"alias": "whiskeybars", "title": "Whiskey Bars"}], "location": {"display_address": ["118 S 20th St", "Philadelphia, PA 19103"], "address3": "", "city": "Philadelphia", "state": "PA", "address2": "", "address1": "118 S 20th St", "zip_code": "19103", "country": "US"}, "review_count": 1306, "distance": 341.9194590762, "display_phone": "(215) 665-1088", "price": "$$", "rating": 4.0, "phone": "+12156651088", "id": "village-whiskey-philadelphia", "name": "Village Whiskey", "transactions": ["delivery"], "url": "https://www.yelp.com/biz/village-whiskey-philadelphia?adjust_creative=8_C4NSGbL05eUQksKleGYw&utm_campaign=yelp_api_v3&utm_medium=api_v3_business_search&utm_source=8_C4NSGbL05eUQksKleGYw", "is_closed": false, "image_url": "https://s3-media3.fl.yelpcdn.com/bphoto/KJWJb9bvlHvu4HjPisJgsw/o.jpg"}, {"coordinates": {"longitude": -75.1699827, "latitude": 39.957207}, "categories": [{"alias": "tradamerican", "title": "American (Traditional)"}, {"alias": "steak", "title": "Steakhouses"}], "location": {"display_address": ["1850 Benjamin Franklin Pkwy", "Philadelphia, PA 19103"], "address3": "", "city": "Philadelphia", "state": "PA", "address2": "", "address1": "1850 Benjamin Franklin Pkwy", "zip_code": "19103", "country": "US"}, "review_count": 198, "distance": 394.86365514339997, "display_phone": "(215) 963-2788", "price": "$$$$", "rating": 4.0, "phone": "+12159632788", "id": "urban-farmer-philadelphia-philadelphia-2", "name": "Urban Farmer Philadelphia", "transactions": [], "url": "https://www.yelp.com/biz/urban-farmer-philadelphia-philadelphia-2?adjust_creative=8_C4NSGbL05eUQksKleGYw&utm_campaign=yelp_api_v3&utm_medium=api_v3_business_search&utm_source=8_C4NSGbL05eUQksKleGYw", "is_closed": false, "image_url": "https://s3-media1.fl.yelpcdn.com/bphoto/lf9PSMjP_mKlgpcOKhzJ9g/o.jpg"}, {"coordinates": {"longitude": -75.1661240918427, "latitude": 39.9671254923543}, "categories": [{"alias": "breweries", "title": "Breweries"}, {"alias": "gastropubs", "title": "Gastropubs"}], "location": {"display_address": ["1720 Fairmount Ave", "Philadelphia, PA 19130"], "address3": "", "city": "Philadelphia", "state": "PA", "address2": "", "address1": "1720 Fairmount Ave", "zip_code": "19130", "country": "US"}, "review_count": 129, "distance": 1545.67048625, "display_phone": "(215) 765-2274", "price": "$$", "rating": 4.0, "phone": "+12157652274", "id": "bar-hygge-philadelphia", "name": "Bar Hygge", "transactions": [], "url": "https://www.yelp.com/biz/bar-hygge-philadelphia?adjust_creative=8_C4NSGbL05eUQksKleGYw&utm_campaign=yelp_api_v3&utm_medium=api_v3_business_search&utm_source=8_C4NSGbL05eUQksKleGYw", "is_closed": false, "image_url": "https://s3-media2.fl.yelpcdn.com/bphoto/cE_LdoesyEp5xuJJfbsArg/o.jpg"}, {"coordinates": {"longitude": -75.1696829999822, "latitude": 39.9557413707232}, "categories": [{"alias": "newamerican", "title": "American (New)"}, {"alias": "bars", "title": "Bars"}], "location": {"display_address": ["2 Logan Square", "Philadelphia, PA 19103"], "address3": "", "city": "Philadelphia", "state": "PA", "address2": "", "address1": "2 Logan Square", "zip_code": "19103", "country": "US"}, "review_count": 252, "distance": 253.53944694999998, "display_phone": "(215) 587-9040", "price": "$$", "rating": 4.0, "phone": "+12155879040", "id": "city-tap-house-logan-square-philadelphia", "name": "City Tap House - Logan Square", "transactions": [], "url": "https://www.yelp.com/biz/city-tap-house-logan-square-philadelphia?adjust_creative=8_C4NSGbL05eUQksKleGYw&utm_campaign=yelp_api_v3&utm_medium=api_v3_business_search&utm_source=8_C4NSGbL05eUQksKleGYw", "is_closed": false, "image_url": "https://s3-media2.fl.yelpcdn.com/bphoto/cPalyFT-CRtgTOvNM6Uqug/o.jpg"}, {"coordinates": {"longitude": -75.1347399, "latitude": 39.97052}, "categories": [{"alias": "newamerican", "title": "American (New)"}, {"alias": "tradamerican", "title": "American (Traditional)"}], "location": {"display_address": ["1310 Frankford Ave", "Philadelphia, PA 19125"], "address3": "", "city": "Philadelphia", "state": "PA", "address2": "", "address1": "1310 Frankford Ave", "zip_code": "19125", "country": "US"}, "review_count": 151, "distance": 3624.9160401599997, "display_phone": "(267) 314-5086", "price": "$$", "rating": 4.0, "phone": "+12673145086", "id": "kensington-quarters-philadelphia", "name": "Kensington Quarters", "transactions": [], "url": "https://www.yelp.com/biz/kensington-quarters-philadelphia?adjust_creative=8_C4NSGbL05eUQksKleGYw&utm_campaign=yelp_api_v3&utm_medium=api_v3_business_search&utm_source=8_C4NSGbL05eUQksKleGYw", "is_closed": false, "image_url": "https://s3-media1.fl.yelpcdn.com/bphoto/4_0QMzn_Y64yKePCdeLFWQ/o.jpg"}, {"coordinates": {"longitude": -75.1445580715146, "latitude": 39.9499737240176}, "categories": [{"alias": "pubs", "title": "Pubs"}, {"alias": "gastropubs", "title": "Gastropubs"}], "location": {"display_address": ["216 Market St", "Philadelphia, PA 19106"], "address3": "", "city": "Philadelphia", "state": "PA", "address2": "", "address1": "216 Market St", "zip_code": "19106", "country": "US"}, "review_count": 55, "distance": 2310.074316648, "display_phone": "(215) 923-1400", "price": "$$", "rating": 4.5, "phone": "+12159231400", "id": "silence-dogoods-tavern-philadelphia", "name": "Silence Dogood's Tavern", "transactions": [], "url": "https://www.yelp.com/biz/silence-dogoods-tavern-philadelphia?adjust_creative=8_C4NSGbL05eUQksKleGYw&utm_campaign=yelp_api_v3&utm_medium=api_v3_business_search&utm_source=8_C4NSGbL05eUQksKleGYw", "is_closed": false, "image_url": "https://s3-media2.fl.yelpcdn.com/bphoto/yZ5IARQIaNHgPoCqA7tUFg/o.jpg"}, {"coordinates": {"longitude": -75.1931838989258, "latitude": 40.0626754760742}, "categories": [{"alias": "newamerican", "title": "American (New)"}], "location": {"display_address": ["7402 Germantown Ave", "Philadelphia, PA 19119"], "address3": "", "city": "Philadelphia", "state": "PA", "address2": "", "address1": "7402 Germantown Ave", "zip_code": "19119", "country": "US"}, "review_count": 53, "distance": 12255.40412516, "display_phone": "(267) 335-5041", "price": "$$$", "rating": 4.5, "phone": "+12673355041", "id": "jansen-philadelphia", "name": "Jansen", "transactions": [], "url": "https://www.yelp.com/biz/jansen-philadelphia?adjust_creative=8_C4NSGbL05eUQksKleGYw&utm_campaign=yelp_api_v3&utm_medium=api_v3_business_search&utm_source=8_C4NSGbL05eUQksKleGYw", "is_closed": false, "image_url": "https://s3-media2.fl.yelpcdn.com/bphoto/jp4HkMfYV7zEqENb46doCA/o.jpg"}, {"coordinates": {"longitude": -75.1621570259495, "latitude": 39.9495313759}, "categories": [{"alias": "asianfusion", "title": "Asian Fusion"}, {"alias": "chinese", "title": "Chinese"}], "location": {"display_address": ["124 S 13th St", "Philadelphia, PA 19107"], "address3": "", "city": "Philadelphia", "state": "PA", "address2": "", "address1": "124 S 13th St", "zip_code": "19107", "country": "US"}, "review_count": 1158, "distance": 904.5334094159999, "display_phone": "(215) 732-3501", "price": "$$", "rating": 4.0, "phone": "+12157323501", "id": "sampan-philadelphia-3", "name": "Sampan", "transactions": [], "url": "https://www.yelp.com/biz/sampan-philadelphia-3?adjust_creative=8_C4NSGbL05eUQksKleGYw&utm_campaign=yelp_api_v3&utm_medium=api_v3_business_search&utm_source=8_C4NSGbL05eUQksKleGYw", "is_closed": false, "image_url": "https://s3-media1.fl.yelpcdn.com/bphoto/b5omT52VIi_uOuCoKj1Ngg/o.jpg"}, {"coordinates": {"longitude": -75.18015, "latitude": 39.97435}, "categories": [{"alias": "tradamerican", "title": "American (Traditional)"}, {"alias": "cocktailbars", "title": "Cocktail Bars"}], "location": {"display_address": ["2637 West Girard Ave", "Philadelphia, PA 19130"], "address3": null, "city": "Philadelphia", "state": "PA", "address2": "", "address1": "2637 West Girard Ave", "zip_code": "19130", "country": "US"}, "review_count": 35, "distance": 2411.7725345979998, "display_phone": "(215) 644-8595", "price": "$$", "rating": 4.5, "phone": "+12156448595", "id": "2637brew-philadelphia", "name": "2637brew", "transactions": [], "url": "https://www.yelp.com/biz/2637brew-philadelphia?adjust_creative=8_C4NSGbL05eUQksKleGYw&utm_campaign=yelp_api_v3&utm_medium=api_v3_business_search&utm_source=8_C4NSGbL05eUQksKleGYw", "is_closed": false, "image_url": "https://s3-media3.fl.yelpcdn.com/bphoto/Nvn-itrzLZv4gr5mWldLfw/o.jpg"}, {"coordinates": {"longitude": -75.1408615112305, "latitude": 39.9646644592285}, "categories": [{"alias": "newamerican", "title": "American (New)"}, {"alias": "bars", "title": "Bars"}, {"alias": "jazzandblues", "title": "Jazz & Blues"}], "location": {"display_address": ["914 N 2nd St", "Philadelphia, PA 19123"], "address3": "", "city": "Philadelphia", "state": "PA", "address2": "", "address1": "914 N 2nd St", "zip_code": "19123", "country": "US"}, "review_count": 163, "distance": 2867.402759906, "display_phone": "(215) 627-7500", "price": "$$", "rating": 4.0, "phone": "+12156277500", "id": "heritage-philadelphia", "name": "Heritage", "transactions": [], "url": "https://www.yelp.com/biz/heritage-philadelphia?adjust_creative=8_C4NSGbL05eUQksKleGYw&utm_campaign=yelp_api_v3&utm_medium=api_v3_business_search&utm_source=8_C4NSGbL05eUQksKleGYw", "is_closed": false, "image_url": "https://s3-media1.fl.yelpcdn.com/bphoto/ZYBDIggH0rJKlHQHJCwdMw/o.jpg"}, {"coordinates": {"longitude": -75.10653, "latitude": 39.9861}, "categories": [{"alias": "newamerican", "title": "American (New)"}, {"alias": "beerbar", "title": "Beer Bar"}, {"alias": "sandwiches", "title": "Sandwiches"}], "location": {"display_address": ["3133 Gaul St", "Philadelphia, PA 19134"], "address3": null, "city": "Philadelphia", "state": "PA", "address2": null, "address1": "3133 Gaul St", "zip_code": "19134", "country": "US"}, "review_count": 30, "distance": 6579.8590103, "display_phone": "(215) 423-7878", "price": "$", "rating": 5.0, "phone": "+12154237878", "id": "gaul-and-co-malthouse-philadelphia-2", "name": "Gaul & Co. Malthouse", "transactions": [], "url": "https://www.yelp.com/biz/gaul-and-co-malthouse-philadelphia-2?adjust_creative=8_C4NSGbL05eUQksKleGYw&utm_campaign=yelp_api_v3&utm_medium=api_v3_business_search&utm_source=8_C4NSGbL05eUQksKleGYw", "is_closed": false, "image_url": "https://s3-media2.fl.yelpcdn.com/bphoto/JUEBLTAwvQi3hqPyzPVA4A/o.jpg"}, {"coordinates": {"longitude": -75.15929, "latitude": 39.96131}, "categories": [{"alias": "gastropubs", "title": "Gastropubs"}], "location": {"display_address": ["501 N 13th St", "Philadelphia, PA 19123"], "address3": "", "city": "Philadelphia", "state": "PA", "address2": "", "address1": "501 N 13th St", "zip_code": "19123", "country": "US"}, "review_count": 461, "distance": 1314.050893836, "display_phone": "(215) 238-1818", "price": "$$", "rating": 4.0, "phone": "+12152381818", "id": "prohibition-taproom-philadelphia", "name": "Prohibition Taproom", "transactions": [], "url": "https://www.yelp.com/biz/prohibition-taproom-philadelphia?adjust_creative=8_C4NSGbL05eUQksKleGYw&utm_campaign=yelp_api_v3&utm_medium=api_v3_business_search&utm_source=8_C4NSGbL05eUQksKleGYw", "is_closed": false, "image_url": "https://s3-media2.fl.yelpcdn.com/bphoto/p3eXvDymUlJXRWI9qyx9lw/o.jpg"}, {"coordinates": {"longitude": -75.17852, "latitude": 39.96852}, "categories": [{"alias": "moroccan", "title": "Moroccan"}], "location": {"display_address": ["2501 Meredith St", "Philadelphia, PA 19130"], "address3": "", "city": "Philadelphia", "state": "PA", "address2": "", "address1": "2501 Meredith St", "zip_code": "19130", "country": "US"}, "review_count": 229, "distance": 1753.761849732, "display_phone": "(215) 978-8440", "price": "$$", "rating": 4.0, "phone": "+12159788440", "id": "figs-philadelphia", "name": "Figs", "transactions": [], "url": "https://www.yelp.com/biz/figs-philadelphia?adjust_creative=8_C4NSGbL05eUQksKleGYw&utm_campaign=yelp_api_v3&utm_medium=api_v3_business_search&utm_source=8_C4NSGbL05eUQksKleGYw", "is_closed": false, "image_url": "https://s3-media2.fl.yelpcdn.com/bphoto/E8_2GQWDpx-PuHw-0-PoyQ/o.jpg"}, {"coordinates": {"longitude": -75.1900177001953, "latitude": 39.9545211791992}, "categories": [{"alias": "newamerican", "title": "American (New)"}], "location": {"display_address": ["20 S 33rd St", "Philadelphia, PA 19104"], "address3": "", "city": "Philadelphia", "state": "PA", "address2": null, "address1": "20 S 33rd St", "zip_code": "19104", "country": "US"}, "review_count": 12, "distance": 1605.772415088, "display_phone": "(215) 398-1874", "price": "$$", "rating": 4.5, "phone": "+12153981874", "id": "co-op-philadelphia-2", "name": "CO-OP", "transactions": [], "url": "https://www.yelp.com/biz/co-op-philadelphia-2?adjust_creative=8_C4NSGbL05eUQksKleGYw&utm_campaign=yelp_api_v3&utm_medium=api_v3_business_search&utm_source=8_C4NSGbL05eUQksKleGYw", "is_closed": false, "image_url": "https://s3-media2.fl.yelpcdn.com/bphoto/K2XuyqJhrjAycB9mtttuaw/o.jpg"}, {"coordinates": {"longitude": -75.12735, "latitude": 39.97151}, "categories": [{"alias": "gastropubs", "title": "Gastropubs"}], "location": {"display_address": ["541 E Girard Ave", "Philadelphia, PA 19125"], "address3": "", "city": "Philadelphia", "state": "PA", "address2": "", "address1": "541 E Girard Ave", "zip_code": "19125", "country": "US"}, "review_count": 481, "distance": 4224.277225538, "display_phone": "(215) 739-1700", "price": "$$", "rating": 4.0, "phone": "+12157391700", "id": "kraftwork-philadelphia", "name": "Kraftwork", "transactions": [], "url": "https://www.yelp.com/biz/kraftwork-philadelphia?adjust_creative=8_C4NSGbL05eUQksKleGYw&utm_campaign=yelp_api_v3&utm_medium=api_v3_business_search&utm_source=8_C4NSGbL05eUQksKleGYw", "is_closed": false, "image_url": "https://s3-media3.fl.yelpcdn.com/bphoto/pB4rEgn_52gmhn692E0s6w/o.jpg"}, {"coordinates": {"longitude": -75.1683187, "latitude": 39.9506491}, "categories": [{"alias": "modern_european", "title": "Modern European"}], "location": {"display_address": ["1623 Sansom St", "Philadelphia, PA 19103"], "address3": "", "city": "Philadelphia", "state": "PA", "address2": "", "address1": "1623 Sansom St", "zip_code": "19103", "country": "US"}, "review_count": 360, "distance": 426.2693136942, "display_phone": "(215) 867-0088", "price": "$$$", "rating": 4.5, "phone": "+12158670088", "id": "abe-fisher-philadelphia", "name": "Abe Fisher", "transactions": [], "url": "https://www.yelp.com/biz/abe-fisher-philadelphia?adjust_creative=8_C4NSGbL05eUQksKleGYw&utm_campaign=yelp_api_v3&utm_medium=api_v3_business_search&utm_source=8_C4NSGbL05eUQksKleGYw", "is_closed": false, "image_url": "https://s3-media3.fl.yelpcdn.com/bphoto/tcLh6uZ1r0RaRgg6DJ9acg/o.jpg"}, {"coordinates": {"longitude": -75.168709, "latitude": 39.918041}, "categories": [{"alias": "newamerican", "title": "American (New)"}, {"alias": "pubs", "title": "Pubs"}], "location": {"display_address": ["2535 S 13th St", "Philadelphia, PA 19148"], "address3": "", "city": "Philadelphia", "state": "PA", "address2": "", "address1": "2535 S 13th St", "zip_code": "19148", "country": "US"}, "review_count": 85, "distance": 3979.779372576, "display_phone": "(267) 457-3682", "price": "$$", "rating": 4.5, "phone": "+12674573682", "id": "southhouse-philadelphia", "name": "SouthHouse", "transactions": ["pickup"], "url": "https://www.yelp.com/biz/southhouse-philadelphia?adjust_creative=8_C4NSGbL05eUQksKleGYw&utm_campaign=yelp_api_v3&utm_medium=api_v3_business_search&utm_source=8_C4NSGbL05eUQksKleGYw", "is_closed": false, "image_url": "https://s3-media2.fl.yelpcdn.com/bphoto/z4cgjDTD0I7yfVm0kgW0ag/o.jpg"}, {"coordinates": {"longitude": -75.1618928090843, "latitude": 39.9477864380196}, "categories": [{"alias": "italian", "title": "Italian"}], "location": {"display_address": ["1234 Locust St", "Philadelphia, PA 19107"], "address3": "", "city": "Philadelphia", "state": "PA", "address2": "", "address1": "1234 Locust St", "zip_code": "19107", "country": "US"}, "review_count": 503, "distance": 1036.131877094, "display_phone": "(215) 546-2100", "price": "$$", "rating": 4.0, "phone": "+12155462100", "id": "little-nonnas-philadelphia", "name": "Little Nonna's", "transactions": ["pickup"], "url": "https://www.yelp.com/biz/little-nonnas-philadelphia?adjust_creative=8_C4NSGbL05eUQksKleGYw&utm_campaign=yelp_api_v3&utm_medium=api_v3_business_search&utm_source=8_C4NSGbL05eUQksKleGYw", "is_closed": false, "image_url": "https://s3-media4.fl.yelpcdn.com/bphoto/_mGOxXCktGyRHHb651f3yQ/o.jpg"}, {"coordinates": {"longitude": -75.2426611074097, "latitude": 39.876134547673}, "categories": [{"alias": "seafood", "title": "Seafood"}, {"alias": "breakfast_brunch", "title": "Breakfast & Brunch"}, {"alias": "gluten_free", "title": "Gluten-Free"}], "location": {"display_address": ["8500 Essington Ave", "Philadelphia, PA 19153"], "address3": "", "city": "Philadelphia", "state": "PA", "address2": "", "address1": "8500 Essington Ave", "zip_code": "19153", "country": "US"}, "review_count": 201, "distance": 10568.2300054, "display_phone": "(267) 295-9300", "price": "$$", "rating": 4.0, "phone": "+12672959300", "id": "legal-sea-foods-philadelphia-5", "name": "Legal Sea Foods", "transactions": [], "url": "https://www.yelp.com/biz/legal-sea-foods-philadelphia-5?adjust_creative=8_C4NSGbL05eUQksKleGYw&utm_campaign=yelp_api_v3&utm_medium=api_v3_business_search&utm_source=8_C4NSGbL05eUQksKleGYw", "is_closed": false, "image_url": "https://s3-media3.fl.yelpcdn.com/bphoto/PCBEl5Dy3RPwHCvqdPCiNQ/o.jpg"}, {"coordinates": {"longitude": -75.1435959711671, "latitude": 39.9483759951684}, "categories": [{"alias": "newamerican", "title": "American (New)"}, {"alias": "bars", "title": "Bars"}, {"alias": "breweries", "title": "Breweries"}], "location": {"display_address": ["117 Chestnut St", "Philadelphia, PA 19106"], "address3": "", "city": "Philadelphia", "state": "PA", "address2": "", "address1": "117 Chestnut St", "zip_code": "19106", "country": "US"}, "review_count": 290, "distance": 2429.111402824, "display_phone": "(267) 314-5770", "price": "$$", "rating": 4.0, "phone": "+12673145770", "id": "2nd-story-brewing-philadelphia", "name": "2nd Story Brewing", "transactions": [], "url": "https://www.yelp.com/biz/2nd-story-brewing-philadelphia?adjust_creative=8_C4NSGbL05eUQksKleGYw&utm_campaign=yelp_api_v3&utm_medium=api_v3_business_search&utm_source=8_C4NSGbL05eUQksKleGYw", "is_closed": false, "image_url": "https://s3-media1.fl.yelpcdn.com/bphoto/68uQlEaa0zTD57vD1kc3Qw/o.jpg"}, {"coordinates": {"longitude": -75.1611239, "latitude": 39.9449449}, "categories": [{"alias": "seafood", "title": "Seafood"}, {"alias": "bars", "title": "Bars"}], "location": {"display_address": ["1138 Pine St", "Philadelphia, PA 19107"], "address3": "", "city": "Philadelphia", "state": "PA", "address2": "", "address1": "1138 Pine St", "zip_code": "19107", "country": "US"}, "review_count": 84, "distance": 1301.006066598, "display_phone": "(267) 519-2850", "price": "$$", "rating": 4.0, "phone": "+12675192850", "id": "pinefish-philadelphia", "name": "Pinefish", "transactions": [], "url": "https://www.yelp.com/biz/pinefish-philadelphia?adjust_creative=8_C4NSGbL05eUQksKleGYw&utm_campaign=yelp_api_v3&utm_medium=api_v3_business_search&utm_source=8_C4NSGbL05eUQksKleGYw", "is_closed": false, "image_url": "https://s3-media2.fl.yelpcdn.com/bphoto/SHM2GKAmuALARC0AsFBdWw/o.jpg"}, {"coordinates": {"longitude": -75.1941820979118, "latitude": 40.0091071614405}, "categories": [{"alias": "chickenshop", "title": "Chicken Shop"}], "location": {"display_address": ["4213 Ridge Ave", "Philadelphia, PA 19129"], "address3": null, "city": "Philadelphia", "state": "PA", "address2": "", "address1": "4213 Ridge Ave", "zip_code": "19129", "country": "US"}, "review_count": 52, "distance": 6455.86901934, "display_phone": "(267) 335-3061", "price": "$$", "rating": 4.5, "phone": "+12673353061", "id": "foghorn-philadelphia", "name": "Foghorn", "transactions": [], "url": "https://www.yelp.com/biz/foghorn-philadelphia?adjust_creative=8_C4NSGbL05eUQksKleGYw&utm_campaign=yelp_api_v3&utm_medium=api_v3_business_search&utm_source=8_C4NSGbL05eUQksKleGYw", "is_closed": false, "image_url": "https://s3-media1.fl.yelpcdn.com/bphoto/ujhOSR9xEk6jJI3ju2eOAA/o.jpg"}, {"coordinates": {"longitude": -75.14104, "latitude": 39.96207}, "categories": [{"alias": "tradamerican", "title": "American (Traditional)"}, {"alias": "musicvenues", "title": "Music Venues"}, {"alias": "breakfast_brunch", "title": "Breakfast & Brunch"}], "location": {"display_address": ["705 N 2nd St", "Philadelphia, PA 19123"], "address3": null, "city": "Philadelphia", "state": "PA", "address2": null, "address1": "705 N 2nd St", "zip_code": "19123", "country": "US"}, "review_count": 190, "distance": 2731.4022645259997, "display_phone": "(215) 238-0660", "price": "$$", "rating": 4.0, "phone": "+12152380660", "id": "bourbon-and-branch-philadelphia", "name": "Bourbon & Branch", "transactions": ["delivery", "pickup"], "url": "https://www.yelp.com/biz/bourbon-and-branch-philadelphia?adjust_creative=8_C4NSGbL05eUQksKleGYw&utm_campaign=yelp_api_v3&utm_medium=api_v3_business_search&utm_source=8_C4NSGbL05eUQksKleGYw", "is_closed": false, "image_url": "https://s3-media1.fl.yelpcdn.com/bphoto/gcME7bsq-lz3XfKVnw9AiQ/o.jpg"}, {"coordinates": {"longitude": -75.145949, "latitude": 39.9495401}, "categories": [{"alias": "pubs", "title": "Pubs"}, {"alias": "tradamerican", "title": "American (Traditional)"}], "location": {"display_address": ["22 S 3rd St", "Philadelphia, PA 19106"], "address3": "", "city": "Philadelphia", "state": "PA", "address2": "", "address1": "22 S 3rd St", "zip_code": "19106", "country": "US"}, "review_count": 687, "distance": 2203.673929086, "display_phone": "(215) 701-4883", "price": "$$", "rating": 4.0, "phone": "+12157014883", "id": "national-mechanics-philadelphia", "name": "National Mechanics", "transactions": [], "url": "https://www.yelp.com/biz/national-mechanics-philadelphia?adjust_creative=8_C4NSGbL05eUQksKleGYw&utm_campaign=yelp_api_v3&utm_medium=api_v3_business_search&utm_source=8_C4NSGbL05eUQksKleGYw", "is_closed": false, "image_url": "https://s3-media3.fl.yelpcdn.com/bphoto/-72CxcbGWMEhkcWeOv9KYA/o.jpg"}, {"coordinates": {"longitude": -75.156727, "latitude": 39.955399}, "categories": [{"alias": "dimsum", "title": "Dim Sum"}, {"alias": "asianfusion", "title": "Asian Fusion"}, {"alias": "shanghainese", "title": "Shanghainese"}], "location": {"display_address": ["1020 Race St", "Philadelphia, PA 19107"], "address3": "", "city": "Philadelphia", "state": "PA", "address2": null, "address1": "1020 Race St", "zip_code": "19107", "country": "US"}, "review_count": 1253, "distance": 1246.6698236176, "display_phone": "(215) 873-0258", "price": "$", "rating": 4.0, "phone": "+12158730258", "id": "dim-sum-garden-philadelphia", "name": "Dim Sum Garden", "transactions": ["pickup"], "url": "https://www.yelp.com/biz/dim-sum-garden-philadelphia?adjust_creative=8_C4NSGbL05eUQksKleGYw&utm_campaign=yelp_api_v3&utm_medium=api_v3_business_search&utm_source=8_C4NSGbL05eUQksKleGYw", "is_closed": false, "image_url": "https://s3-media1.fl.yelpcdn.com/bphoto/bA-bXI_4GP-mFu6hovwotg/o.jpg"}, {"coordinates": {"longitude": -75.1682739257812, "latitude": 39.9477157592773}, "categories": [{"alias": "pubs", "title": "Pubs"}, {"alias": "belgian", "title": "Belgian"}, {"alias": "gastropubs", "title": "Gastropubs"}], "location": {"display_address": ["264 S 16th St", "Philadelphia, PA 19102"], "address3": "", "city": "Philadelphia", "state": "PA", "address2": "", "address1": "264 S 16th St", "zip_code": "19102", "country": "US"}, "review_count": 1814, "distance": 718.0654600419999, "display_phone": "(215) 545-7005", "price": "$$", "rating": 4.0, "phone": "+12155457005", "id": "monks-cafe-philadelphia-4", "name": "Monk's Cafe", "transactions": [], "url": "https://www.yelp.com/biz/monks-cafe-philadelphia-4?adjust_creative=8_C4NSGbL05eUQksKleGYw&utm_campaign=yelp_api_v3&utm_medium=api_v3_business_search&utm_source=8_C4NSGbL05eUQksKleGYw", "is_closed": false, "image_url": "https://s3-media4.fl.yelpcdn.com/bphoto/LZhwWXyvQ2PfNlJlJ5vowQ/o.jpg"}, {"coordinates": {"longitude": -75.1604137, "latitude": 39.9497992}, "categories": [{"alias": "newamerican", "title": "American (New)"}], "location": {"display_address": ["114 S 12th St", "Philadelphia, PA 19107"], "address3": "", "city": "Philadelphia", "state": "PA", "address2": "", "address1": "114 S 12th St", "zip_code": "19107", "country": "US"}, "review_count": 279, "distance": 1020.643267066, "display_phone": "(267) 639-5606", "price": "$$", "rating": 4.0, "phone": "+12676395606", "id": "pennsylvania-6-philadelphia", "name": "Pennsylvania 6", "transactions": [], "url": "https://www.yelp.com/biz/pennsylvania-6-philadelphia?adjust_creative=8_C4NSGbL05eUQksKleGYw&utm_campaign=yelp_api_v3&utm_medium=api_v3_business_search&utm_source=8_C4NSGbL05eUQksKleGYw", "is_closed": false, "image_url": "https://s3-media2.fl.yelpcdn.com/bphoto/H2x15TR7dxwQ3loRK2p9vQ/o.jpg"}, {"coordinates": {"longitude": -75.146110534668, "latitude": 39.9499549865723}, "categories": [{"alias": "newamerican", "title": "American (New)"}], "location": {"display_address": ["306 Market St", "Philadelphia, PA 19106"], "address3": "", "city": "Philadelphia", "state": "PA", "address2": "", "address1": "306 Market St", "zip_code": "19106", "country": "US"}, "review_count": 440, "distance": 2172.644727348, "display_phone": "(215) 625-9425", "price": "$$$", "rating": 4.0, "phone": "+12156259425", "id": "fork-philadelphia", "name": "Fork", "transactions": [], "url": "https://www.yelp.com/biz/fork-philadelphia?adjust_creative=8_C4NSGbL05eUQksKleGYw&utm_campaign=yelp_api_v3&utm_medium=api_v3_business_search&utm_source=8_C4NSGbL05eUQksKleGYw", "is_closed": false, "image_url": "https://s3-media4.fl.yelpcdn.com/bphoto/qoJTeFO8fIrl75Soy9347Q/o.jpg"}, {"coordinates": {"longitude": -75.1584718343968, "latitude": 39.9577723661798}, "categories": [{"alias": "tradamerican", "title": "American (Traditional)"}, {"alias": "beerbar", "title": "Beer Bar"}, {"alias": "sandwiches", "title": "Sandwiches"}], "location": {"display_address": ["315 N 12th St", "Philadelphia, PA 19107"], "address3": "", "city": "Philadelphia", "state": "PA", "address2": "", "address1": "315 N 12th St", "zip_code": "19107", "country": "US"}, "review_count": 126, "distance": 1172.5277873119999, "display_phone": "(215) 923-1596", "price": "$$", "rating": 4.0, "phone": "+12159231596", "id": "brick-and-mortar-philadelphia", "name": "Brick and Mortar", "transactions": [], "url": "https://www.yelp.com/biz/brick-and-mortar-philadelphia?adjust_creative=8_C4NSGbL05eUQksKleGYw&utm_campaign=yelp_api_v3&utm_medium=api_v3_business_search&utm_source=8_C4NSGbL05eUQksKleGYw", "is_closed": false, "image_url": "https://s3-media1.fl.yelpcdn.com/bphoto/p22XceSPmw3GUBC-gRi_hw/o.jpg"}, {"coordinates": {"longitude": -75.1755436, "latitude": 39.8965991}, "categories": [{"alias": "tradamerican", "title": "American (Traditional)"}, {"alias": "newamerican", "title": "American (New)"}, {"alias": "bbq", "title": "Barbeque"}], "location": {"display_address": ["4503 S Broad St", "Philadelphia, PA 19112"], "address3": "", "city": "Philadelphia", "state": "PA", "address2": "", "address1": "4503 S Broad St", "zip_code": "19112", "country": "US"}, "review_count": 135, "distance": 6365.58182666, "display_phone": "(215) 282-3184", "price": "$$", "rating": 3.5, "phone": "+12152823184", "id": "lo-spiedo-philadelphia", "name": "Lo Spiedo", "transactions": [], "url": "https://www.yelp.com/biz/lo-spiedo-philadelphia?adjust_creative=8_C4NSGbL05eUQksKleGYw&utm_campaign=yelp_api_v3&utm_medium=api_v3_business_search&utm_source=8_C4NSGbL05eUQksKleGYw", "is_closed": false, "image_url": "https://s3-media4.fl.yelpcdn.com/bphoto/CDzt90fZd8d0WdjlWK0ZYQ/o.jpg"}, {"coordinates": {"longitude": -75.2255360668821, "latitude": 40.0263035760381}, "categories": [{"alias": "bars", "title": "Bars"}, {"alias": "burgers", "title": "Burgers"}, {"alias": "hotdog", "title": "Hot Dogs"}], "location": {"display_address": ["4421 Main St", "Philadelphia, PA 19127"], "address3": "", "city": "Philadelphia", "state": "PA", "address2": "", "address1": "4421 Main St", "zip_code": "19127", "country": "US"}, "review_count": 303, "distance": 9297.853058616, "display_phone": "(215) 509-6005", "price": "$$", "rating": 4.5, "phone": "+12155096005", "id": "luckys-last-chance-philadelphia-2", "name": "Lucky's Last Chance", "transactions": [], "url": "https://www.yelp.com/biz/luckys-last-chance-philadelphia-2?adjust_creative=8_C4NSGbL05eUQksKleGYw&utm_campaign=yelp_api_v3&utm_medium=api_v3_business_search&utm_source=8_C4NSGbL05eUQksKleGYw", "is_closed": false, "image_url": "https://s3-media2.fl.yelpcdn.com/bphoto/_r7maZKbzwHavRJSKU2dTg/o.jpg"}, {"coordinates": {"longitude": -75.1713714599609, "latitude": 39.9196243286133}, "categories": [{"alias": "italian", "title": "Italian"}], "location": {"display_address": ["1415 W Porter St", "Philadelphia, PA 19145"], "address3": "", "city": "Philadelphia", "state": "PA", "address2": null, "address1": "1415 W Porter St", "zip_code": "19145", "country": "US"}, "review_count": 247, "distance": 3797.66661911, "display_phone": "(215) 389-4252", "price": "$$", "rating": 4.5, "phone": "+12153894252", "id": "l-angolo-ristorante-philadelphia-3", "name": "L'Angolo Ristorante", "transactions": [], "url": "https://www.yelp.com/biz/l-angolo-ristorante-philadelphia-3?adjust_creative=8_C4NSGbL05eUQksKleGYw&utm_campaign=yelp_api_v3&utm_medium=api_v3_business_search&utm_source=8_C4NSGbL05eUQksKleGYw", "is_closed": false, "image_url": "https://s3-media1.fl.yelpcdn.com/bphoto/n94E_yPg2nk9BUb324K9Tw/o.jpg"}, {"coordinates": {"longitude": -75.1495233178139, "latitude": 39.9420169740915}, "categories": [{"alias": "moroccan", "title": "Moroccan"}, {"alias": "mediterranean", "title": "Mediterranean"}], "location": {"display_address": ["517 S Leithgow St", "Philadelphia, PA 19147"], "address3": "", "city": "Philadelphia", "state": "PA", "address2": "", "address1": "517 S Leithgow St", "zip_code": "19147", "country": "US"}, "review_count": 418, "distance": 2266.970719692, "display_phone": "(215) 925-5929", "price": "$$", "rating": 4.5, "phone": "+12159255929", "id": "marrakesh-philadelphia", "name": "Marrakesh", "transactions": [], "url": "https://www.yelp.com/biz/marrakesh-philadelphia?adjust_creative=8_C4NSGbL05eUQksKleGYw&utm_campaign=yelp_api_v3&utm_medium=api_v3_business_search&utm_source=8_C4NSGbL05eUQksKleGYw", "is_closed": false, "image_url": "https://s3-media1.fl.yelpcdn.com/bphoto/i00t9RXBbWec_8DVgKm1Aw/o.jpg"}, {"coordinates": {"longitude": -75.14068, "latitude": 39.96563}, "categories": [{"alias": "seafood", "title": "Seafood"}, {"alias": "hawaiian", "title": "Hawaiian"}], "location": {"display_address": ["958 N 2nd St", "Philadelphia, PA 19123"], "address3": "", "city": "Philadelphia", "state": "PA", "address2": "", "address1": "958 N 2nd St", "zip_code": "19123", "country": "US"}, "review_count": 140, "distance": 2916.436774762, "display_phone": "(267) 319-9943", "price": "$$", "rating": 4.0, "phone": "+12673199943", "id": "poke-bowl-philadelphia-3", "name": "Poke Bowl", "transactions": [], "url": "https://www.yelp.com/biz/poke-bowl-philadelphia-3?adjust_creative=8_C4NSGbL05eUQksKleGYw&utm_campaign=yelp_api_v3&utm_medium=api_v3_business_search&utm_source=8_C4NSGbL05eUQksKleGYw", "is_closed": false, "image_url": "https://s3-media2.fl.yelpcdn.com/bphoto/7_XfXreBcEGsHs7IGzQpqA/o.jpg"}, {"coordinates": {"longitude": -75.1891877264587, "latitude": 39.9536479550674}, "categories": [{"alias": "pizza", "title": "Pizza"}, {"alias": "wine_bars", "title": "Wine Bars"}], "location": {"display_address": ["3200 Chestnut St", "Philadelphia, PA 19104"], "address3": "", "city": "Philadelphia", "state": "PA", "address2": "", "address1": "3200 Chestnut St", "zip_code": "19104", "country": "US"}, "review_count": 211, "distance": 1532.860461718, "display_phone": "(215) 823-6897", "price": "$$", "rating": 4.0, "phone": "+12158236897", "id": "zavino-philadelphia-3", "name": "Zavino", "transactions": [], "url": "https://www.yelp.com/biz/zavino-philadelphia-3?adjust_creative=8_C4NSGbL05eUQksKleGYw&utm_campaign=yelp_api_v3&utm_medium=api_v3_business_search&utm_source=8_C4NSGbL05eUQksKleGYw", "is_closed": false, "image_url": "https://s3-media2.fl.yelpcdn.com/bphoto/4AReKeXeySBIH9YHaNxUbQ/o.jpg"}, {"coordinates": {"longitude": -75.167594909668, "latitude": 39.9502487182617}, "categories": [{"alias": "chinese", "title": "Chinese"}, {"alias": "taiwanese", "title": "Taiwanese"}], "location": {"display_address": ["126 S 16th St", "Philadelphia, PA 19102"], "address3": "", "city": "Philadelphia", "state": "PA", "address2": "", "address1": "126 S 16th St", "zip_code": "19102", "country": "US"}, "review_count": 372, "distance": 498.90067863519994, "display_phone": "(215) 800-1165", "price": "$$", "rating": 4.0, "phone": "+12158001165", "id": "dan-dan-philadelphia-6", "name": "Dan Dan", "transactions": [], "url": "https://www.yelp.com/biz/dan-dan-philadelphia-6?adjust_creative=8_C4NSGbL05eUQksKleGYw&utm_campaign=yelp_api_v3&utm_medium=api_v3_business_search&utm_source=8_C4NSGbL05eUQksKleGYw", "is_closed": false, "image_url": "https://s3-media1.fl.yelpcdn.com/bphoto/IgkwYDVt885dv6slllQ9qA/o.jpg"}, {"coordinates": {"longitude": -75.1474416351138, "latitude": 39.9263481425429}, "categories": [{"alias": "newamerican", "title": "American (New)"}], "location": {"display_address": ["100 E Morris St", "Philadelphia, PA 19148"], "address3": null, "city": "Philadelphia", "state": "PA", "address2": "", "address1": "100 E Morris St", "zip_code": "19148", "country": "US"}, "review_count": 32, "distance": 3661.852163434, "display_phone": "(267) 324-5085", "price": "$$", "rating": 4.5, "phone": "+12673245085", "id": "south-helm-philadelphia", "name": "South Helm", "transactions": [], "url": "https://www.yelp.com/biz/south-helm-philadelphia?adjust_creative=8_C4NSGbL05eUQksKleGYw&utm_campaign=yelp_api_v3&utm_medium=api_v3_business_search&utm_source=8_C4NSGbL05eUQksKleGYw", "is_closed": false, "image_url": "https://s3-media2.fl.yelpcdn.com/bphoto/EKD6Ynt2njzvDBd0NX9FPQ/o.jpg"}, {"coordinates": {"longitude": -75.14513, "latitude": 39.94178}, "categories": [{"alias": "newamerican", "title": "American (New)"}, {"alias": "venues", "title": "Venues & Event Spaces"}, {"alias": "whiskeybars", "title": "Whiskey Bars"}], "location": {"display_address": ["509 S 2nd St", "Philadelphia, PA 19147"], "address3": "", "city": "Philadelphia", "state": "PA", "address2": "", "address1": "509 S 2nd St", "zip_code": "19147", "country": "US"}, "review_count": 340, "distance": 2587.36649546, "display_phone": "(215) 558-2471", "price": "$$", "rating": 4.0, "phone": "+12155582471", "id": "the-twisted-tail-philadelphia", "name": "The Twisted Tail", "transactions": ["delivery"], "url": "https://www.yelp.com/biz/the-twisted-tail-philadelphia?adjust_creative=8_C4NSGbL05eUQksKleGYw&utm_campaign=yelp_api_v3&utm_medium=api_v3_business_search&utm_source=8_C4NSGbL05eUQksKleGYw", "is_closed": false, "image_url": "https://s3-media2.fl.yelpcdn.com/bphoto/VxQX-PBmNH8NUSq-e_sqwQ/o.jpg"}, {"coordinates": {"longitude": -75.12809, "latitude": 39.98222}, "categories": [{"alias": "newamerican", "title": "American (New)"}, {"alias": "cocktailbars", "title": "Cocktail Bars"}], "location": {"display_address": ["2113 E York St", "Philadelphia, PA 19125"], "address3": "", "city": "Philadelphia", "state": "PA", "address2": "", "address1": "2113 E York St", "zip_code": "19125", "country": "US"}, "review_count": 67, "distance": 4847.088104056, "display_phone": "(215) 867-8881", "price": "$$", "rating": 4.0, "phone": "+12158678881", "id": "martha-philadelphia", "name": "Martha", "transactions": [], "url": "https://www.yelp.com/biz/martha-philadelphia?adjust_creative=8_C4NSGbL05eUQksKleGYw&utm_campaign=yelp_api_v3&utm_medium=api_v3_business_search&utm_source=8_C4NSGbL05eUQksKleGYw", "is_closed": false, "image_url": "https://s3-media3.fl.yelpcdn.com/bphoto/lD0IRN4PNG_otcngI_axPg/o.jpg"}, {"coordinates": {"longitude": -75.164711, "latitude": 39.9289513}, "categories": [{"alias": "cocktailbars", "title": "Cocktail Bars"}, {"alias": "dimsum", "title": "Dim Sum"}, {"alias": "asianfusion", "title": "Asian Fusion"}], "location": {"display_address": ["1648 E Passyunk Ave", "Philadelphia, PA 19148"], "address3": "", "city": "Philadelphia", "state": "PA", "address2": "", "address1": "1648 E Passyunk Ave", "zip_code": "19148", "country": "US"}, "review_count": 284, "distance": 2815.058010802, "display_phone": "(215) 279-7702", "price": "$$", "rating": 4.0, "phone": "+12152797702", "id": "bing-bing-dim-sum-philadelphia", "name": "Bing Bing Dim Sum", "transactions": [], "url": "https://www.yelp.com/biz/bing-bing-dim-sum-philadelphia?adjust_creative=8_C4NSGbL05eUQksKleGYw&utm_campaign=yelp_api_v3&utm_medium=api_v3_business_search&utm_source=8_C4NSGbL05eUQksKleGYw", "is_closed": false, "image_url": "https://s3-media4.fl.yelpcdn.com/bphoto/oLhoA887BBZlNOg-ZdkEBg/o.jpg"}, {"coordinates": {"longitude": -75.176917, "latitude": 39.968481}, "categories": [{"alias": "pubs", "title": "Pubs"}, {"alias": "italian", "title": "Italian"}, {"alias": "sandwiches", "title": "Sandwiches"}], "location": {"display_address": ["726 N 24th St", "Philadelphia, PA 19130"], "address3": "", "city": "Philadelphia", "state": "PA", "address2": "", "address1": "726 N 24th St", "zip_code": "19130", "country": "US"}, "review_count": 226, "distance": 1705.3685131299999, "display_phone": "(215) 232-3232", "price": "$$", "rating": 4.0, "phone": "+12152323232", "id": "bridgids-philadelphia", "name": "Bridgid's", "transactions": [], "url": "https://www.yelp.com/biz/bridgids-philadelphia?adjust_creative=8_C4NSGbL05eUQksKleGYw&utm_campaign=yelp_api_v3&utm_medium=api_v3_business_search&utm_source=8_C4NSGbL05eUQksKleGYw", "is_closed": false, "image_url": "https://s3-media3.fl.yelpcdn.com/bphoto/PiBdVl95nmbaNRkdcs5kFA/o.jpg"}, {"coordinates": {"longitude": -75.1683346, "latitude": 39.9506511}, "categories": [{"alias": "mideastern", "title": "Middle Eastern"}], "location": {"display_address": ["1625 Sansom St", "Philadelphia, PA 19103"], "address3": "", "city": "Philadelphia", "state": "PA", "address2": "", "address1": "1625 Sansom St", "zip_code": "19103", "country": "US"}, "review_count": 405, "distance": 425.520600446, "display_phone": "(215) 867-8181", "price": "$$", "rating": 4.5, "phone": "+12158678181", "id": "dizengoff-philadelphia", "name": "Dizengoff", "transactions": [], "url": "https://www.yelp.com/biz/dizengoff-philadelphia?adjust_creative=8_C4NSGbL05eUQksKleGYw&utm_campaign=yelp_api_v3&utm_medium=api_v3_business_search&utm_source=8_C4NSGbL05eUQksKleGYw", "is_closed": false, "image_url": "https://s3-media3.fl.yelpcdn.com/bphoto/gV4ftbFsiS_La2MBZRJDmw/o.jpg"}, {"coordinates": {"longitude": -75.17222, "latitude": 39.96204}, "categories": [{"alias": "dimsum", "title": "Dim Sum"}], "location": {"display_address": ["2000 Hamilton St", "Ste 104", "Philadelphia, PA 19130"], "address3": "", "city": "Philadelphia", "state": "PA", "address2": "Ste 104", "address1": "2000 Hamilton St", "zip_code": "19130", "country": "US"}, "review_count": 96, "distance": 919.040482978, "display_phone": "(215) 515-3992", "price": "$", "rating": 4.5, "phone": "+12155153992", "id": "dim-sum-and-noodle-philadelphia", "name": "Dim Sum & Noodle", "transactions": ["delivery", "pickup"], "url": "https://www.yelp.com/biz/dim-sum-and-noodle-philadelphia?adjust_creative=8_C4NSGbL05eUQksKleGYw&utm_campaign=yelp_api_v3&utm_medium=api_v3_business_search&utm_source=8_C4NSGbL05eUQksKleGYw", "is_closed": false, "image_url": "https://s3-media2.fl.yelpcdn.com/bphoto/d9qg6aUaliN216BUwd48DQ/o.jpg"}, {"coordinates": {"longitude": -75.1341602951288, "latitude": 39.9757193428676}, "categories": [{"alias": "gastropubs", "title": "Gastropubs"}, {"alias": "breweries", "title": "Breweries"}], "location": {"display_address": ["1727 North Front St", "Philadelphia, PA 19122"], "address3": null, "city": "Philadelphia", "state": "PA", "address2": "", "address1": "1727 North Front St", "zip_code": "19122", "country": "US"}, "review_count": 23, "distance": 3989.4803131619997, "display_phone": "(215) 425-6820", "price": "$$", "rating": 4.0, "phone": "+12154256820", "id": "evil-genius-beer-company-philadelphia", "name": "Evil Genius Beer Company", "transactions": [], "url": "https://www.yelp.com/biz/evil-genius-beer-company-philadelphia?adjust_creative=8_C4NSGbL05eUQksKleGYw&utm_campaign=yelp_api_v3&utm_medium=api_v3_business_search&utm_source=8_C4NSGbL05eUQksKleGYw", "is_closed": false, "image_url": "https://s3-media2.fl.yelpcdn.com/bphoto/ZuVmQEKcJToO6k34KcQ3pQ/o.jpg"}], "region": {"center": {"longitude": -75.17120361328125, "latitude": 39.95378209544653}}, "total": 10826}