{"total": 130918, "region": {"center": {"latitude": 40.70544486444615, "longitude": -73.99429321289062}}, "businesses": [{"review_count": 133, "distance": 4368.767794088, "coordinates": {"latitude": 40.7172485, "longitude": -73.9448511}, "is_closed": false, "name": "Pita Palace", "price": "$", "url": "https://www.yelp.com/biz/pita-palace-brooklyn?adjust_creative=8_C4NSGbL05eUQksKleGYw&utm_campaign=yelp_api_v3&utm_medium=api_v3_business_search&utm_source=8_C4NSGbL05eUQksKleGYw", "transactions": [], "rating": 5.0, "display_phone": "(718) 383-0550", "categories": [{"alias": "mideastern", "title": "Middle Eastern"}, {"alias": "falafel", "title": "Falafel"}], "id": "pita-palace-brooklyn", "phone": "+17183830550", "image_url": "https://s3-media2.fl.yelpcdn.com/bphoto/9AHS8qrV_lhJSnzJKiK3jA/o.jpg", "location": {"state": "NY", "address1": "413 Graham Ave", "display_address": ["413 Graham Ave", "Brooklyn, NY 11211"], "city": "Brooklyn", "address2": "", "address3": "", "country": "US", "zip_code": "11211"}}, {"review_count": 195, "distance": 3708.89462004, "coordinates": {"latitude": 40.7075228032172, "longitude": -73.9503787374344}, "is_closed": false, "name": "Mountain Province", "price": "$", "url": "https://www.yelp.com/biz/mountain-province-brooklyn?adjust_creative=8_C4NSGbL05eUQksKleGYw&utm_campaign=yelp_api_v3&utm_medium=api_v3_business_search&utm_source=8_C4NSGbL05eUQksKleGYw", "transactions": [], "rating": 4.5, "display_phone": "(718) 387-7030", "categories": [{"alias": "bakeries", "title": "Bakeries"}, {"alias": "coffee", "title": "Coffee & Tea"}], "id": "mountain-province-brooklyn", "phone": "+17183877030", "image_url": "https://s3-media4.fl.yelpcdn.com/bphoto/TpVvwyZkKq2MDeo5sllfyg/o.jpg", "location": {"state": "NY", "address1": "9 Meserole St", "display_address": ["9 Meserole St", "Brooklyn, NY 11206"], "city": "Brooklyn", "address2": "", "address3": "", "country": "US", "zip_code": "11206"}}, {"review_count": 397, "distance": 1602.1457673979999, "coordinates": {"latitude": 40.71873, "longitude": -73.98691}, "is_closed": false, "name": "La  Contenta", "price": "$$", "url": "https://www.yelp.com/biz/la-contenta-new-york?adjust_creative=8_C4NSGbL05eUQksKleGYw&utm_campaign=yelp_api_v3&utm_medium=api_v3_business_search&utm_source=8_C4NSGbL05eUQksKleGYw", "transactions": [], "rating": 4.5, "display_phone": "(212) 432-4180", "categories": [{"alias": "mexican", "title": "Mexican"}, {"alias": "bars", "title": "Bars"}, {"alias": "breakfast_brunch", "title": "Breakfast & Brunch"}], "id": "la-contenta-new-york", "phone": "+12124324180", "image_url": "https://s3-media1.fl.yelpcdn.com/bphoto/zE1yO2JWAb-ZjWIBxq48pA/o.jpg", "location": {"state": "NY", "address1": "102 Norfolk St", "display_address": ["102 Norfolk St", "New York, NY 10002"], "city": "New York", "address2": "", "address3": "", "country": "US", "zip_code": "10002"}}, {"review_count": 1842, "distance": 6817.2591910599995, "coordinates": {"latitude": 40.7644, "longitude": -73.97166}, "is_closed": false, "name": "Central Park", "url": "https://www.yelp.com/biz/central-park-new-york?adjust_creative=8_C4NSGbL05eUQksKleGYw&utm_campaign=yelp_api_v3&utm_medium=api_v3_business_search&utm_source=8_C4NSGbL05eUQksKleGYw", "transactions": [], "rating": 5.0, "display_phone": "(212) 310-6600", "location": {"state": "NY", "address1": "14 E 60th St", "display_address": ["14 E 60th St", "Central Park Conservancy", "New York, NY 10022"], "city": "New York", "address2": "", "address3": "Central Park Conservancy", "country": "US", "zip_code": "10022"}, "id": "central-park-new-york", "phone": "+12123106600", "image_url": "https://s3-media1.fl.yelpcdn.com/bphoto/kSgpwP_3mpNGk39nzRs2dw/o.jpg", "categories": [{"alias": "parks", "title": "Parks"}]}, {"review_count": 1571, "distance": 4231.123196963999, "coordinates": {"latitude": 40.742455, "longitude": -74.005956}, "is_closed": false, "name": "Los Tacos No.1", "price": "$", "url": "https://www.yelp.com/biz/los-tacos-no-1-new-york?adjust_creative=8_C4NSGbL05eUQksKleGYw&utm_campaign=yelp_api_v3&utm_medium=api_v3_business_search&utm_source=8_C4NSGbL05eUQksKleGYw", "transactions": [], "rating": 4.5, "display_phone": "(212) 256-0343", "categories": [{"alias": "mexican", "title": "Mexican"}], "id": "los-tacos-no-1-new-york", "phone": "+12122560343", "image_url": "https://s3-media2.fl.yelpcdn.com/bphoto/FU44TYl3PzXsE06G4W5aog/o.jpg", "location": {"state": "NY", "address1": "75 9th Ave", "display_address": ["75 9th Ave", "New York, NY 10011"], "city": "New York", "address2": "", "address3": "", "country": "US", "zip_code": "10011"}}, {"review_count": 353, "distance": 2950.1994404899997, "coordinates": {"latitude": 40.7311, "longitude": -74.00316}, "is_closed": false, "name": "Faicco's Italian Specialties", "price": "$$", "url": "https://www.yelp.com/biz/faiccos-italian-specialties-new-york?adjust_creative=8_C4NSGbL05eUQksKleGYw&utm_campaign=yelp_api_v3&utm_medium=api_v3_business_search&utm_source=8_C4NSGbL05eUQksKleGYw", "transactions": [], "rating": 4.5, "display_phone": "(212) 243-1974", "categories": [{"alias": "delis", "title": "Delis"}, {"alias": "italian", "title": "Italian"}, {"alias": "sandwiches", "title": "Sandwiches"}], "id": "faiccos-italian-specialties-new-york", "phone": "+12122431974", "image_url": "https://s3-media2.fl.yelpcdn.com/bphoto/9iM90G_xuy3_QAeNB5qd0w/o.jpg", "location": {"state": "NY", "address1": "260 Bleecker St", "display_address": ["260 Bleecker St", "New York, NY 10014"], "city": "New York", "address2": "", "address3": "", "country": "US", "zip_code": "10014"}}, {"review_count": 263, "distance": 5333.01962662, "coordinates": {"latitude": 40.7448950110868, "longitude": -73.9583035553701}, "is_closed": false, "name": "Gantry Plaza State Park", "url": "https://www.yelp.com/biz/gantry-plaza-state-park-long-island-city?adjust_creative=8_C4NSGbL05eUQksKleGYw&utm_campaign=yelp_api_v3&utm_medium=api_v3_business_search&utm_source=8_C4NSGbL05eUQksKleGYw", "transactions": [], "rating": 5.0, "display_phone": "(718) 786-6385", "location": {"state": "NY", "address1": "474 48th Ave", "display_address": ["474 48th Ave", "Long Island City, NY 11101"], "city": "Long Island City", "address2": "", "address3": "", "country": "US", "zip_code": "11101"}, "id": "gantry-plaza-state-park-long-island-city", "phone": "+17187866385", "image_url": "https://s3-media4.fl.yelpcdn.com/bphoto/If_-Md6Lg9sOoHCTCepejQ/o.jpg", "categories": [{"alias": "parks", "title": "Parks"}]}, {"review_count": 134, "distance": 2216.730343572, "coordinates": {"latitude": 40.7234758883715, "longitude": -73.9828663319349}, "is_closed": false, "name": "Matcha Cafe Wabi", "price": "$", "url": "https://www.yelp.com/biz/matcha-cafe-wabi-new-york?adjust_creative=8_C4NSGbL05eUQksKleGYw&utm_campaign=yelp_api_v3&utm_medium=api_v3_business_search&utm_source=8_C4NSGbL05eUQksKleGYw", "transactions": [], "rating": 4.5, "display_phone": "", "categories": [{"alias": "coffee", "title": "Coffee & Tea"}], "id": "matcha-cafe-wabi-new-york", "phone": "", "image_url": "https://s3-media4.fl.yelpcdn.com/bphoto/eTwGlnu-DeS2pBfAt1F7TA/o.jpg", "location": {"state": "NY", "address1": "233 E 4th St", "display_address": ["233 E 4th St", "New York, NY 10009"], "city": "New York", "address2": "", "address3": "", "country": "US", "zip_code": "10009"}}, {"review_count": 35, "distance": 1229.9053610244, "coordinates": {"latitude": 40.7048875, "longitude": -74.0088648}, "is_closed": false, "name": "Esprezzatura Coffee and Tea", "price": "$", "url": "https://www.yelp.com/biz/esprezzatura-coffee-and-tea-new-york-2?adjust_creative=8_C4NSGbL05eUQksKleGYw&utm_campaign=yelp_api_v3&utm_medium=api_v3_business_search&utm_source=8_C4NSGbL05eUQksKleGYw", "transactions": [], "rating": 5.0, "display_phone": "", "categories": [{"alias": "coffee", "title": "Coffee & Tea"}, {"alias": "foodtrucks", "title": "Food Trucks"}], "id": "esprezzatura-coffee-and-tea-new-york-2", "phone": "", "image_url": "https://s3-media2.fl.yelpcdn.com/bphoto/d56XSfGkvaNKMygi_SNOHw/o.jpg", "location": {"state": "NY", "address1": "123 Pearl St", "display_address": ["123 Pearl St", "New York, NY 10005"], "city": "New York", "address2": "", "address3": "", "country": "US", "zip_code": "10005"}}, {"review_count": 302, "distance": 2528.860710034, "coordinates": {"latitude": 40.7266868, "longitude": -73.9835794}, "is_closed": false, "name": "Kura", "price": "$$$$", "url": "https://www.yelp.com/biz/kura-new-york?adjust_creative=8_C4NSGbL05eUQksKleGYw&utm_campaign=yelp_api_v3&utm_medium=api_v3_business_search&utm_source=8_C4NSGbL05eUQksKleGYw", "transactions": [], "rating": 4.5, "display_phone": "(212) 228-1010", "categories": [{"alias": "japanese", "title": "Japanese"}, {"alias": "sushi", "title": "Sushi Bars"}], "id": "kura-new-york", "phone": "+12122281010", "image_url": "https://s3-media2.fl.yelpcdn.com/bphoto/38G5NMhnnZGkKZNrOBarQA/o.jpg", "location": {"state": "NY", "address1": "130 St Marks Pl", "display_address": ["130 St Marks Pl", "New York, NY 10009"], "city": "New York", "address2": "", "address3": "", "country": "US", "zip_code": "10009"}}, {"review_count": 49, "distance": 1111.7277267819998, "coordinates": {"latitude": 40.7087737, "longitude": -74.0067282}, "is_closed": false, "name": "Voyager Espresso", "price": "$", "url": "https://www.yelp.com/biz/voyager-espresso-new-york?adjust_creative=8_C4NSGbL05eUQksKleGYw&utm_campaign=yelp_api_v3&utm_medium=api_v3_business_search&utm_source=8_C4NSGbL05eUQksKleGYw", "transactions": [], "rating": 5.0, "display_phone": "(646) 885-6792", "categories": [{"alias": "coffee", "title": "Coffee & Tea"}, {"alias": "cafes", "title": "Cafes"}], "id": "voyager-espresso-new-york", "phone": "+16468856792", "image_url": "https://s3-media1.fl.yelpcdn.com/bphoto/ovSDmLelNE41HJ-ho6CasQ/o.jpg", "location": {"state": "NY", "address1": "110 William St", "display_address": ["110 William St", "Lower Level", "New York, NY 10038"], "city": "New York", "address2": "Lower Level", "address3": "", "country": "US", "zip_code": "10038"}}, {"review_count": 155, "distance": 2192.159584188, "coordinates": {"latitude": 40.7247224450111, "longitude": -73.9914688467979}, "is_closed": false, "name": "Momofuku Ko", "price": "$$$$", "url": "https://www.yelp.com/biz/momofuku-ko-new-york-3?adjust_creative=8_C4NSGbL05eUQksKleGYw&utm_campaign=yelp_api_v3&utm_medium=api_v3_business_search&utm_source=8_C4NSGbL05eUQksKleGYw", "transactions": [], "rating": 4.5, "display_phone": "(212) 500-0831", "categories": [{"alias": "newamerican", "title": "American (New)"}], "id": "momofuku-ko-new-york-3", "phone": "+12125000831", "image_url": "https://s3-media2.fl.yelpcdn.com/bphoto/sa3pYIxlBMFl9zursbEKhA/o.jpg", "location": {"state": "NY", "address1": "8 Extra Pl", "display_address": ["8 Extra Pl", "New York, NY 10003"], "city": "New York", "address2": "", "address3": "", "country": "US", "zip_code": "10003"}}, {"review_count": 107, "distance": 4183.77222988, "coordinates": {"latitude": 40.74207, "longitude": -74.00565}, "is_closed": false, "name": "Los Mariscos", "price": "$", "url": "https://www.yelp.com/biz/los-mariscos-new-york?adjust_creative=8_C4NSGbL05eUQksKleGYw&utm_campaign=yelp_api_v3&utm_medium=api_v3_business_search&utm_source=8_C4NSGbL05eUQksKleGYw", "transactions": [], "rating": 5.0, "display_phone": "(212) 920-4986", "categories": [{"alias": "seafood", "title": "Seafood"}, {"alias": "tacos", "title": "Tacos"}], "id": "los-mariscos-new-york", "phone": "+12129204986", "image_url": "https://s3-media3.fl.yelpcdn.com/bphoto/n4FelEBsUHwgn1ElzCBLhw/o.jpg", "location": {"state": "NY", "address1": "409 W 15th St", "display_address": ["409 W 15th St", "New York, NY 10011"], "city": "New York", "address2": "", "address3": null, "country": "US", "zip_code": "10011"}}, {"review_count": 85, "distance": 2486.7185327939997, "coordinates": {"latitude": 40.7265, "longitude": -73.9840399}, "is_closed": false, "name": "Ruffian Wine Bar & Chef's Table", "price": "$$", "url": "https://www.yelp.com/biz/ruffian-wine-bar-and-chefs-table-new-york?adjust_creative=8_C4NSGbL05eUQksKleGYw&utm_campaign=yelp_api_v3&utm_medium=api_v3_business_search&utm_source=8_C4NSGbL05eUQksKleGYw", "transactions": [], "rating": 5.0, "display_phone": "(212) 777-0855", "categories": [{"alias": "wine_bars", "title": "Wine Bars"}, {"alias": "tapasmallplates", "title": "Tapas/Small Plates"}, {"alias": "french", "title": "French"}], "id": "ruffian-wine-bar-and-chefs-table-new-york", "phone": "+12127770855", "image_url": "https://s3-media4.fl.yelpcdn.com/bphoto/HS1N5gy6pJV7-WjW1I1OMw/o.jpg", "location": {"state": "NY", "address1": "125 E 7th St", "display_address": ["125 E 7th St", "New York, NY 10009"], "city": "New York", "address2": "", "address3": "", "country": "US", "zip_code": "10009"}}, {"review_count": 121, "distance": 3091.7077410859997, "coordinates": {"latitude": 40.7323553689158, "longitude": -74.0035128796915}, "is_closed": false, "name": "Taco Mahal", "price": "$", "url": "https://www.yelp.com/biz/taco-mahal-new-york?adjust_creative=8_C4NSGbL05eUQksKleGYw&utm_campaign=yelp_api_v3&utm_medium=api_v3_business_search&utm_source=8_C4NSGbL05eUQksKleGYw", "transactions": ["pickup"], "rating": 4.5, "display_phone": "(646) 719-1553", "categories": [{"alias": "indpak", "title": "Indian"}, {"alias": "tacos", "title": "Tacos"}], "id": "taco-mahal-new-york", "phone": "+16467191553", "image_url": "https://s3-media4.fl.yelpcdn.com/bphoto/ij-8PnyeQQiMjT6YXJzCOw/o.jpg", "location": {"state": "NY", "address1": "73 7th Ave S", "display_address": ["73 7th Ave S", "New York, NY 10014"], "city": "New York", "address2": "", "address3": null, "country": "US", "zip_code": "10014"}}, {"review_count": 329, "distance": 1258.4957367396, "coordinates": {"latitude": 40.7104975, "longitude": -74.0076675}, "is_closed": false, "name": "Pisillo Italian Panini", "price": "$$", "url": "https://www.yelp.com/biz/pisillo-italian-panini-new-york?adjust_creative=8_C4NSGbL05eUQksKleGYw&utm_campaign=yelp_api_v3&utm_medium=api_v3_business_search&utm_source=8_C4NSGbL05eUQksKleGYw", "transactions": ["delivery", "pickup"], "rating": 4.5, "display_phone": "(212) 227-3104", "categories": [{"alias": "italian", "title": "Italian"}, {"alias": "sandwiches", "title": "Sandwiches"}], "id": "pisillo-italian-panini-new-york", "phone": "+12122273104", "image_url": "https://s3-media2.fl.yelpcdn.com/bphoto/Ihr5Jzo6zjuzX2kFCegR5g/o.jpg", "location": {"state": "NY", "address1": "97 Nassau St", "display_address": ["97 Nassau St", "New York, NY 10038"], "city": "New York", "address2": "", "address3": "", "country": "US", "zip_code": "10038"}}, {"review_count": 104, "distance": 1604.2306673679998, "coordinates": {"latitude": 40.709765, "longitude": -74.012452}, "is_closed": false, "name": "9/11 Tribute Center", "url": "https://www.yelp.com/biz/9-11-tribute-center-new-york?adjust_creative=8_C4NSGbL05eUQksKleGYw&utm_campaign=yelp_api_v3&utm_medium=api_v3_business_search&utm_source=8_C4NSGbL05eUQksKleGYw", "transactions": [], "rating": 4.5, "display_phone": "(212) 393-9160", "location": {"state": "NY", "address1": "120 Liberty St", "display_address": ["120 Liberty St", "New York, NY 10006"], "city": "New York", "address2": "", "address3": "", "country": "US", "zip_code": "10006"}, "id": "9-11-tribute-center-new-york", "phone": "+12123939160", "image_url": "https://s3-media1.fl.yelpcdn.com/bphoto/gu_txBwP4MM0eU8DJb3l9A/o.jpg", "categories": [{"alias": "landmarks", "title": "Landmarks & Historical Buildings"}, {"alias": "museums", "title": "Museums"}]}, {"review_count": 480, "distance": 1477.9601933478, "coordinates": {"latitude": 40.7182480993847, "longitude": -73.9990044118685}, "is_closed": false, "name": "Kam Hing Coffee Shop", "price": "$", "url": "https://www.yelp.com/biz/kam-hing-coffee-shop-new-york-2?adjust_creative=8_C4NSGbL05eUQksKleGYw&utm_campaign=yelp_api_v3&utm_medium=api_v3_business_search&utm_source=8_C4NSGbL05eUQksKleGYw", "transactions": [], "rating": 4.5, "display_phone": "(212) 925-0425", "categories": [{"alias": "bakeries", "title": "Bakeries"}, {"alias": "coffee", "title": "Coffee & Tea"}], "id": "kam-hing-coffee-shop-new-york-2", "phone": "+12129250425", "image_url": "https://s3-media3.fl.yelpcdn.com/bphoto/L2ZWnXMaEv3MW80pX5PQZQ/o.jpg", "location": {"state": "NY", "address1": "118 Baxter St", "display_address": ["118 Baxter St", "New York, NY 10013"], "city": "New York", "address2": "", "address3": "", "country": "US", "zip_code": "10013"}}, {"review_count": 229, "distance": 2725.698763566, "coordinates": {"latitude": 40.7293499, "longitude": -74.00134}, "is_closed": false, "name": "Manousheh", "price": "$", "url": "https://www.yelp.com/biz/manousheh-new-york-2?adjust_creative=8_C4NSGbL05eUQksKleGYw&utm_campaign=yelp_api_v3&utm_medium=api_v3_business_search&utm_source=8_C4NSGbL05eUQksKleGYw", "transactions": ["delivery", "pickup"], "rating": 4.5, "display_phone": "(347) 971-5778", "categories": [{"alias": "lebanese", "title": "Lebanese"}, {"alias": "bakeries", "title": "Bakeries"}], "id": "manousheh-new-york-2", "phone": "+13479715778", "image_url": "https://s3-media2.fl.yelpcdn.com/bphoto/lrf2-N-jdfyTec0xaOb1tw/o.jpg", "location": {"state": "NY", "address1": "193 Bleecker St", "display_address": ["193 Bleecker St", "New York, NY 10012"], "city": "New York", "address2": "", "address3": "", "country": "US", "zip_code": "10012"}}, {"review_count": 491, "distance": 4754.551697792, "coordinates": {"latitude": 40.6668998, "longitude": -73.9747509}, "is_closed": false, "name": "Prospect Park", "url": "https://www.yelp.com/biz/prospect-park-brooklyn?adjust_creative=8_C4NSGbL05eUQksKleGYw&utm_campaign=yelp_api_v3&utm_medium=api_v3_business_search&utm_source=8_C4NSGbL05eUQksKleGYw", "transactions": [], "rating": 4.5, "display_phone": "(718) 965-8951", "location": {"state": "NY", "address1": "95 Prospect Park W", "display_address": ["95 Prospect Park W", "Brooklyn, NY 11215"], "city": "Brooklyn", "address2": "", "address3": "", "country": "US", "zip_code": "11215"}, "id": "prospect-park-brooklyn", "phone": "+17189658951", "image_url": "https://s3-media3.fl.yelpcdn.com/bphoto/ItOLI26hsnC9L-Gzyv62Xg/o.jpg", "categories": [{"alias": "parks", "title": "Parks"}]}]}