{"region": {"center": {"longitude": -71.07124328613281, "latitude": 42.34784169448538}}, "businesses": [{"rating": 4.0, "display_phone": "(617) 267-9393", "price": "$", "categories": [{"title": "Diners", "alias": "diners"}], "coordinates": {"longitude": -71.0760727, "latitude": 42.3369865}, "is_closed": false, "name": "Mike's City Diner", "distance": 1277.3713959184, "review_count": 449, "id": "mikes-city-diner-boston", "location": {"display_address": ["1714 Washington St", "Boston, MA 02118"], "state": "MA", "city": "Boston", "address2": "", "country": "US", "zip_code": "02118", "address1": "1714 Washington St", "address3": ""}, "url": "https://www.yelp.com/biz/mikes-city-diner-boston?adjust_creative=8_C4NSGbL05eUQksKleGYw&utm_campaign=yelp_api_v3&utm_medium=api_v3_business_search&utm_source=8_C4NSGbL05eUQksKleGYw", "transactions": [], "phone": "+16172679393", "image_url": "https://s3-media4.fl.yelpcdn.com/bphoto/jaQYClwKVh6c2SSKAkaxqA/o.jpg"}, {"rating": 4.0, "display_phone": "(617) 904-3711", "price": "$$", "categories": [{"title": "American (New)", "alias": "newamerican"}, {"title": "Breakfast & Brunch", "alias": "breakfast_brunch"}], "coordinates": {"longitude": -71.0761795043945, "latitude": 42.3506851196289}, "is_closed": false, "name": "Dig Inn", "distance": 500.18963122799994, "review_count": 210, "id": "dig-inn-boston", "location": {"display_address": ["557 Boylston St", "Boston, MA 02116"], "state": "MA", "city": "Boston", "address2": null, "country": "US", "zip_code": "02116", "address1": "557 Boylston St", "address3": ""}, "url": "https://www.yelp.com/biz/dig-inn-boston?adjust_creative=8_C4NSGbL05eUQksKleGYw&utm_campaign=yelp_api_v3&utm_medium=api_v3_business_search&utm_source=8_C4NSGbL05eUQksKleGYw", "transactions": [], "phone": "+16179043711", "image_url": "https://s3-media4.fl.yelpcdn.com/bphoto/y2SFx5hpZ60KsoaxXVkA6Q/o.jpg"}, {"rating": 4.0, "display_phone": "(617) 350-0010", "price": "$$", "categories": [{"title": "Lounges", "alias": "lounges"}, {"title": "American (New)", "alias": "newamerican"}], "coordinates": {"longitude": -71.06895, "latitude": 42.34291}, "is_closed": false, "name": "Franklin Caf\u00e9", "distance": 578.80878704, "review_count": 478, "id": "franklin-caf\u00e9-boston-4", "location": {"display_address": ["278 Shawmut Ave", "Boston, MA 02118"], "state": "MA", "city": "Boston", "address2": "", "country": "US", "zip_code": "02118", "address1": "278 Shawmut Ave", "address3": ""}, "url": "https://www.yelp.com/biz/franklin-caf%C3%A9-boston-4?adjust_creative=8_C4NSGbL05eUQksKleGYw&utm_campaign=yelp_api_v3&utm_medium=api_v3_business_search&utm_source=8_C4NSGbL05eUQksKleGYw", "transactions": [], "phone": "+16173500010", "image_url": "https://s3-media2.fl.yelpcdn.com/bphoto/EvYP2X4T_zALhHIGkPxeIw/o.jpg"}, {"rating": 4.0, "display_phone": "(617) 338-8283", "price": "$$", "categories": [{"title": "Japanese", "alias": "japanese"}, {"title": "Hot Pot", "alias": "hotpot"}], "coordinates": {"longitude": -71.0614931, "latitude": 42.3522693}, "is_closed": false, "name": "Kaze Shabu Shabu", "distance": 941.1749430030001, "review_count": 478, "id": "kaze-shabu-shabu-boston", "location": {"display_address": ["1 Harrison Ave", "Boston, MA 02111"], "state": "MA", "city": "Boston", "address2": null, "country": "US", "zip_code": "02111", "address1": "1 Harrison Ave", "address3": ""}, "url": "https://www.yelp.com/biz/kaze-shabu-shabu-boston?adjust_creative=8_C4NSGbL05eUQksKleGYw&utm_campaign=yelp_api_v3&utm_medium=api_v3_business_search&utm_source=8_C4NSGbL05eUQksKleGYw", "transactions": [], "phone": "+16173388283", "image_url": "https://s3-media3.fl.yelpcdn.com/bphoto/3J50wWMn__4MsGII7cKAwg/o.jpg"}, {"rating": 4.0, "display_phone": "(617) 369-5609", "price": "$$", "categories": [{"title": "Mexican", "alias": "mexican"}, {"title": "Lounges", "alias": "lounges"}, {"title": "Cocktail Bars", "alias": "cocktailbars"}], "coordinates": {"longitude": -71.077508474716, "latitude": 42.3505860446405}, "is_closed": false, "name": "Lolita Cocina & Tequila Bar", "distance": 598.3120888188, "review_count": 1252, "id": "lolita-cocina-and-tequila-bar-boston-2", "location": {"display_address": ["271 Dartmouth St", "Boston, MA 02116"], "state": "MA", "city": "Boston", "address2": null, "country": "US", "zip_code": "02116", "address1": "271 Dartmouth St", "address3": ""}, "url": "https://www.yelp.com/biz/lolita-cocina-and-tequila-bar-boston-2?adjust_creative=8_C4NSGbL05eUQksKleGYw&utm_campaign=yelp_api_v3&utm_medium=api_v3_business_search&utm_source=8_C4NSGbL05eUQksKleGYw", "transactions": [], "phone": "+16173695609", "image_url": "https://s3-media3.fl.yelpcdn.com/bphoto/VlNwiC3KdAmFaj1my6jzkQ/o.jpg"}, {"rating": 4.0, "display_phone": "(617) 266-5088", "price": "$$", "categories": [{"title": "Italian", "alias": "italian"}, {"title": "Bars", "alias": "bars"}, {"title": "Salad", "alias": "salad"}], "coordinates": {"longitude": -71.077598, "latitude": 42.343939}, "is_closed": false, "name": "Anchovies", "distance": 679.036390098, "review_count": 314, "id": "anchovies-boston", "location": {"display_address": ["433 Columbus Ave", "Boston, MA 02116"], "state": "MA", "city": "Boston", "address2": "", "country": "US", "zip_code": "02116", "address1": "433 Columbus Ave", "address3": ""}, "url": "https://www.yelp.com/biz/anchovies-boston?adjust_creative=8_C4NSGbL05eUQksKleGYw&utm_campaign=yelp_api_v3&utm_medium=api_v3_business_search&utm_source=8_C4NSGbL05eUQksKleGYw", "transactions": [], "phone": "+16172665088", "image_url": "https://s3-media3.fl.yelpcdn.com/bphoto/5DBU9QMsfTWZIgboy5jQZQ/o.jpg"}, {"rating": 5.0, "display_phone": "(617) 567-9760", "price": "$", "categories": [{"title": "Delis", "alias": "delis"}, {"title": "Pizza", "alias": "pizza"}, {"title": "Sandwiches", "alias": "sandwiches"}], "coordinates": {"longitude": -71.0346527099609, "latitude": 42.3755264282227}, "is_closed": false, "name": "Roy's Cold Cuts", "distance": 4302.873689656, "review_count": 68, "id": "roys-cold-cuts-boston", "location": {"display_address": ["198 Marion St", "Boston, MA 02128"], "state": "MA", "city": "Boston", "address2": "", "country": "US", "zip_code": "02128", "address1": "198 Marion St", "address3": ""}, "url": "https://www.yelp.com/biz/roys-cold-cuts-boston?adjust_creative=8_C4NSGbL05eUQksKleGYw&utm_campaign=yelp_api_v3&utm_medium=api_v3_business_search&utm_source=8_C4NSGbL05eUQksKleGYw", "transactions": ["delivery", "pickup"], "phone": "+16175679760", "image_url": "https://s3-media3.fl.yelpcdn.com/bphoto/96PanjQAbcD7sq0nG4WrZw/o.jpg"}, {"rating": 4.0, "display_phone": "(617) 268-5748", "price": "$", "categories": [{"title": "Diners", "alias": "diners"}], "coordinates": {"longitude": -71.055726479847, "latitude": 42.3417995548894}, "is_closed": false, "name": "Mul's Diner", "distance": 1441.516978729, "review_count": 236, "id": "muls-diner-boston", "location": {"display_address": ["75 W Broadway", "Boston, MA 02127"], "state": "MA", "city": "Boston", "address2": "", "country": "US", "zip_code": "02127", "address1": "75 W Broadway", "address3": ""}, "url": "https://www.yelp.com/biz/muls-diner-boston?adjust_creative=8_C4NSGbL05eUQksKleGYw&utm_campaign=yelp_api_v3&utm_medium=api_v3_business_search&utm_source=8_C4NSGbL05eUQksKleGYw", "transactions": [], "phone": "+16172685748", "image_url": "https://s3-media2.fl.yelpcdn.com/bphoto/G-15DXUOeD1sVf90KSM1KQ/o.jpg"}, {"rating": 4.0, "display_phone": "(617) 536-6300", "price": "$$$", "categories": [{"title": "Steakhouses", "alias": "steak"}], "coordinates": {"longitude": -71.0815887451172, "latitude": 42.3492240905762}, "is_closed": false, "name": "Abe & Louie's", "distance": 865.5547761875999, "review_count": 957, "id": "abe-and-louies-boston-2", "location": {"display_address": ["793 Boylston St", "Boston, MA 02116"], "state": "MA", "city": "Boston", "address2": "", "country": "US", "zip_code": "02116", "address1": "793 Boylston St", "address3": ""}, "url": "https://www.yelp.com/biz/abe-and-louies-boston-2?adjust_creative=8_C4NSGbL05eUQksKleGYw&utm_campaign=yelp_api_v3&utm_medium=api_v3_business_search&utm_source=8_C4NSGbL05eUQksKleGYw", "transactions": [], "phone": "+16175366300", "image_url": "https://s3-media2.fl.yelpcdn.com/bphoto/kyy_EkakIG8EzSbnKlBCgg/o.jpg"}, {"rating": 4.0, "display_phone": "(617) 859-2251", "price": "$$$", "categories": [{"title": "Tea Rooms", "alias": "tea"}, {"title": "Breakfast & Brunch", "alias": "breakfast_brunch"}], "coordinates": {"longitude": -71.0782023736107, "latitude": 42.3496752655005}, "is_closed": false, "name": "The Courtyard Restaurant", "distance": 606.9723979739999, "review_count": 79, "id": "the-courtyard-restaurant-boston", "location": {"display_address": ["230 Darmouth St", "Boston, MA 02116"], "state": "MA", "city": "Boston", "address2": "", "country": "US", "zip_code": "02116", "address1": "230 Darmouth St", "address3": ""}, "url": "https://www.yelp.com/biz/the-courtyard-restaurant-boston?adjust_creative=8_C4NSGbL05eUQksKleGYw&utm_campaign=yelp_api_v3&utm_medium=api_v3_business_search&utm_source=8_C4NSGbL05eUQksKleGYw", "transactions": [], "phone": "+16178592251", "image_url": "https://s3-media2.fl.yelpcdn.com/bphoto/40HeeqKTZ-sHI62nRcXXFw/o.jpg"}, {"rating": 4.0, "display_phone": "(617) 752-4191", "price": "$$", "categories": [{"title": "American (New)", "alias": "newamerican"}, {"title": "Asian Fusion", "alias": "asianfusion"}], "coordinates": {"longitude": -71.0569151, "latitude": 42.34133}, "is_closed": false, "name": "Moonshine 152", "distance": 1370.297004968, "review_count": 178, "id": "moonshine-152-boston", "location": {"display_address": ["152 Dorchester Ave", "Boston, MA 02127"], "state": "MA", "city": "Boston", "address2": "", "country": "US", "zip_code": "02127", "address1": "152 Dorchester Ave", "address3": ""}, "url": "https://www.yelp.com/biz/moonshine-152-boston?adjust_creative=8_C4NSGbL05eUQksKleGYw&utm_campaign=yelp_api_v3&utm_medium=api_v3_business_search&utm_source=8_C4NSGbL05eUQksKleGYw", "transactions": [], "phone": "+16177524191", "image_url": "https://s3-media4.fl.yelpcdn.com/bphoto/T36ZG0X7SQZVUZ9bZiHghw/o.jpg"}, {"rating": 4.0, "display_phone": "(617) 742-8401", "price": "$$$$", "categories": [{"title": "Steakhouses", "alias": "steak"}, {"title": "Seafood", "alias": "seafood"}, {"title": "American (Traditional)", "alias": "tradamerican"}], "coordinates": {"longitude": -71.0596454143524, "latitude": 42.3578462497398}, "is_closed": false, "name": "Ruth's Chris Steak House", "distance": 1464.6036208584, "review_count": 655, "id": "ruths-chris-steak-house-boston-2", "location": {"display_address": ["45 School St", "Boston, MA 02108"], "state": "MA", "city": "Boston", "address2": "", "country": "US", "zip_code": "02108", "address1": "45 School St", "address3": ""}, "url": "https://www.yelp.com/biz/ruths-chris-steak-house-boston-2?adjust_creative=8_C4NSGbL05eUQksKleGYw&utm_campaign=yelp_api_v3&utm_medium=api_v3_business_search&utm_source=8_C4NSGbL05eUQksKleGYw", "transactions": [], "phone": "+16177428401", "image_url": "https://s3-media1.fl.yelpcdn.com/bphoto/z8PjolPi1_FXGexEayGpaw/o.jpg"}, {"rating": 4.0, "display_phone": "(617) 426-2121", "price": "$", "categories": [{"title": "Delis", "alias": "delis"}], "coordinates": {"longitude": -71.0583190917969, "latitude": 42.3506813049316}, "is_closed": false, "name": "Figaro's", "distance": 1119.051189386, "review_count": 112, "id": "figaros-boston", "location": {"display_address": ["105 Beach St", "Boston, MA 02111"], "state": "MA", "city": "Boston", "address2": "", "country": "US", "zip_code": "02111", "address1": "105 Beach St", "address3": ""}, "url": "https://www.yelp.com/biz/figaros-boston?adjust_creative=8_C4NSGbL05eUQksKleGYw&utm_campaign=yelp_api_v3&utm_medium=api_v3_business_search&utm_source=8_C4NSGbL05eUQksKleGYw", "transactions": [], "phone": "+16174262121", "image_url": "https://s3-media1.fl.yelpcdn.com/bphoto/mYwg9eTtAJLp1mbr0HcyKw/o.jpg"}, {"rating": 4.0, "display_phone": "(617) 422-0004", "price": "$$$", "categories": [{"title": "French", "alias": "french"}, {"title": "Italian", "alias": "italian"}], "coordinates": {"longitude": -71.060306250729, "latitude": 42.357014071346}, "is_closed": false, "name": "Marliave", "distance": 1359.442811338, "review_count": 1040, "id": "marliave-boston", "location": {"display_address": ["10 Bosworth St", "Boston, MA 02108"], "state": "MA", "city": "Boston", "address2": "", "country": "US", "zip_code": "02108", "address1": "10 Bosworth St", "address3": ""}, "url": "https://www.yelp.com/biz/marliave-boston?adjust_creative=8_C4NSGbL05eUQksKleGYw&utm_campaign=yelp_api_v3&utm_medium=api_v3_business_search&utm_source=8_C4NSGbL05eUQksKleGYw", "transactions": [], "phone": "+16174220004", "image_url": "https://s3-media1.fl.yelpcdn.com/bphoto/70ssmmwKqe3PLkbxlv2F4Q/o.jpg"}, {"rating": 4.0, "display_phone": "(857) 233-5277", "price": "$", "categories": [{"title": "Coffee & Tea", "alias": "coffee"}, {"title": "Sandwiches", "alias": "sandwiches"}, {"title": "Bagels", "alias": "bagels"}], "coordinates": {"longitude": -71.0550363743384, "latitude": 42.3633754209916}, "is_closed": false, "name": "Thinking Cup", "distance": 2180.917539618, "review_count": 399, "id": "thinking-cup-boston-3", "location": {"display_address": ["236 Hanover St", "Boston, MA 02113"], "state": "MA", "city": "Boston", "address2": "", "country": "US", "zip_code": "02113", "address1": "236 Hanover St", "address3": ""}, "url": "https://www.yelp.com/biz/thinking-cup-boston-3?adjust_creative=8_C4NSGbL05eUQksKleGYw&utm_campaign=yelp_api_v3&utm_medium=api_v3_business_search&utm_source=8_C4NSGbL05eUQksKleGYw", "transactions": [], "phone": "+18572335277", "image_url": "https://s3-media2.fl.yelpcdn.com/bphoto/HVoc265hgzeaXZo4Lpq_-w/o.jpg"}, {"rating": 4.0, "display_phone": "(617) 542-0392", "price": "$", "categories": [{"title": "Sandwiches", "alias": "sandwiches"}, {"title": "Latin American", "alias": "latin"}], "coordinates": {"longitude": -71.0586917750412, "latitude": 42.3550350322331}, "is_closed": false, "name": "Chacarero", "distance": 1304.9774992895998, "review_count": 346, "id": "chacarero-boston-2", "location": {"display_address": ["101 Arch St", "Boston, MA 02108"], "state": "MA", "city": "Boston", "address2": "", "country": "US", "zip_code": "02108", "address1": "101 Arch St", "address3": ""}, "url": "https://www.yelp.com/biz/chacarero-boston-2?adjust_creative=8_C4NSGbL05eUQksKleGYw&utm_campaign=yelp_api_v3&utm_medium=api_v3_business_search&utm_source=8_C4NSGbL05eUQksKleGYw", "transactions": [], "phone": "+16175420392", "image_url": "https://s3-media2.fl.yelpcdn.com/bphoto/9O-63qgm1QuHqYiyEA7x1A/o.jpg"}, {"rating": 4.5, "display_phone": "(617) 464-4869", "price": "$", "categories": [{"title": "Dive Bars", "alias": "divebars"}], "coordinates": {"longitude": -71.0513278841972, "latitude": 42.3391748964787}, "is_closed": false, "name": "Croke Park/Whitey's", "distance": 1900.952890802, "review_count": 80, "id": "croke-park-whiteys-boston", "location": {"display_address": ["268 W Broadway", "Boston, MA 02127"], "state": "MA", "city": "Boston", "address2": null, "country": "US", "zip_code": "02127", "address1": "268 W Broadway", "address3": ""}, "url": "https://www.yelp.com/biz/croke-park-whiteys-boston?adjust_creative=8_C4NSGbL05eUQksKleGYw&utm_campaign=yelp_api_v3&utm_medium=api_v3_business_search&utm_source=8_C4NSGbL05eUQksKleGYw", "transactions": [], "phone": "+16174644869", "image_url": "https://s3-media2.fl.yelpcdn.com/bphoto/Afl64EKLNX8ZwDUd-CuMXw/o.jpg"}, {"rating": 4.0, "display_phone": "(617) 227-1991", "price": "$$", "categories": [{"title": "Italian", "alias": "italian"}, {"title": "Delis", "alias": "delis"}], "coordinates": {"longitude": -71.0554091475888, "latitude": 42.3650794946373}, "is_closed": false, "name": "Dino's", "distance": 2316.205097378, "review_count": 288, "id": "dinos-boston-2", "location": {"display_address": ["141 Salem St", "Boston, MA 02113"], "state": "MA", "city": "Boston", "address2": "", "country": "US", "zip_code": "02113", "address1": "141 Salem St", "address3": ""}, "url": "https://www.yelp.com/biz/dinos-boston-2?adjust_creative=8_C4NSGbL05eUQksKleGYw&utm_campaign=yelp_api_v3&utm_medium=api_v3_business_search&utm_source=8_C4NSGbL05eUQksKleGYw", "transactions": ["pickup"], "phone": "+16172271991", "image_url": "https://s3-media4.fl.yelpcdn.com/bphoto/1BxwmbQ-NyY8XHAa7KC_vg/o.jpg"}, {"rating": 4.5, "display_phone": "(617) 426-0863", "categories": [{"title": "Parks", "alias": "parks"}, {"title": "Performing Arts", "alias": "theater"}], "coordinates": {"longitude": -71.05785, "latitude": 42.35865}, "is_closed": false, "name": "Shakespeare on the Common", "distance": 932.761554884, "review_count": 38, "id": "shakespeare-on-the-common-boston", "location": {"display_address": ["Boston Common", "Boston, MA 02116"], "state": "MA", "city": "Boston", "address2": null, "country": "US", "zip_code": "02116", "address1": "Boston Common", "address3": ""}, "url": "https://www.yelp.com/biz/shakespeare-on-the-common-boston?adjust_creative=8_C4NSGbL05eUQksKleGYw&utm_campaign=yelp_api_v3&utm_medium=api_v3_business_search&utm_source=8_C4NSGbL05eUQksKleGYw", "transactions": [], "phone": "+16174260863", "image_url": "https://s3-media2.fl.yelpcdn.com/bphoto/zeGb5gazAlmM608hAEgNng/o.jpg"}, {"rating": 4.0, "display_phone": "(617) 482-0085", "price": "$", "categories": [{"title": "Pizza", "alias": "pizza"}, {"title": "Italian", "alias": "italian"}], "coordinates": {"longitude": -71.0631478, "latitude": 42.3510218}, "is_closed": false, "name": "Boston Kitchen Pizza", "distance": 753.2343670619999, "review_count": 167, "id": "boston-kitchen-pizza-boston", "location": {"display_address": ["1 Stuart St", "Boston, MA 02116"], "state": "MA", "city": "Boston", "address2": "", "country": "US", "zip_code": "02116", "address1": "1 Stuart St", "address3": ""}, "url": "https://www.yelp.com/biz/boston-kitchen-pizza-boston?adjust_creative=8_C4NSGbL05eUQksKleGYw&utm_campaign=yelp_api_v3&utm_medium=api_v3_business_search&utm_source=8_C4NSGbL05eUQksKleGYw", "transactions": [], "phone": "+16174820085", "image_url": "https://s3-media3.fl.yelpcdn.com/bphoto/eh0RPOYhjm1835_vfhu5Vw/o.jpg"}, {"rating": 4.5, "display_phone": "(857) 250-4959", "price": "$", "categories": [{"title": "Food Trucks", "alias": "foodtrucks"}, {"title": "Asian Fusion", "alias": "asianfusion"}], "coordinates": {"longitude": -71.1020126342773, "latitude": 42.3475456237793}, "is_closed": false, "name": "Mei Mei Street Kitchen", "distance": 2387.0801091099997, "review_count": 173, "id": "mei-mei-street-kitchen-boston-4", "location": {"display_address": ["Boston, MA 02215"], "state": "MA", "city": "Boston", "address2": "", "country": "US", "zip_code": "02215", "address1": "", "address3": ""}, "url": "https://www.yelp.com/biz/mei-mei-street-kitchen-boston-4?adjust_creative=8_C4NSGbL05eUQksKleGYw&utm_campaign=yelp_api_v3&utm_medium=api_v3_business_search&utm_source=8_C4NSGbL05eUQksKleGYw", "transactions": [], "phone": "+18572504959", "image_url": "https://s3-media3.fl.yelpcdn.com/bphoto/MbEEx7IFp-vgwMSeeAyMsQ/o.jpg"}, {"rating": 4.0, "display_phone": "(617) 742-9600", "price": "$$", "categories": [{"title": "Italian", "alias": "italian"}, {"title": "Pizza", "alias": "pizza"}], "coordinates": {"longitude": -71.053187, "latitude": 42.3650849}, "is_closed": false, "name": "Locale", "distance": 2424.42001579, "review_count": 224, "id": "locale-boston", "location": {"display_address": ["352 Hanover St", "Boston, MA 02113"], "state": "MA", "city": "Boston", "address2": "", "country": "US", "zip_code": "02113", "address1": "352 Hanover St", "address3": ""}, "url": "https://www.yelp.com/biz/locale-boston?adjust_creative=8_C4NSGbL05eUQksKleGYw&utm_campaign=yelp_api_v3&utm_medium=api_v3_business_search&utm_source=8_C4NSGbL05eUQksKleGYw", "transactions": [], "phone": "+16177429600", "image_url": "https://s3-media3.fl.yelpcdn.com/bphoto/86MjaepdLUBKj1Ux08lyBA/o.jpg"}, {"rating": 4.0, "display_phone": "(617) 737-1234", "price": "$$$", "categories": [{"title": "Italian", "alias": "italian"}], "coordinates": {"longitude": -71.04846, "latitude": 42.35067}, "is_closed": false, "name": "Sportello", "distance": 1893.4548148079998, "review_count": 680, "id": "sportello-boston", "location": {"display_address": ["348 Congress St", "Boston, MA 02210"], "state": "MA", "city": "Boston", "address2": "", "country": "US", "zip_code": "02210", "address1": "348 Congress St", "address3": ""}, "url": "https://www.yelp.com/biz/sportello-boston?adjust_creative=8_C4NSGbL05eUQksKleGYw&utm_campaign=yelp_api_v3&utm_medium=api_v3_business_search&utm_source=8_C4NSGbL05eUQksKleGYw", "transactions": [], "phone": "+16177371234", "image_url": "https://s3-media3.fl.yelpcdn.com/bphoto/geHArT2KZffi1WN9HkeKNg/o.jpg"}, {"rating": 4.0, "display_phone": "(617) 451-1561", "price": "$", "categories": [{"title": "Sandwiches", "alias": "sandwiches"}, {"title": "Breakfast & Brunch", "alias": "breakfast_brunch"}], "coordinates": {"longitude": -71.0714874, "latitude": 42.3508682}, "is_closed": false, "name": "Back Bay Sandwich", "distance": 341.5088359752, "review_count": 92, "id": "back-bay-sandwich-boston", "location": {"display_address": ["31 St James Ave", "Boston, MA 02116"], "state": "MA", "city": "Boston", "address2": "", "country": "US", "zip_code": "02116", "address1": "31 St James Ave", "address3": ""}, "url": "https://www.yelp.com/biz/back-bay-sandwich-boston?adjust_creative=8_C4NSGbL05eUQksKleGYw&utm_campaign=yelp_api_v3&utm_medium=api_v3_business_search&utm_source=8_C4NSGbL05eUQksKleGYw", "transactions": [], "phone": "+16174511561", "image_url": "https://s3-media2.fl.yelpcdn.com/bphoto/XqOI6SDxgq07m5C4GyMbpQ/o.jpg"}, {"rating": 4.0, "display_phone": "(617) 227-5011", "price": "$$$", "categories": [{"title": "Bars", "alias": "bars"}, {"title": "Steakhouses", "alias": "steak"}], "coordinates": {"longitude": -71.0695165, "latitude": 42.3415092}, "is_closed": false, "name": "Boston Chops", "distance": 718.2474281158, "review_count": 385, "id": "boston-chops-boston", "location": {"display_address": ["1375 Washington St", "Boston, MA 02118"], "state": "MA", "city": "Boston", "address2": "", "country": "US", "zip_code": "02118", "address1": "1375 Washington St", "address3": ""}, "url": "https://www.yelp.com/biz/boston-chops-boston?adjust_creative=8_C4NSGbL05eUQksKleGYw&utm_campaign=yelp_api_v3&utm_medium=api_v3_business_search&utm_source=8_C4NSGbL05eUQksKleGYw", "transactions": [], "phone": "+16172275011", "image_url": "https://s3-media2.fl.yelpcdn.com/bphoto/n-fRz0neRODwAN5ilG56pw/o.jpg"}, {"rating": 4.5, "display_phone": "(617) 248-0011", "price": "$", "categories": [{"title": "Coffee & Tea", "alias": "coffee"}], "coordinates": {"longitude": -71.059795977771, "latitude": 42.3631798248653}, "is_closed": false, "name": "Cuppacoffee", "distance": 1947.28932995, "review_count": 75, "id": "cuppacoffee-boston", "location": {"display_address": ["1 Merrimac St", "Boston, MA 02114"], "state": "MA", "city": "Boston", "address2": "", "country": "US", "zip_code": "02114", "address1": "1 Merrimac St", "address3": ""}, "url": "https://www.yelp.com/biz/cuppacoffee-boston?adjust_creative=8_C4NSGbL05eUQksKleGYw&utm_campaign=yelp_api_v3&utm_medium=api_v3_business_search&utm_source=8_C4NSGbL05eUQksKleGYw", "transactions": [], "phone": "+16172480011", "image_url": "https://s3-media2.fl.yelpcdn.com/bphoto/m7p3MYNkO36780YaPcBRJQ/o.jpg"}, {"rating": 4.0, "display_phone": "(617) 536-0415", "price": "$$", "categories": [{"title": "Ethiopian", "alias": "ethiopian"}, {"title": "Coffee & Tea", "alias": "coffee"}], "coordinates": {"longitude": -71.0841231, "latitude": 42.3423687}, "is_closed": false, "name": "Lucy Ethiopian Cafe", "distance": 1212.5120971063998, "review_count": 300, "id": "lucy-ethiopian-cafe-boston-2", "location": {"display_address": ["334 Massachusetts Ave", "Boston, MA 02115"], "state": "MA", "city": "Boston", "address2": "", "country": "US", "zip_code": "02115", "address1": "334 Massachusetts Ave", "address3": ""}, "url": "https://www.yelp.com/biz/lucy-ethiopian-cafe-boston-2?adjust_creative=8_C4NSGbL05eUQksKleGYw&utm_campaign=yelp_api_v3&utm_medium=api_v3_business_search&utm_source=8_C4NSGbL05eUQksKleGYw", "transactions": [], "phone": "+16175360415", "image_url": "https://s3-media3.fl.yelpcdn.com/bphoto/PLPkzA6YoqOujL6gtL5_UQ/o.jpg"}, {"rating": 4.0, "display_phone": "(617) 426-9410", "price": "$", "categories": [{"title": "Vietnamese", "alias": "vietnamese"}, {"title": "Chinese", "alias": "chinese"}, {"title": "Bubble Tea", "alias": "bubbletea"}], "coordinates": {"longitude": -71.0614418238401, "latitude": 42.350983992219}, "is_closed": false, "name": "New Dong Khanh", "distance": 874.129436268, "review_count": 441, "id": "new-dong-khanh-boston", "location": {"display_address": ["83 Harrison Ave", "Boston, MA 02111"], "state": "MA", "city": "Boston", "address2": "", "country": "US", "zip_code": "02111", "address1": "83 Harrison Ave", "address3": ""}, "url": "https://www.yelp.com/biz/new-dong-khanh-boston?adjust_creative=8_C4NSGbL05eUQksKleGYw&utm_campaign=yelp_api_v3&utm_medium=api_v3_business_search&utm_source=8_C4NSGbL05eUQksKleGYw", "transactions": [], "phone": "+16174269410", "image_url": "https://s3-media4.fl.yelpcdn.com/bphoto/RSwo-a55udykuN4CksHZrA/o.jpg"}, {"rating": 4.0, "display_phone": "(617) 247-4777", "price": "$$", "categories": [{"title": "Sandwiches", "alias": "sandwiches"}, {"title": "Desserts", "alias": "desserts"}, {"title": "Cafes", "alias": "cafes"}], "coordinates": {"longitude": -71.071625035216, "latitude": 42.351822284275}, "is_closed": false, "name": "The Parish Cafe", "distance": 443.523240955, "review_count": 1171, "id": "the-parish-cafe-boston", "location": {"display_address": ["361 Boylston St", "Boston, MA 02116"], "state": "MA", "city": "Boston", "address2": "", "country": "US", "zip_code": "02116", "address1": "361 Boylston St", "address3": ""}, "url": "https://www.yelp.com/biz/the-parish-cafe-boston?adjust_creative=8_C4NSGbL05eUQksKleGYw&utm_campaign=yelp_api_v3&utm_medium=api_v3_business_search&utm_source=8_C4NSGbL05eUQksKleGYw", "transactions": [], "phone": "+16172474777", "image_url": "https://s3-media2.fl.yelpcdn.com/bphoto/QJdTzVfjYl9RPzLtvtCnIw/o.jpg"}, {"rating": 4.0, "display_phone": "(857) 250-2780", "price": "$", "categories": [{"title": "Coffee & Tea", "alias": "coffee"}], "coordinates": {"longitude": -71.0855103, "latitude": 42.3489418}, "is_closed": false, "name": "Barrington Coffee Roasting Company", "distance": 1181.7907621104, "review_count": 97, "id": "barrington-coffee-roasting-company-boston-2", "location": {"display_address": ["303 Newbury St", "Boston, MA 02115"], "state": "MA", "city": "Boston", "address2": "", "country": "US", "zip_code": "02115", "address1": "303 Newbury St", "address3": ""}, "url": "https://www.yelp.com/biz/barrington-coffee-roasting-company-boston-2?adjust_creative=8_C4NSGbL05eUQksKleGYw&utm_campaign=yelp_api_v3&utm_medium=api_v3_business_search&utm_source=8_C4NSGbL05eUQksKleGYw", "transactions": [], "phone": "+18572502780", "image_url": "https://s3-media2.fl.yelpcdn.com/bphoto/FnSYsm5wi-150qk62y8jlA/o.jpg"}, {"rating": 4.0, "display_phone": "(617) 292-0808", "price": "$$$", "categories": [{"title": "Wine Bars", "alias": "wine_bars"}, {"title": "Steakhouses", "alias": "steak"}], "coordinates": {"longitude": -71.0680852, "latitude": 42.3507765}, "is_closed": false, "name": "Fleming's Prime Steakhouse & Wine Bar", "distance": 394.5775627716, "review_count": 560, "id": "flemings-prime-steakhouse-and-wine-bar-boston", "location": {"display_address": ["217 Stuart St", "Boston, MA 02116"], "state": "MA", "city": "Boston", "address2": "", "country": "US", "zip_code": "02116", "address1": "217 Stuart St", "address3": ""}, "url": "https://www.yelp.com/biz/flemings-prime-steakhouse-and-wine-bar-boston?adjust_creative=8_C4NSGbL05eUQksKleGYw&utm_campaign=yelp_api_v3&utm_medium=api_v3_business_search&utm_source=8_C4NSGbL05eUQksKleGYw", "transactions": ["delivery"], "phone": "+16172920808", "image_url": "https://s3-media1.fl.yelpcdn.com/bphoto/9OA-wDaHF0K7dW9gnOF5hQ/o.jpg"}, {"rating": 4.0, "display_phone": "(617) 426-7878", "price": "$$$", "categories": [{"title": "French", "alias": "french"}], "coordinates": {"longitude": -71.069533707682, "latitude": 42.351981434352}, "is_closed": false, "name": "Bistro Du Midi", "distance": 481.1804772961999, "review_count": 480, "id": "bistro-du-midi-boston", "location": {"display_address": ["272 Boylston St", "Boston, MA 02116"], "state": "MA", "city": "Boston", "address2": null, "country": "US", "zip_code": "02116", "address1": "272 Boylston St", "address3": ""}, "url": "https://www.yelp.com/biz/bistro-du-midi-boston?adjust_creative=8_C4NSGbL05eUQksKleGYw&utm_campaign=yelp_api_v3&utm_medium=api_v3_business_search&utm_source=8_C4NSGbL05eUQksKleGYw", "transactions": [], "phone": "+16174267878", "image_url": "https://s3-media1.fl.yelpcdn.com/bphoto/alh_8sWp6NIvzFMhM0-dgw/o.jpg"}, {"rating": 4.5, "display_phone": "(617) 635-4500", "categories": [{"title": "Parks", "alias": "parks"}], "coordinates": {"longitude": -71.094223, "latitude": 42.348503}, "is_closed": false, "name": "Commonwealth Avenue Mall", "distance": 724.8368546523999, "review_count": 18, "id": "commonwealth-avenue-mall-boston", "location": {"display_address": ["484 Commonwealth Ave", "Boston, MA 02116"], "state": "MA", "city": "Boston", "address2": "", "country": "US", "zip_code": "02116", "address1": "484 Commonwealth Ave", "address3": ""}, "url": "https://www.yelp.com/biz/commonwealth-avenue-mall-boston?adjust_creative=8_C4NSGbL05eUQksKleGYw&utm_campaign=yelp_api_v3&utm_medium=api_v3_business_search&utm_source=8_C4NSGbL05eUQksKleGYw", "transactions": [], "phone": "+16176354500", "image_url": "https://s3-media3.fl.yelpcdn.com/bphoto/yWYOsJq54B2k-kETfhh93g/o.jpg"}, {"rating": 4.5, "display_phone": "(617) 208-6000", "price": "$$", "categories": [{"title": "Wine Bars", "alias": "wine_bars"}], "coordinates": {"longitude": -71.0599699616432, "latitude": 42.357031032443}, "is_closed": false, "name": "haley.henry wine bar", "distance": 1400.7873031136, "review_count": 38, "id": "haley-henry-wine-bar-boston", "location": {"display_address": ["45 Province St", "Boston, MA 02108"], "state": "MA", "city": "Boston", "address2": "", "country": "US", "zip_code": "02108", "address1": "45 Province St", "address3": null}, "url": "https://www.yelp.com/biz/haley-henry-wine-bar-boston?adjust_creative=8_C4NSGbL05eUQksKleGYw&utm_campaign=yelp_api_v3&utm_medium=api_v3_business_search&utm_source=8_C4NSGbL05eUQksKleGYw", "transactions": [], "phone": "+16172086000", "image_url": "https://s3-media2.fl.yelpcdn.com/bphoto/D9IgObQrxbMpxP3qTk62sQ/o.jpg"}, {"rating": 4.0, "display_phone": "(857) 350-3968", "price": "$$", "categories": [{"title": "Chinese", "alias": "chinese"}, {"title": "Sushi Bars", "alias": "sushi"}, {"title": "Hot Pot", "alias": "hotpot"}], "coordinates": {"longitude": -71.062679301879, "latitude": 42.351812533351}, "is_closed": false, "name": "Q Restaurant", "distance": 830.56267126, "review_count": 651, "id": "q-restaurant-boston", "location": {"display_address": ["660 Washington St", "Boston, MA 02111"], "state": "MA", "city": "Boston", "address2": "", "country": "US", "zip_code": "02111", "address1": "660 Washington St", "address3": ""}, "url": "https://www.yelp.com/biz/q-restaurant-boston?adjust_creative=8_C4NSGbL05eUQksKleGYw&utm_campaign=yelp_api_v3&utm_medium=api_v3_business_search&utm_source=8_C4NSGbL05eUQksKleGYw", "transactions": ["delivery"], "phone": "+18573503968", "image_url": "https://s3-media2.fl.yelpcdn.com/bphoto/jkO_YpeQOQAowJLPId0wSQ/o.jpg"}, {"rating": 4.0, "display_phone": "(617) 523-8567", "price": "$$", "categories": [{"title": "Italian", "alias": "italian"}, {"title": "Seafood", "alias": "seafood"}], "coordinates": {"longitude": -71.05397, "latitude": 42.36406}, "is_closed": false, "name": "The Daily Catch", "distance": 2295.082027076, "review_count": 1136, "id": "the-daily-catch-boston", "location": {"display_address": ["323 Hanover St", "Boston, MA 02113"], "state": "MA", "city": "Boston", "address2": "", "country": "US", "zip_code": "02113", "address1": "323 Hanover St", "address3": ""}, "url": "https://www.yelp.com/biz/the-daily-catch-boston?adjust_creative=8_C4NSGbL05eUQksKleGYw&utm_campaign=yelp_api_v3&utm_medium=api_v3_business_search&utm_source=8_C4NSGbL05eUQksKleGYw", "transactions": [], "phone": "+16175238567", "image_url": "https://s3-media1.fl.yelpcdn.com/bphoto/PHZBVnfO-DgsyDPt7zQ--w/o.jpg"}, {"rating": 4.0, "display_phone": "(617) 338-5333", "price": "$$", "categories": [{"title": "American (New)", "alias": "newamerican"}, {"title": "Lounges", "alias": "lounges"}], "coordinates": {"longitude": -71.0623372441206, "latitude": 42.3552425760626}, "is_closed": false, "name": "Jm Curley", "distance": 1101.125394862, "review_count": 595, "id": "jm-curley-boston", "location": {"display_address": ["21 Temple Pl", "Boston, MA 02111"], "state": "MA", "city": "Boston", "address2": null, "country": "US", "zip_code": "02111", "address1": "21 Temple Pl", "address3": ""}, "url": "https://www.yelp.com/biz/jm-curley-boston?adjust_creative=8_C4NSGbL05eUQksKleGYw&utm_campaign=yelp_api_v3&utm_medium=api_v3_business_search&utm_source=8_C4NSGbL05eUQksKleGYw", "transactions": [], "phone": "+16173385333", "image_url": "https://s3-media2.fl.yelpcdn.com/bphoto/HYp4UnWHRQ2mSxsUyY7tYQ/o.jpg"}, {"rating": 4.0, "display_phone": "(617) 523-0077", "price": "$$$", "categories": [{"title": "Italian", "alias": "italian"}], "coordinates": {"longitude": -71.0533338, "latitude": 42.3640543}, "is_closed": false, "name": "Mamma Maria", "distance": 2326.962247806, "review_count": 460, "id": "mamma-maria-boston", "location": {"display_address": ["3 N Square", "Boston, MA 02113"], "state": "MA", "city": "Boston", "address2": "", "country": "US", "zip_code": "02113", "address1": "3 N Square", "address3": ""}, "url": "https://www.yelp.com/biz/mamma-maria-boston?adjust_creative=8_C4NSGbL05eUQksKleGYw&utm_campaign=yelp_api_v3&utm_medium=api_v3_business_search&utm_source=8_C4NSGbL05eUQksKleGYw", "transactions": [], "phone": "+16175230077", "image_url": "https://s3-media4.fl.yelpcdn.com/bphoto/bA5GTg9lasqlhHu-4h-QKA/o.jpg"}, {"rating": 4.0, "display_phone": "(857) 277-1914", "price": "$$", "categories": [{"title": "Coffee & Tea", "alias": "coffee"}], "coordinates": {"longitude": -71.0486984, "latitude": 42.3506966}, "is_closed": false, "name": "Barrington Coffee Roasting Company", "distance": 1877.9452833599998, "review_count": 149, "id": "barrington-coffee-roasting-company-boston", "location": {"display_address": ["346 Congress St", "Boston, MA 02210"], "state": "MA", "city": "Boston", "address2": "", "country": "US", "zip_code": "02210", "address1": "346 Congress St", "address3": ""}, "url": "https://www.yelp.com/biz/barrington-coffee-roasting-company-boston?adjust_creative=8_C4NSGbL05eUQksKleGYw&utm_campaign=yelp_api_v3&utm_medium=api_v3_business_search&utm_source=8_C4NSGbL05eUQksKleGYw", "transactions": [], "phone": "+18572771914", "image_url": "https://s3-media3.fl.yelpcdn.com/bphoto/zLfJZbdFO6NMHK3-ePssDQ/o.jpg"}, {"rating": 4.5, "display_phone": "(617) 418-5234", "price": "$$", "categories": [{"title": "Australian", "alias": "australian"}, {"title": "Bars", "alias": "bars"}, {"title": "Seafood", "alias": "seafood"}], "coordinates": {"longitude": -71.0316231238073, "latitude": 42.364075640365}, "is_closed": false, "name": "KO Pies At the Shipyard", "distance": 3722.365439576, "review_count": 191, "id": "ko-pies-at-the-shipyard-boston", "location": {"display_address": ["256 Marginal St", "Bldg 16", "Boston, MA 02128"], "state": "MA", "city": "Boston", "address2": "Bldg 16", "country": "US", "zip_code": "02128", "address1": "256 Marginal St", "address3": ""}, "url": "https://www.yelp.com/biz/ko-pies-at-the-shipyard-boston?adjust_creative=8_C4NSGbL05eUQksKleGYw&utm_campaign=yelp_api_v3&utm_medium=api_v3_business_search&utm_source=8_C4NSGbL05eUQksKleGYw", "transactions": [], "phone": "+16174185234", "image_url": "https://s3-media2.fl.yelpcdn.com/bphoto/Ji0Ql0RpTklC8j_aFi7PQg/o.jpg"}, {"rating": 4.5, "display_phone": "", "price": "$", "categories": [{"title": "Greek", "alias": "greek"}], "coordinates": {"longitude": -71.0553207, "latitude": 42.3592415}, "is_closed": false, "name": "Zo", "distance": 1819.7906559219998, "review_count": 88, "id": "zo-boston-2", "location": {"display_address": ["Merchants Row Entrance", "92 State St", "Boston, MA 02109"], "state": "MA", "city": "Boston", "address2": "92 State St", "country": "US", "zip_code": "02109", "address1": "Merchants Row Entrance", "address3": ""}, "url": "https://www.yelp.com/biz/zo-boston-2?adjust_creative=8_C4NSGbL05eUQksKleGYw&utm_campaign=yelp_api_v3&utm_medium=api_v3_business_search&utm_source=8_C4NSGbL05eUQksKleGYw", "transactions": [], "phone": "", "image_url": "https://s3-media1.fl.yelpcdn.com/bphoto/Q2Esq2Aj8s2M7rMDNuts5g/o.jpg"}, {"rating": 4.0, "display_phone": "(617) 536-2632", "price": "$$", "categories": [{"title": "American (New)", "alias": "newamerican"}, {"title": "Burgers", "alias": "burgers"}, {"title": "Cocktail Bars", "alias": "cocktailbars"}], "coordinates": {"longitude": -71.0750068, "latitude": 42.3462394}, "is_closed": false, "name": "Coda", "distance": 356.7731683808, "review_count": 528, "id": "coda-boston", "location": {"display_address": ["329 Columbus Ave", "Boston, MA 02116"], "state": "MA", "city": "Boston", "address2": "", "country": "US", "zip_code": "02116", "address1": "329 Columbus Ave", "address3": ""}, "url": "https://www.yelp.com/biz/coda-boston?adjust_creative=8_C4NSGbL05eUQksKleGYw&utm_campaign=yelp_api_v3&utm_medium=api_v3_business_search&utm_source=8_C4NSGbL05eUQksKleGYw", "transactions": [], "phone": "+16175362632", "image_url": "https://s3-media2.fl.yelpcdn.com/bphoto/fbxt7WOWg-Wbm3t3TvZSLQ/o.jpg"}, {"rating": 4.0, "display_phone": "(617) 338-5258", "price": "$$", "categories": [{"title": "Bars", "alias": "bars"}, {"title": "American (Traditional)", "alias": "tradamerican"}], "coordinates": {"longitude": -71.07289, "latitude": 42.34628}, "is_closed": false, "name": "Delux Caf\u00e9", "distance": 224.323729991, "review_count": 275, "id": "delux-caf\u00e9-boston-2", "location": {"display_address": ["100 Chandler St", "Boston, MA 02116"], "state": "MA", "city": "Boston", "address2": "", "country": "US", "zip_code": "02116", "address1": "100 Chandler St", "address3": ""}, "url": "https://www.yelp.com/biz/delux-caf%C3%A9-boston-2?adjust_creative=8_C4NSGbL05eUQksKleGYw&utm_campaign=yelp_api_v3&utm_medium=api_v3_business_search&utm_source=8_C4NSGbL05eUQksKleGYw", "transactions": [], "phone": "+16173385258", "image_url": "https://s3-media2.fl.yelpcdn.com/bphoto/WYE1baX6Om69YT_QzVnqmg/o.jpg"}, {"rating": 4.5, "display_phone": "(617) 248-1520", "price": "$", "categories": [{"title": "Sandwiches", "alias": "sandwiches"}, {"title": "Delis", "alias": "delis"}], "coordinates": {"longitude": -71.0593948, "latitude": 42.3641167}, "is_closed": false, "name": "Mulligans", "distance": 2068.311537016, "review_count": 87, "id": "mulligans-boston", "location": {"display_address": ["83 Canal St", "Boston, MA 02114"], "state": "MA", "city": "Boston", "address2": "", "country": "US", "zip_code": "02114", "address1": "83 Canal St", "address3": ""}, "url": "https://www.yelp.com/biz/mulligans-boston?adjust_creative=8_C4NSGbL05eUQksKleGYw&utm_campaign=yelp_api_v3&utm_medium=api_v3_business_search&utm_source=8_C4NSGbL05eUQksKleGYw", "transactions": [], "phone": "+16172481520", "image_url": "https://s3-media4.fl.yelpcdn.com/bphoto/15cPPLwJD_SW4wJ2RY-oQQ/o.jpg"}, {"rating": 4.0, "display_phone": "(617) 720-0052", "price": "$$$", "categories": [{"title": "Latin American", "alias": "latin"}, {"title": "Italian", "alias": "italian"}], "coordinates": {"longitude": -71.0555801, "latitude": 42.363031}, "is_closed": false, "name": "Taranta Cucina Meridionale", "distance": 2123.205802548, "review_count": 416, "id": "taranta-cucina-meridionale-boston", "location": {"display_address": ["210 Hanover St", "Boston, MA 02113"], "state": "MA", "city": "Boston", "address2": "", "country": "US", "zip_code": "02113", "address1": "210 Hanover St", "address3": ""}, "url": "https://www.yelp.com/biz/taranta-cucina-meridionale-boston?adjust_creative=8_C4NSGbL05eUQksKleGYw&utm_campaign=yelp_api_v3&utm_medium=api_v3_business_search&utm_source=8_C4NSGbL05eUQksKleGYw", "transactions": [], "phone": "+16177200052", "image_url": "https://s3-media3.fl.yelpcdn.com/bphoto/Paw0IXZ9p9iOfy6KvCdPRw/o.jpg"}, {"rating": 4.0, "display_phone": "(617) 536-2020", "price": "$$", "categories": [{"title": "Italian", "alias": "italian"}], "coordinates": {"longitude": -71.0812225341797, "latitude": 42.3496932983398}, "is_closed": false, "name": "Piattini", "distance": 847.2326977819998, "review_count": 578, "id": "piattini-boston-3", "location": {"display_address": ["226 Newbury St", "Boston, MA 02116"], "state": "MA", "city": "Boston", "address2": "", "country": "US", "zip_code": "02116", "address1": "226 Newbury St", "address3": ""}, "url": "https://www.yelp.com/biz/piattini-boston-3?adjust_creative=8_C4NSGbL05eUQksKleGYw&utm_campaign=yelp_api_v3&utm_medium=api_v3_business_search&utm_source=8_C4NSGbL05eUQksKleGYw", "transactions": [], "phone": "+16175362020", "image_url": "https://s3-media1.fl.yelpcdn.com/bphoto/YV6OgWTwoenEcRJ5rFHQTg/o.jpg"}, {"rating": 4.5, "display_phone": "(617) 572-3300", "price": "$$", "categories": [{"title": "Greek", "alias": "greek"}, {"title": "Salad", "alias": "salad"}, {"title": "Sandwiches", "alias": "sandwiches"}], "coordinates": {"longitude": -71.0816971, "latitude": 42.3500454}, "is_closed": false, "name": "Gre.Co", "distance": 893.1475542236, "review_count": 50, "id": "gre-co-boston-2", "location": {"display_address": ["225 Newbury St", "Boston, MA 02116"], "state": "MA", "city": "Boston", "address2": "", "country": "US", "zip_code": "02116", "address1": "225 Newbury St", "address3": null}, "url": "https://www.yelp.com/biz/gre-co-boston-2?adjust_creative=8_C4NSGbL05eUQksKleGYw&utm_campaign=yelp_api_v3&utm_medium=api_v3_business_search&utm_source=8_C4NSGbL05eUQksKleGYw", "transactions": [], "phone": "+16175723300", "image_url": "https://s3-media2.fl.yelpcdn.com/bphoto/fPSvDyJurrHTmZ6QDtLmfQ/o.jpg"}, {"rating": 4.0, "display_phone": "(617) 357-5262", "price": "$", "categories": [{"title": "Cantonese", "alias": "cantonese"}], "coordinates": {"longitude": -71.0604549, "latitude": 42.3504982}, "is_closed": false, "name": "Clay Pot Cafe", "distance": 934.4069440999999, "review_count": 117, "id": "clay-pot-cafe-boston", "location": {"display_address": ["74 Kneeland St", "Boston, MA 02111"], "state": "MA", "city": "Boston", "address2": "", "country": "US", "zip_code": "02111", "address1": "74 Kneeland St", "address3": ""}, "url": "https://www.yelp.com/biz/clay-pot-cafe-boston?adjust_creative=8_C4NSGbL05eUQksKleGYw&utm_campaign=yelp_api_v3&utm_medium=api_v3_business_search&utm_source=8_C4NSGbL05eUQksKleGYw", "transactions": [], "phone": "+16173575262", "image_url": "https://s3-media3.fl.yelpcdn.com/bphoto/CJ4n9i3dJZfP81xjBuhRxg/o.jpg"}, {"rating": 4.0, "display_phone": "(617) 338-5656", "price": "$$", "categories": [{"title": "Irish", "alias": "irish"}, {"title": "Music Venues", "alias": "musicvenues"}, {"title": "Pubs", "alias": "pubs"}], "coordinates": {"longitude": -71.0536599, "latitude": 42.35765}, "is_closed": false, "name": "Mr. Dooley's", "distance": 1809.905124038, "review_count": 316, "id": "mr-dooleys-boston", "location": {"display_address": ["77 Broad St", "Boston, MA 02109"], "state": "MA", "city": "Boston", "address2": "", "country": "US", "zip_code": "02109", "address1": "77 Broad St", "address3": ""}, "url": "https://www.yelp.com/biz/mr-dooleys-boston?adjust_creative=8_C4NSGbL05eUQksKleGYw&utm_campaign=yelp_api_v3&utm_medium=api_v3_business_search&utm_source=8_C4NSGbL05eUQksKleGYw", "transactions": [], "phone": "+16173385656", "image_url": "https://s3-media4.fl.yelpcdn.com/bphoto/WggOb4lGky1cJ_5gAPUD3g/o.jpg"}, {"rating": 4.0, "display_phone": "(617) 542-2255", "price": "$$$$", "categories": [{"title": "Seafood", "alias": "seafood"}, {"title": "Steakhouses", "alias": "steak"}, {"title": "Wine Bars", "alias": "wine_bars"}], "coordinates": {"longitude": -71.0720500564835, "latitude": 42.3494218727725}, "is_closed": false, "name": "Grill 23 & Bar", "distance": 187.76362900799998, "review_count": 770, "id": "grill-23-and-bar-boston", "location": {"display_address": ["161 Berkeley St", "Boston, MA 02116"], "state": "MA", "city": "Boston", "address2": "", "country": "US", "zip_code": "02116", "address1": "161 Berkeley St", "address3": ""}, "url": "https://www.yelp.com/biz/grill-23-and-bar-boston?adjust_creative=8_C4NSGbL05eUQksKleGYw&utm_campaign=yelp_api_v3&utm_medium=api_v3_business_search&utm_source=8_C4NSGbL05eUQksKleGYw", "transactions": [], "phone": "+16175422255", "image_url": "https://s3-media3.fl.yelpcdn.com/bphoto/yV_WeiE7Fik1KsPXsyACIw/o.jpg"}], "total": 24769}