{"region": {"center": {"longitude": -71.07124328613281, "latitude": 42.34784169448538}}, "businesses": [{"rating": 4.0, "display_phone": "(617) 742-4441", "price": "$$", "categories": [{"title": "Seafood", "alias": "seafood"}], "coordinates": {"longitude": -71.055152437753, "latitude": 42.360156558668}, "is_closed": false, "name": "Boston Chowda Co.", "distance": 1903.4150200679999, "review_count": 663, "id": "boston-chowda-co-boston-3", "location": {"display_address": ["1 Faneuil Hall Market Pl", "Boston, MA 02109"], "state": "MA", "city": "Boston", "address2": "", "country": "US", "zip_code": "02109", "address1": "1 Faneuil Hall Market Pl", "address3": ""}, "url": "https://www.yelp.com/biz/boston-chowda-co-boston-3?adjust_creative=8_C4NSGbL05eUQksKleGYw&utm_campaign=yelp_api_v3&utm_medium=api_v3_business_search&utm_source=8_C4NSGbL05eUQksKleGYw", "transactions": ["delivery"], "phone": "+16177424441", "image_url": "https://s3-media3.fl.yelpcdn.com/bphoto/sMlMvZ4BfbANhLUhOdO3mg/o.jpg"}, {"rating": 4.5, "display_phone": "", "categories": [{"title": "Local Flavor", "alias": "localflavor"}], "coordinates": {"longitude": -71.06434, "latitude": 42.36335}, "is_closed": false, "name": "Beacon Hill", "distance": 2014.699110794, "review_count": 41, "id": "beacon-hill-boston", "location": {"display_address": ["Boston, MA 02114"], "state": "MA", "city": "Boston", "address2": null, "country": "US", "zip_code": "02114", "address1": null, "address3": ""}, "url": "https://www.yelp.com/biz/beacon-hill-boston?adjust_creative=8_C4NSGbL05eUQksKleGYw&utm_campaign=yelp_api_v3&utm_medium=api_v3_business_search&utm_source=8_C4NSGbL05eUQksKleGYw", "transactions": [], "phone": "", "image_url": "https://s3-media1.fl.yelpcdn.com/bphoto/GfPcFJbGXF1rEvS_nX6Xmw/o.jpg"}, {"rating": 4.0, "display_phone": "(617) 482-1888", "price": "$", "categories": [{"title": "Chinese", "alias": "chinese"}, {"title": "Noodles", "alias": "noodles"}], "coordinates": {"longitude": -71.0595619, "latitude": 42.3534194}, "is_closed": false, "name": "Gene's Chinese Flatbread Cafe", "distance": 1142.777528072, "review_count": 186, "id": "genes-chinese-flatbread-cafe-boston", "location": {"display_address": ["86 Bedford St", "Boston, MA 02111"], "state": "MA", "city": "Boston", "address2": "", "country": "US", "zip_code": "02111", "address1": "86 Bedford St", "address3": ""}, "url": "https://www.yelp.com/biz/genes-chinese-flatbread-cafe-boston?adjust_creative=8_C4NSGbL05eUQksKleGYw&utm_campaign=yelp_api_v3&utm_medium=api_v3_business_search&utm_source=8_C4NSGbL05eUQksKleGYw", "transactions": [], "phone": "+16174821888", "image_url": "https://s3-media1.fl.yelpcdn.com/bphoto/wZ-d_J7SP9FvvFlt309seA/o.jpg"}, {"rating": 4.0, "display_phone": "(857) 244-1174", "price": "$", "categories": [{"title": "Food Stands", "alias": "foodstands"}, {"title": "Armenian", "alias": "armenian"}], "coordinates": {"longitude": -71.0597632, "latitude": 42.3549525}, "is_closed": false, "name": "Karo's BBQ", "distance": 1231.039527296, "review_count": 57, "id": "karos-bbq-boston-2", "location": {"display_address": ["1 Washington Mall", "Boston, MA 02110"], "state": "MA", "city": "Boston", "address2": "", "country": "US", "zip_code": "02110", "address1": "1 Washington Mall", "address3": ""}, "url": "https://www.yelp.com/biz/karos-bbq-boston-2?adjust_creative=8_C4NSGbL05eUQksKleGYw&utm_campaign=yelp_api_v3&utm_medium=api_v3_business_search&utm_source=8_C4NSGbL05eUQksKleGYw", "transactions": [], "phone": "+18572441174", "image_url": "https://s3-media3.fl.yelpcdn.com/bphoto/sJz2SwUF2Lh-xC9gJWQREw/o.jpg"}, {"rating": 4.0, "display_phone": "(617) 227-7280", "price": "$$", "categories": [{"title": "Bars", "alias": "bars"}, {"title": "American (Traditional)", "alias": "tradamerican"}], "coordinates": {"longitude": -71.050748116975, "latitude": 42.362543759667}, "is_closed": false, "name": "Boston Sail Loft", "distance": 2346.905671888, "review_count": 356, "id": "boston-sail-loft-boston", "location": {"display_address": ["80 Atlantic Ave", "Boston, MA 02110"], "state": "MA", "city": "Boston", "address2": "", "country": "US", "zip_code": "02110", "address1": "80 Atlantic Ave", "address3": ""}, "url": "https://www.yelp.com/biz/boston-sail-loft-boston?adjust_creative=8_C4NSGbL05eUQksKleGYw&utm_campaign=yelp_api_v3&utm_medium=api_v3_business_search&utm_source=8_C4NSGbL05eUQksKleGYw", "transactions": [], "phone": "+16172277280", "image_url": "https://s3-media2.fl.yelpcdn.com/bphoto/jddeJbF4o6MWkZfPvatOkw/o.jpg"}, {"rating": 4.5, "display_phone": "(617) 727-7030", "categories": [{"title": "Landmarks & Historical Buildings", "alias": "landmarks"}], "coordinates": {"longitude": -71.0636807080273, "latitude": 42.358169210446}, "is_closed": false, "name": "Massachusetts State House", "distance": 1305.5507461976, "review_count": 38, "id": "massachusetts-state-house-boston", "location": {"display_address": ["24 Beacon St", "Boston, MA 02133"], "state": "MA", "city": "Boston", "address2": "", "country": "US", "zip_code": "02133", "address1": "24 Beacon St", "address3": ""}, "url": "https://www.yelp.com/biz/massachusetts-state-house-boston?adjust_creative=8_C4NSGbL05eUQksKleGYw&utm_campaign=yelp_api_v3&utm_medium=api_v3_business_search&utm_source=8_C4NSGbL05eUQksKleGYw", "transactions": [], "phone": "+16177277030", "image_url": "https://s3-media2.fl.yelpcdn.com/bphoto/lfOquQrQEu4zq_5EXktqGA/o.jpg"}, {"rating": 4.0, "display_phone": "(617) 536-0448", "price": "$", "categories": [{"title": "Burgers", "alias": "burgers"}, {"title": "Fast Food", "alias": "hotdogs"}, {"title": "Sandwiches", "alias": "sandwiches"}], "coordinates": {"longitude": -71.09527, "latitude": 42.34957}, "is_closed": false, "name": "Uburger", "distance": 1984.55923034, "review_count": 404, "id": "uburger-boston", "location": {"display_address": ["Kenmore Sq", "636 Beacon St", "Boston, MA 02215"], "state": "MA", "city": "Boston", "address2": "636 Beacon St", "country": "US", "zip_code": "02215", "address1": "Kenmore Sq", "address3": ""}, "url": "https://www.yelp.com/biz/uburger-boston?adjust_creative=8_C4NSGbL05eUQksKleGYw&utm_campaign=yelp_api_v3&utm_medium=api_v3_business_search&utm_source=8_C4NSGbL05eUQksKleGYw", "transactions": ["pickup"], "phone": "+16175360448", "image_url": "https://s3-media3.fl.yelpcdn.com/bphoto/MlsvOSsHFIMUbjPmP_09zw/o.jpg"}, {"rating": 4.0, "display_phone": "(617) 227-7606", "price": "$", "categories": [{"title": "Coffee & Tea", "alias": "coffee"}, {"title": "Italian", "alias": "italian"}], "coordinates": {"longitude": -71.05448, "latitude": 42.36418}, "is_closed": false, "name": "Caff\u00e9 Vittoria", "distance": 2278.90268832, "review_count": 645, "id": "caff\u00e9-vittoria-boston-3", "location": {"display_address": ["296 Hanover St", "Boston, MA 02113"], "state": "MA", "city": "Boston", "address2": "", "country": "US", "zip_code": "02113", "address1": "296 Hanover St", "address3": ""}, "url": "https://www.yelp.com/biz/caff%C3%A9-vittoria-boston-3?adjust_creative=8_C4NSGbL05eUQksKleGYw&utm_campaign=yelp_api_v3&utm_medium=api_v3_business_search&utm_source=8_C4NSGbL05eUQksKleGYw", "transactions": [], "phone": "+16172277606", "image_url": "https://s3-media1.fl.yelpcdn.com/bphoto/3xTVcBhCaLteaYyuS2Emhw/o.jpg"}, {"rating": 4.0, "display_phone": "(617) 266-6662", "price": "$$", "categories": [{"title": "Pubs", "alias": "pubs"}, {"title": "American (Traditional)", "alias": "tradamerican"}], "coordinates": {"longitude": -71.093849, "latitude": 42.34851}, "is_closed": false, "name": "The Lower Depths", "distance": 1859.027813528, "review_count": 425, "id": "the-lower-depths-boston", "location": {"display_address": ["476 Commonwealth Ave", "Boston, MA 02115"], "state": "MA", "city": "Boston", "address2": "", "country": "US", "zip_code": "02115", "address1": "476 Commonwealth Ave", "address3": ""}, "url": "https://www.yelp.com/biz/the-lower-depths-boston?adjust_creative=8_C4NSGbL05eUQksKleGYw&utm_campaign=yelp_api_v3&utm_medium=api_v3_business_search&utm_source=8_C4NSGbL05eUQksKleGYw", "transactions": [], "phone": "+16172666662", "image_url": "https://s3-media2.fl.yelpcdn.com/bphoto/VkPW9zm0971k0LxUR2DSwQ/o.jpg"}, {"rating": 4.0, "display_phone": "(617) 425-4444", "price": "$", "categories": [{"title": "Burgers", "alias": "burgers"}, {"title": "Hot Dogs", "alias": "hotdog"}, {"title": "Fast Food", "alias": "hotdogs"}], "coordinates": {"longitude": -71.0979707, "latitude": 42.3446525}, "is_closed": false, "name": "Tasty Burger", "distance": 2259.364978852, "review_count": 854, "id": "tasty-burger-boston", "location": {"display_address": ["1301 Boylston St", "Boston, MA 02215"], "state": "MA", "city": "Boston", "address2": "", "country": "US", "zip_code": "02215", "address1": "1301 Boylston St", "address3": ""}, "url": "https://www.yelp.com/biz/tasty-burger-boston?adjust_creative=8_C4NSGbL05eUQksKleGYw&utm_campaign=yelp_api_v3&utm_medium=api_v3_business_search&utm_source=8_C4NSGbL05eUQksKleGYw", "transactions": [], "phone": "+16174254444", "image_url": "https://s3-media4.fl.yelpcdn.com/bphoto/gjlIvYF8tUy1hDEcXM5N5w/o.jpg"}, {"rating": 4.0, "display_phone": "(617) 477-5828", "price": "$$", "categories": [{"title": "Chinese", "alias": "chinese"}], "coordinates": {"longitude": -71.0602569580078, "latitude": 42.3507995605469}, "is_closed": false, "name": "BLR By Shojo", "distance": 955.7184681159999, "review_count": 158, "id": "blr-by-shojo-boston-2", "location": {"display_address": ["13A Hudson St", "Boston, MA 02111"], "state": "MA", "city": "Boston", "address2": "", "country": "US", "zip_code": "02111", "address1": "13A Hudson St", "address3": ""}, "url": "https://www.yelp.com/biz/blr-by-shojo-boston-2?adjust_creative=8_C4NSGbL05eUQksKleGYw&utm_campaign=yelp_api_v3&utm_medium=api_v3_business_search&utm_source=8_C4NSGbL05eUQksKleGYw", "transactions": [], "phone": "+16174775828", "image_url": "https://s3-media4.fl.yelpcdn.com/bphoto/70FOahAHIHT7UmUH6U7GWQ/o.jpg"}, {"rating": 4.0, "display_phone": "(617) 692-8888", "price": "$$$", "categories": [{"title": "Seafood", "alias": "seafood"}, {"title": "Italian", "alias": "italian"}], "coordinates": {"longitude": -71.06201, "latitude": 42.35338}, "is_closed": false, "name": "Legal Crossing", "distance": 987.939305657, "review_count": 239, "id": "legal-crossing-boston", "location": {"display_address": ["558 Washington St", "Boston, MA 02111"], "state": "MA", "city": "Boston", "address2": "", "country": "US", "zip_code": "02111", "address1": "558 Washington St", "address3": ""}, "url": "https://www.yelp.com/biz/legal-crossing-boston?adjust_creative=8_C4NSGbL05eUQksKleGYw&utm_campaign=yelp_api_v3&utm_medium=api_v3_business_search&utm_source=8_C4NSGbL05eUQksKleGYw", "transactions": [], "phone": "+16176928888", "image_url": "https://s3-media2.fl.yelpcdn.com/bphoto/zVxGtD3zCLyK5NvT9K_nrg/o.jpg"}, {"rating": 4.0, "display_phone": "(857) 233-4094", "price": "$$", "categories": [{"title": "Wine Bars", "alias": "wine_bars"}, {"title": "Coffee & Tea", "alias": "coffee"}], "coordinates": {"longitude": -71.06322, "latitude": 42.35183}, "is_closed": false, "name": "Jaho Coffee Roaster & Wine Bar", "distance": 804.6256304962, "review_count": 154, "id": "jaho-coffee-roaster-and-wine-bar-boston", "location": {"display_address": ["665 Washington St", "Boston, MA 02116"], "state": "MA", "city": "Boston", "address2": null, "country": "US", "zip_code": "02116", "address1": "665 Washington St", "address3": ""}, "url": "https://www.yelp.com/biz/jaho-coffee-roaster-and-wine-bar-boston?adjust_creative=8_C4NSGbL05eUQksKleGYw&utm_campaign=yelp_api_v3&utm_medium=api_v3_business_search&utm_source=8_C4NSGbL05eUQksKleGYw", "transactions": [], "phone": "+18572334094", "image_url": "https://s3-media1.fl.yelpcdn.com/bphoto/o6HeGLHndlvQcaPP4Pjijw/o.jpg"}, {"rating": 4.0, "display_phone": "(617) 670-1345", "price": "$$$", "categories": [{"title": "Seafood", "alias": "seafood"}, {"title": "Steakhouses", "alias": "steak"}, {"title": "American (New)", "alias": "newamerican"}], "coordinates": {"longitude": -71.0440584272146, "latitude": 42.3511248081923}, "is_closed": false, "name": "Ocean Prime", "distance": 2316.5903733739997, "review_count": 162, "id": "ocean-prime-boston-2", "location": {"display_address": ["140 Seaport Blvd", "Boston, MA 02210"], "state": "MA", "city": "Boston", "address2": "", "country": "US", "zip_code": "02210", "address1": "140 Seaport Blvd", "address3": ""}, "url": "https://www.yelp.com/biz/ocean-prime-boston-2?adjust_creative=8_C4NSGbL05eUQksKleGYw&utm_campaign=yelp_api_v3&utm_medium=api_v3_business_search&utm_source=8_C4NSGbL05eUQksKleGYw", "transactions": [], "phone": "+16176701345", "image_url": "https://s3-media4.fl.yelpcdn.com/bphoto/rnYw6gxRPn3YTvof-8elqg/o.jpg"}, {"rating": 4.0, "display_phone": "(617) 536-7669", "price": "$", "categories": [{"title": "Sandwiches", "alias": "sandwiches"}, {"title": "Breakfast & Brunch", "alias": "breakfast_brunch"}, {"title": "Diners", "alias": "diners"}], "coordinates": {"longitude": -71.077773, "latitude": 42.344109}, "is_closed": false, "name": "Charlie's Sandwich Shoppe", "distance": 678.610880602, "review_count": 231, "id": "charlies-sandwich-shoppe-boston", "location": {"display_address": ["429 Columbus Ave", "Boston, MA 02116"], "state": "MA", "city": "Boston", "address2": "", "country": "US", "zip_code": "02116", "address1": "429 Columbus Ave", "address3": ""}, "url": "https://www.yelp.com/biz/charlies-sandwich-shoppe-boston?adjust_creative=8_C4NSGbL05eUQksKleGYw&utm_campaign=yelp_api_v3&utm_medium=api_v3_business_search&utm_source=8_C4NSGbL05eUQksKleGYw", "transactions": [], "phone": "+16175367669", "image_url": "https://s3-media4.fl.yelpcdn.com/bphoto/YPcRPT694ymmp1jCvpxlVw/o.jpg"}, {"rating": 4.0, "display_phone": "(857) 350-3344", "price": "$$", "categories": [{"title": "American (New)", "alias": "newamerican"}, {"title": "Bars", "alias": "bars"}], "coordinates": {"longitude": -71.063986, "latitude": 42.36105}, "is_closed": false, "name": "The Tip Tap Room", "distance": 1584.90619545, "review_count": 492, "id": "the-tip-tap-room-boston", "location": {"display_address": ["138 Cambridge St", "Boston, MA 02114"], "state": "MA", "city": "Boston", "address2": "", "country": "US", "zip_code": "02114", "address1": "138 Cambridge St", "address3": ""}, "url": "https://www.yelp.com/biz/the-tip-tap-room-boston?adjust_creative=8_C4NSGbL05eUQksKleGYw&utm_campaign=yelp_api_v3&utm_medium=api_v3_business_search&utm_source=8_C4NSGbL05eUQksKleGYw", "transactions": [], "phone": "+18573503344", "image_url": "https://s3-media1.fl.yelpcdn.com/bphoto/F-q37O7201QO8CO0dZ7jcQ/o.jpg"}, {"rating": 4.0, "display_phone": "(617) 236-1500", "price": "$", "categories": [{"title": "Coffee & Tea", "alias": "coffee"}, {"title": "Sandwiches", "alias": "sandwiches"}, {"title": "Bagels", "alias": "bagels"}], "coordinates": {"longitude": -71.0884725931989, "latitude": 42.3469565156457}, "is_closed": false, "name": "Pavement Coffeehouse", "distance": 1419.1657406059999, "review_count": 329, "id": "pavement-coffeehouse-boston", "location": {"display_address": ["1096 Boylston St", "Boston, MA 02215"], "state": "MA", "city": "Boston", "address2": "", "country": "US", "zip_code": "02215", "address1": "1096 Boylston St", "address3": ""}, "url": "https://www.yelp.com/biz/pavement-coffeehouse-boston?adjust_creative=8_C4NSGbL05eUQksKleGYw&utm_campaign=yelp_api_v3&utm_medium=api_v3_business_search&utm_source=8_C4NSGbL05eUQksKleGYw", "transactions": [], "phone": "+16172361500", "image_url": "https://s3-media1.fl.yelpcdn.com/bphoto/dO9gTYfKWHVD0pvTZpJ2-A/o.jpg"}, {"rating": 4.5, "display_phone": "(617) 265-7067", "price": "$", "categories": [{"title": "Spanish", "alias": "spanish"}, {"title": "Dominican", "alias": "dominican"}, {"title": "Puerto Rican", "alias": "puertorican"}], "coordinates": {"longitude": -71.0663495957851, "latitude": 42.3176535218954}, "is_closed": false, "name": "Paraiso Restaurant", "distance": 3376.8324167439996, "review_count": 58, "id": "paraiso-restaurant-boston", "location": {"display_address": ["750 Dudley St", "Boston, MA 02125"], "state": "MA", "city": "Boston", "address2": "", "country": "US", "zip_code": "02125", "address1": "750 Dudley St", "address3": ""}, "url": "https://www.yelp.com/biz/paraiso-restaurant-boston?adjust_creative=8_C4NSGbL05eUQksKleGYw&utm_campaign=yelp_api_v3&utm_medium=api_v3_business_search&utm_source=8_C4NSGbL05eUQksKleGYw", "transactions": [], "phone": "+16172657067", "image_url": "https://s3-media4.fl.yelpcdn.com/bphoto/BTr6VyHF7n2_QYIklT7EnQ/o.jpg"}, {"rating": 3.5, "display_phone": "(617) 266-4600", "price": "$$", "categories": [{"title": "Bars", "alias": "bars"}, {"title": "American (Traditional)", "alias": "tradamerican"}, {"title": "Breakfast & Brunch", "alias": "breakfast_brunch"}], "coordinates": {"longitude": -71.0754318237305, "latitude": 42.3422470092773}, "is_closed": false, "name": "Tremont 647", "distance": 711.1315864651999, "review_count": 684, "id": "tremont-647-boston", "location": {"display_address": ["647 Tremont St", "Boston, MA 02118"], "state": "MA", "city": "Boston", "address2": "", "country": "US", "zip_code": "02118", "address1": "647 Tremont St", "address3": ""}, "url": "https://www.yelp.com/biz/tremont-647-boston?adjust_creative=8_C4NSGbL05eUQksKleGYw&utm_campaign=yelp_api_v3&utm_medium=api_v3_business_search&utm_source=8_C4NSGbL05eUQksKleGYw", "transactions": [], "phone": "+16172664600", "image_url": "https://s3-media2.fl.yelpcdn.com/bphoto/fP-63-DZDsHFEUbTP8ZfCw/o.jpg"}, {"rating": 4.0, "display_phone": "(617) 765-8636", "price": "$$", "categories": [{"title": "American (New)", "alias": "newamerican"}, {"title": "Pizza", "alias": "pizza"}, {"title": "Burgers", "alias": "burgers"}], "coordinates": {"longitude": -71.04763, "latitude": 42.33632}, "is_closed": false, "name": "Lincoln Tavern & Restaurant", "distance": 2325.654498122, "review_count": 464, "id": "lincoln-tavern-and-restaurant-boston", "location": {"display_address": ["425 W Broadway", "Boston, MA 02127"], "state": "MA", "city": "Boston", "address2": "", "country": "US", "zip_code": "02127", "address1": "425 W Broadway", "address3": ""}, "url": "https://www.yelp.com/biz/lincoln-tavern-and-restaurant-boston?adjust_creative=8_C4NSGbL05eUQksKleGYw&utm_campaign=yelp_api_v3&utm_medium=api_v3_business_search&utm_source=8_C4NSGbL05eUQksKleGYw", "transactions": [], "phone": "+16177658636", "image_url": "https://s3-media3.fl.yelpcdn.com/bphoto/dolqflLk3Q7JpLthmo-6Pg/o.jpg"}, {"rating": 4.0, "display_phone": "(617) 737-5051", "price": "$$", "categories": [{"title": "Mediterranean", "alias": "mediterranean"}, {"title": "Greek", "alias": "greek"}, {"title": "Cocktail Bars", "alias": "cocktailbars"}], "coordinates": {"longitude": -71.0455704, "latitude": 42.3529892}, "is_closed": false, "name": "Committee", "distance": 2149.4702313479997, "review_count": 197, "id": "committee-boston", "location": {"display_address": ["50 Northern Ave", "Boston, MA 02210"], "state": "MA", "city": "Boston", "address2": "", "country": "US", "zip_code": "02210", "address1": "50 Northern Ave", "address3": ""}, "url": "https://www.yelp.com/biz/committee-boston?adjust_creative=8_C4NSGbL05eUQksKleGYw&utm_campaign=yelp_api_v3&utm_medium=api_v3_business_search&utm_source=8_C4NSGbL05eUQksKleGYw", "transactions": [], "phone": "+16177375051", "image_url": "https://s3-media2.fl.yelpcdn.com/bphoto/rkUtFG2G_2PxBSyRi3Z_UQ/o.jpg"}, {"rating": 4.0, "display_phone": "(857) 284-7462", "price": "$", "categories": [{"title": "Coffee & Tea", "alias": "coffee"}, {"title": "Sandwiches", "alias": "sandwiches"}], "coordinates": {"longitude": -71.054497, "latitude": 42.358437}, "is_closed": false, "name": "Espresso Love", "distance": 1811.1438330359997, "review_count": 108, "id": "espresso-love-boston", "location": {"display_address": ["33 Broad St", "Boston, MA 02109"], "state": "MA", "city": "Boston", "address2": "", "country": "US", "zip_code": "02109", "address1": "33 Broad St", "address3": ""}, "url": "https://www.yelp.com/biz/espresso-love-boston?adjust_creative=8_C4NSGbL05eUQksKleGYw&utm_campaign=yelp_api_v3&utm_medium=api_v3_business_search&utm_source=8_C4NSGbL05eUQksKleGYw", "transactions": [], "phone": "+18572847462", "image_url": "https://s3-media3.fl.yelpcdn.com/bphoto/IrKoPVvDtFeBTeq2YRzxJQ/o.jpg"}, {"rating": 4.0, "display_phone": "(617) 567-7412", "price": "$$", "categories": [{"title": "Italian", "alias": "italian"}], "coordinates": {"longitude": -71.032104213469, "latitude": 42.378294552494}, "is_closed": false, "name": "Rino's Place", "distance": 4669.7739196679995, "review_count": 624, "id": "rinos-place-boston", "location": {"display_address": ["258 Saratoga St", "Boston, MA 02128"], "state": "MA", "city": "Boston", "address2": "", "country": "US", "zip_code": "02128", "address1": "258 Saratoga St", "address3": ""}, "url": "https://www.yelp.com/biz/rinos-place-boston?adjust_creative=8_C4NSGbL05eUQksKleGYw&utm_campaign=yelp_api_v3&utm_medium=api_v3_business_search&utm_source=8_C4NSGbL05eUQksKleGYw", "transactions": [], "phone": "+16175677412", "image_url": "https://s3-media2.fl.yelpcdn.com/bphoto/8kl75QCK843rW0Y9sXYVsA/o.jpg"}, {"rating": 4.0, "display_phone": "(857) 991-1483", "price": "$$", "categories": [{"title": "Korean", "alias": "korean"}, {"title": "Asian Fusion", "alias": "asianfusion"}], "coordinates": {"longitude": -71.056273070639, "latitude": 42.3605931357964}, "is_closed": false, "name": "Koy", "distance": 1876.840310516, "review_count": 238, "id": "koy-boston", "location": {"display_address": ["16 North St", "Boston, MA 02109"], "state": "MA", "city": "Boston", "address2": null, "country": "US", "zip_code": "02109", "address1": "16 North St", "address3": ""}, "url": "https://www.yelp.com/biz/koy-boston?adjust_creative=8_C4NSGbL05eUQksKleGYw&utm_campaign=yelp_api_v3&utm_medium=api_v3_business_search&utm_source=8_C4NSGbL05eUQksKleGYw", "transactions": ["delivery", "pickup"], "phone": "+18579911483", "image_url": "https://s3-media1.fl.yelpcdn.com/bphoto/n7e75gdjMy_fxmvwy0aZRg/o.jpg"}, {"rating": 3.5, "display_phone": "(617) 542-3456", "price": "$$", "categories": [{"title": "Italian", "alias": "italian"}, {"title": "Bars", "alias": "bars"}], "coordinates": {"longitude": -71.0684162378311, "latitude": 42.3513145744801}, "is_closed": false, "name": "Maggiano's Little Italy", "distance": 420.70682310499996, "review_count": 672, "id": "maggianos-little-italy-boston", "location": {"display_address": ["4 Columbus Ave", "Boston, MA 02116"], "state": "MA", "city": "Boston", "address2": "", "country": "US", "zip_code": "02116", "address1": "4 Columbus Ave", "address3": ""}, "url": "https://www.yelp.com/biz/maggianos-little-italy-boston?adjust_creative=8_C4NSGbL05eUQksKleGYw&utm_campaign=yelp_api_v3&utm_medium=api_v3_business_search&utm_source=8_C4NSGbL05eUQksKleGYw", "transactions": ["delivery"], "phone": "+16175423456", "image_url": "https://s3-media1.fl.yelpcdn.com/bphoto/yGBVAmENBagMhGkI4LIaHg/o.jpg"}, {"rating": 3.5, "display_phone": "(617) 338-8884", "price": "$$", "categories": [{"title": "Tapas Bars", "alias": "tapas"}, {"title": "Breakfast & Brunch", "alias": "breakfast_brunch"}, {"title": "Cocktail Bars", "alias": "cocktailbars"}], "coordinates": {"longitude": -71.0692466, "latitude": 42.346815}, "is_closed": false, "name": "Masa", "distance": 200.2544570444, "review_count": 981, "id": "masa-boston", "location": {"display_address": ["439 Tremont St", "Boston, MA 02116"], "state": "MA", "city": "Boston", "address2": "", "country": "US", "zip_code": "02116", "address1": "439 Tremont St", "address3": ""}, "url": "https://www.yelp.com/biz/masa-boston?adjust_creative=8_C4NSGbL05eUQksKleGYw&utm_campaign=yelp_api_v3&utm_medium=api_v3_business_search&utm_source=8_C4NSGbL05eUQksKleGYw", "transactions": ["delivery"], "phone": "+16173388884", "image_url": "https://s3-media2.fl.yelpcdn.com/bphoto/SXwwPiWwhGLFAxQfzG6zgw/o.jpg"}, {"rating": 4.0, "display_phone": "(617) 556-2600", "price": "$", "categories": [{"title": "Mediterranean", "alias": "mediterranean"}, {"title": "Middle Eastern", "alias": "mideastern"}, {"title": "Moroccan", "alias": "moroccan"}], "coordinates": {"longitude": -71.06499, "latitude": 42.33975}, "is_closed": false, "name": "Pita", "distance": 1035.610772802, "review_count": 174, "id": "pita-boston-2", "location": {"display_address": ["473 Albany St", "Boston, MA 02118"], "state": "MA", "city": "Boston", "address2": "", "country": "US", "zip_code": "02118", "address1": "473 Albany St", "address3": ""}, "url": "https://www.yelp.com/biz/pita-boston-2?adjust_creative=8_C4NSGbL05eUQksKleGYw&utm_campaign=yelp_api_v3&utm_medium=api_v3_business_search&utm_source=8_C4NSGbL05eUQksKleGYw", "transactions": ["delivery", "pickup"], "phone": "+16175562600", "image_url": "https://s3-media2.fl.yelpcdn.com/bphoto/SLITlZAM4Vpicr56DO-KLA/o.jpg"}, {"rating": 4.0, "display_phone": "(617) 266-9210", "price": "$", "categories": [{"title": "Pizza", "alias": "pizza"}, {"title": "Italian", "alias": "italian"}], "coordinates": {"longitude": -71.0984469096914, "latitude": 42.3442548214725}, "is_closed": false, "name": "Regina Pizzeria", "distance": 2271.252207828, "review_count": 75, "id": "regina-pizzeria-boston-8", "location": {"display_address": ["1330 Boylston St", "Boston, MA 02215"], "state": "MA", "city": "Boston", "address2": "", "country": "US", "zip_code": "02215", "address1": "1330 Boylston St", "address3": ""}, "url": "https://www.yelp.com/biz/regina-pizzeria-boston-8?adjust_creative=8_C4NSGbL05eUQksKleGYw&utm_campaign=yelp_api_v3&utm_medium=api_v3_business_search&utm_source=8_C4NSGbL05eUQksKleGYw", "transactions": ["delivery"], "phone": "+16172669210", "image_url": "https://s3-media2.fl.yelpcdn.com/bphoto/ENMyuOUvXPw2uNzNTnG8Uw/o.jpg"}, {"rating": 3.5, "display_phone": "(617) 426-8181", "price": "$$", "categories": [{"title": "Taiwanese", "alias": "taiwanese"}, {"title": "Chinese", "alias": "chinese"}], "coordinates": {"longitude": -71.060239, "latitude": 42.351503}, "is_closed": false, "name": "Taiwan Caf\u00e9", "distance": 991.389408749, "review_count": 875, "id": "taiwan-caf\u00e9-boston-2", "location": {"display_address": ["34 Oxford St", "Boston, MA 02111"], "state": "MA", "city": "Boston", "address2": "", "country": "US", "zip_code": "02111", "address1": "34 Oxford St", "address3": ""}, "url": "https://www.yelp.com/biz/taiwan-caf%C3%A9-boston-2?adjust_creative=8_C4NSGbL05eUQksKleGYw&utm_campaign=yelp_api_v3&utm_medium=api_v3_business_search&utm_source=8_C4NSGbL05eUQksKleGYw", "transactions": [], "phone": "+16174268181", "image_url": "https://s3-media3.fl.yelpcdn.com/bphoto/ufnGzrB5FrTMCMJcsfqCDQ/o.jpg"}, {"rating": 3.5, "display_phone": "(617) 859-4805", "price": "$$", "categories": [{"title": "Indian", "alias": "indpak"}], "coordinates": {"longitude": -71.0725056, "latitude": 42.3433344}, "is_closed": false, "name": "Mela", "distance": 513.0281893581999, "review_count": 512, "id": "mela-boston-2", "location": {"display_address": ["578 Tremont St", "Boston, MA 02118"], "state": "MA", "city": "Boston", "address2": "", "country": "US", "zip_code": "02118", "address1": "578 Tremont St", "address3": ""}, "url": "https://www.yelp.com/biz/mela-boston-2?adjust_creative=8_C4NSGbL05eUQksKleGYw&utm_campaign=yelp_api_v3&utm_medium=api_v3_business_search&utm_source=8_C4NSGbL05eUQksKleGYw", "transactions": ["delivery", "pickup"], "phone": "+16178594805", "image_url": "https://s3-media4.fl.yelpcdn.com/bphoto/HKBU-l_FaUbBUOy2vkBgGg/o.jpg"}, {"rating": 4.5, "display_phone": "(857) 250-2484", "price": "$$", "categories": [{"title": "Coffee & Tea", "alias": "coffee"}], "coordinates": {"longitude": -71.0430434, "latitude": 42.3498701}, "is_closed": false, "name": "Blue State Coffee", "distance": 2328.232178, "review_count": 21, "id": "blue-state-coffee-boston-2", "location": {"display_address": ["155 Seaport Blvd", "Boston, MA 02210"], "state": "MA", "city": "Boston", "address2": "", "country": "US", "zip_code": "02210", "address1": "155 Seaport Blvd", "address3": ""}, "url": "https://www.yelp.com/biz/blue-state-coffee-boston-2?adjust_creative=8_C4NSGbL05eUQksKleGYw&utm_campaign=yelp_api_v3&utm_medium=api_v3_business_search&utm_source=8_C4NSGbL05eUQksKleGYw", "transactions": [], "phone": "+18572502484", "image_url": "https://s3-media3.fl.yelpcdn.com/bphoto/ugOAR4p1odym-rYNH8Esnw/o.jpg"}, {"rating": 4.5, "display_phone": "(617) 832-0620", "price": "$", "categories": [{"title": "Coffee & Tea", "alias": "coffee"}, {"title": "Banks & Credit Unions", "alias": "banks"}, {"title": "Internet Cafes", "alias": "internetcafe"}], "coordinates": {"longitude": -71.0626633415086, "latitude": 42.3460322226822}, "is_closed": false, "name": "Capital One Caf\u00e9", "distance": 733.5837302062, "review_count": 15, "id": "capital-one-caf\u00e9-boston-3", "location": {"display_address": ["310 Harrison Ave", "Boston, MA 02118"], "state": "MA", "city": "Boston", "address2": null, "country": "US", "zip_code": "02118", "address1": "310 Harrison Ave", "address3": ""}, "url": "https://www.yelp.com/biz/capital-one-caf%C3%A9-boston-3?adjust_creative=8_C4NSGbL05eUQksKleGYw&utm_campaign=yelp_api_v3&utm_medium=api_v3_business_search&utm_source=8_C4NSGbL05eUQksKleGYw", "transactions": [], "phone": "+16178320620", "image_url": "https://s3-media1.fl.yelpcdn.com/bphoto/eNcTmNthY0X_h4lrVKY92w/o.jpg"}, {"rating": 3.5, "display_phone": "(617) 426-6969", "price": "$$$", "categories": [{"title": "Italian", "alias": "italian"}], "coordinates": {"longitude": -71.068389, "latitude": 42.350149}, "is_closed": false, "name": "Erbaluce", "distance": 347.3102491808, "review_count": 345, "id": "erbaluce-boston", "location": {"display_address": ["69 Church St", "Boston, MA 02116"], "state": "MA", "city": "Boston", "address2": "", "country": "US", "zip_code": "02116", "address1": "69 Church St", "address3": ""}, "url": "https://www.yelp.com/biz/erbaluce-boston?adjust_creative=8_C4NSGbL05eUQksKleGYw&utm_campaign=yelp_api_v3&utm_medium=api_v3_business_search&utm_source=8_C4NSGbL05eUQksKleGYw", "transactions": [], "phone": "+16174266969", "image_url": "https://s3-media4.fl.yelpcdn.com/bphoto/KIXnOKBu--36K5neskgMgA/o.jpg"}, {"rating": 3.5, "display_phone": "(617) 536-1100", "price": "$$", "categories": [{"title": "Bars", "alias": "bars"}, {"title": "Jazz & Blues", "alias": "jazzandblues"}, {"title": "Breakfast & Brunch", "alias": "breakfast_brunch"}], "coordinates": {"longitude": -71.08241, "latitude": 42.33976}, "is_closed": false, "name": "Darryl's Corner Bar & Kitchen", "distance": 1278.420589038, "review_count": 510, "id": "darryls-corner-bar-and-kitchen-boston", "location": {"display_address": ["604 Columbus Ave", "Boston, MA 02118"], "state": "MA", "city": "Boston", "address2": "", "country": "US", "zip_code": "02118", "address1": "604 Columbus Ave", "address3": ""}, "url": "https://www.yelp.com/biz/darryls-corner-bar-and-kitchen-boston?adjust_creative=8_C4NSGbL05eUQksKleGYw&utm_campaign=yelp_api_v3&utm_medium=api_v3_business_search&utm_source=8_C4NSGbL05eUQksKleGYw", "transactions": ["delivery", "pickup"], "phone": "+16175361100", "image_url": "https://s3-media3.fl.yelpcdn.com/bphoto/ASuEC7CAoygNZ02LUATGWQ/o.jpg"}, {"rating": 4.0, "display_phone": "(857) 350-3402", "price": "$$", "categories": [{"title": "Italian", "alias": "italian"}, {"title": "Beer, Wine & Spirits", "alias": "beer_and_wine"}, {"title": "Cocktail Bars", "alias": "cocktailbars"}], "coordinates": {"longitude": -71.0553724343586, "latitude": 42.3643884000782}, "is_closed": false, "name": "Rigoletto Ristorante", "distance": 2254.909199194, "review_count": 136, "id": "rigoletto-ristorante-boston", "location": {"display_address": ["115 Salem St", "Boston, MA 02113"], "state": "MA", "city": "Boston", "address2": null, "country": "US", "zip_code": "02113", "address1": "115 Salem St", "address3": ""}, "url": "https://www.yelp.com/biz/rigoletto-ristorante-boston?adjust_creative=8_C4NSGbL05eUQksKleGYw&utm_campaign=yelp_api_v3&utm_medium=api_v3_business_search&utm_source=8_C4NSGbL05eUQksKleGYw", "transactions": ["delivery", "pickup"], "phone": "+18573503402", "image_url": "https://s3-media3.fl.yelpcdn.com/bphoto/5oPnQNPaNHMSEhqZFBEtnA/o.jpg"}, {"rating": 4.0, "display_phone": "(617) 338-8770", "price": "$$", "categories": [{"title": "Seafood", "alias": "seafood"}], "coordinates": {"longitude": -71.06097, "latitude": 42.35071}, "is_closed": false, "name": "Gaga Seafood Restaurant", "distance": 904.2137944919999, "review_count": 67, "id": "gaga-seafood-restaurant-boston", "location": {"display_address": ["25-27 Tyler St", "Boston, MA 02111"], "state": "MA", "city": "Boston", "address2": null, "country": "US", "zip_code": "02111", "address1": "25-27 Tyler St", "address3": ""}, "url": "https://www.yelp.com/biz/gaga-seafood-restaurant-boston?adjust_creative=8_C4NSGbL05eUQksKleGYw&utm_campaign=yelp_api_v3&utm_medium=api_v3_business_search&utm_source=8_C4NSGbL05eUQksKleGYw", "transactions": [], "phone": "+16173388770", "image_url": "https://s3-media4.fl.yelpcdn.com/bphoto/RauYeTwmqPqQceW13pwM7w/o.jpg"}, {"rating": 4.0, "display_phone": "(617) 204-9280", "price": "$$", "categories": [{"title": "Coffee & Tea", "alias": "coffee"}, {"title": "Sandwiches", "alias": "sandwiches"}, {"title": "Breakfast & Brunch", "alias": "breakfast_brunch"}, {"title": "Cafes", "alias": "cafes"}], "coordinates": {"longitude": -71.0554199, "latitude": 42.3556213}, "is_closed": false, "name": "Pret A Manger", "distance": 1585.6862425479999, "review_count": 99, "id": "pret-a-manger-boston-2", "location": {"display_address": ["185 Franklin Street", "Boston, MA 02110"], "state": "MA", "city": "Boston", "address2": "", "country": "US", "zip_code": "02110", "address1": "185 Franklin Street", "address3": ""}, "url": "https://www.yelp.com/biz/pret-a-manger-boston-2?adjust_creative=8_C4NSGbL05eUQksKleGYw&utm_campaign=yelp_api_v3&utm_medium=api_v3_business_search&utm_source=8_C4NSGbL05eUQksKleGYw", "transactions": [], "phone": "+16172049280", "image_url": "https://s3-media2.fl.yelpcdn.com/bphoto/2_1DY1uy3IuVKrJ3iwdmpg/o.jpg"}, {"rating": 4.0, "display_phone": "(617) 262-7700", "price": "$", "categories": [{"title": "Coffee & Tea", "alias": "coffee"}, {"title": "Cafes", "alias": "cafes"}], "coordinates": {"longitude": -71.099228, "latitude": 42.343162}, "is_closed": false, "name": "Neighborhoods Coffee And Crepes", "distance": 2358.03393612, "review_count": 254, "id": "neighborhoods-coffee-and-crepes-boston", "location": {"display_address": ["96 Peterborough St", "Boston, MA 02215"], "state": "MA", "city": "Boston", "address2": null, "country": "US", "zip_code": "02215", "address1": "96 Peterborough St", "address3": ""}, "url": "https://www.yelp.com/biz/neighborhoods-coffee-and-crepes-boston?adjust_creative=8_C4NSGbL05eUQksKleGYw&utm_campaign=yelp_api_v3&utm_medium=api_v3_business_search&utm_source=8_C4NSGbL05eUQksKleGYw", "transactions": [], "phone": "+16172627700", "image_url": "https://s3-media2.fl.yelpcdn.com/bphoto/Bb8WsDv13twHFDr4PM3Luw/o.jpg"}, {"rating": 4.0, "display_phone": "(617) 266-0003", "price": "$$", "categories": [{"title": "Bars", "alias": "bars"}, {"title": "Senegalese", "alias": "senegalese"}], "coordinates": {"longitude": -71.07665195362, "latitude": 42.336586869527}, "is_closed": false, "name": "Teranga", "distance": 1328.3436676836, "review_count": 263, "id": "teranga-boston", "location": {"display_address": ["1746 Washington St", "Boston, MA 02118"], "state": "MA", "city": "Boston", "address2": "", "country": "US", "zip_code": "02118", "address1": "1746 Washington St", "address3": ""}, "url": "https://www.yelp.com/biz/teranga-boston?adjust_creative=8_C4NSGbL05eUQksKleGYw&utm_campaign=yelp_api_v3&utm_medium=api_v3_business_search&utm_source=8_C4NSGbL05eUQksKleGYw", "transactions": [], "phone": "+16172660003", "image_url": "https://s3-media2.fl.yelpcdn.com/bphoto/9ZIHN7k2b9rYcD0EqYt7SA/o.jpg"}, {"rating": 4.5, "display_phone": "", "categories": [{"title": "Landmarks & Historical Buildings", "alias": "landmarks"}], "coordinates": {"longitude": -71.063148, "latitude": 42.368736}, "is_closed": false, "name": "Leonard P. Zakim Bunker Hill Memorial Bridge", "distance": 2416.5400434139997, "review_count": 38, "id": "leonard-p-zakim-bunker-hill-memorial-bridge-boston", "location": {"display_address": ["100 Beverly St", "Boston, MA 02114"], "state": "MA", "city": "Boston", "address2": "", "country": "US", "zip_code": "02114", "address1": "100 Beverly St", "address3": ""}, "url": "https://www.yelp.com/biz/leonard-p-zakim-bunker-hill-memorial-bridge-boston?adjust_creative=8_C4NSGbL05eUQksKleGYw&utm_campaign=yelp_api_v3&utm_medium=api_v3_business_search&utm_source=8_C4NSGbL05eUQksKleGYw", "transactions": [], "phone": "", "image_url": "https://s3-media4.fl.yelpcdn.com/bphoto/Jugt794QC4E3p3SxRWLJBA/o.jpg"}, {"rating": 4.0, "display_phone": "(617) 720-1336", "price": "$$", "categories": [{"title": "Italian", "alias": "italian"}], "coordinates": {"longitude": -71.054771, "latitude": 42.3639035}, "is_closed": false, "name": "Trattoria Il Panino", "distance": 2245.102685904, "review_count": 412, "id": "trattoria-il-panino-boston", "location": {"display_address": ["11 Parmenter St", "Boston, MA 02113"], "state": "MA", "city": "Boston", "address2": null, "country": "US", "zip_code": "02113", "address1": "11 Parmenter St", "address3": ""}, "url": "https://www.yelp.com/biz/trattoria-il-panino-boston?adjust_creative=8_C4NSGbL05eUQksKleGYw&utm_campaign=yelp_api_v3&utm_medium=api_v3_business_search&utm_source=8_C4NSGbL05eUQksKleGYw", "transactions": [], "phone": "+16177201336", "image_url": "https://s3-media2.fl.yelpcdn.com/bphoto/gQcEPj2STAToPZum-FuiyQ/o.jpg"}, {"rating": 4.0, "display_phone": "(617) 375-9663", "price": "$$", "categories": [{"title": "Bars", "alias": "bars"}, {"title": "American (Traditional)", "alias": "tradamerican"}, {"title": "Pizza", "alias": "pizza"}], "coordinates": {"longitude": -71.089571, "latitude": 42.344859}, "is_closed": false, "name": "Woody's Grill and Tap", "distance": 1542.1575223376, "review_count": 232, "id": "woodys-grill-and-tap-boston-2", "location": {"display_address": ["58 Hemenway St", "Boston, MA 02115"], "state": "MA", "city": "Boston", "address2": "", "country": "US", "zip_code": "02115", "address1": "58 Hemenway St", "address3": ""}, "url": "https://www.yelp.com/biz/woodys-grill-and-tap-boston-2?adjust_creative=8_C4NSGbL05eUQksKleGYw&utm_campaign=yelp_api_v3&utm_medium=api_v3_business_search&utm_source=8_C4NSGbL05eUQksKleGYw", "transactions": [], "phone": "+16173759663", "image_url": "https://s3-media4.fl.yelpcdn.com/bphoto/dFI2s3YTns-PUNnz4GEo0Q/o.jpg"}, {"rating": 4.5, "display_phone": "(617) 567-6367", "price": "$", "categories": [{"title": "Mexican", "alias": "mexican"}], "coordinates": {"longitude": -71.02818, "latitude": 42.37872}, "is_closed": false, "name": "Taqueria Jalisco", "distance": 4925.988894368, "review_count": 199, "id": "taqueria-jalisco-boston-2", "location": {"display_address": ["291 Bennington St", "Boston, MA 02128"], "state": "MA", "city": "Boston", "address2": "", "country": "US", "zip_code": "02128", "address1": "291 Bennington St", "address3": ""}, "url": "https://www.yelp.com/biz/taqueria-jalisco-boston-2?adjust_creative=8_C4NSGbL05eUQksKleGYw&utm_campaign=yelp_api_v3&utm_medium=api_v3_business_search&utm_source=8_C4NSGbL05eUQksKleGYw", "transactions": [], "phone": "+16175676367", "image_url": "https://s3-media1.fl.yelpcdn.com/bphoto/-ZVd7j8fxquIWS8RlIy1HA/o.jpg"}, {"rating": 4.0, "display_phone": "(617) 482-1113", "price": "$", "categories": [{"title": "Italian", "alias": "italian"}], "coordinates": {"longitude": -71.05796, "latitude": 42.35415}, "is_closed": false, "name": "Viga Italian Eatery & Caterer", "distance": 1302.8592216079999, "review_count": 86, "id": "viga-italian-eatery-and-caterer-boston-2", "location": {"display_address": ["291 Devonshire St", "Boston, MA 02110"], "state": "MA", "city": "Boston", "address2": null, "country": "US", "zip_code": "02110", "address1": "291 Devonshire St", "address3": ""}, "url": "https://www.yelp.com/biz/viga-italian-eatery-and-caterer-boston-2?adjust_creative=8_C4NSGbL05eUQksKleGYw&utm_campaign=yelp_api_v3&utm_medium=api_v3_business_search&utm_source=8_C4NSGbL05eUQksKleGYw", "transactions": [], "phone": "+16174821113", "image_url": "https://s3-media2.fl.yelpcdn.com/bphoto/0jb8YkaZPANbYaSRfD7r-Q/o.jpg"}, {"rating": 4.0, "display_phone": "(617) 357-7399", "price": "$", "categories": [{"title": "Mexican", "alias": "mexican"}], "coordinates": {"longitude": -71.0645751953125, "latitude": 42.3513946533203}, "is_closed": false, "name": "Maria's Taqueria", "distance": 672.6226873960001, "review_count": 189, "id": "marias-taqueria-boston", "location": {"display_address": ["226 Tremont St", "Boston, MA 02116"], "state": "MA", "city": "Boston", "address2": "", "country": "US", "zip_code": "02116", "address1": "226 Tremont St", "address3": ""}, "url": "https://www.yelp.com/biz/marias-taqueria-boston?adjust_creative=8_C4NSGbL05eUQksKleGYw&utm_campaign=yelp_api_v3&utm_medium=api_v3_business_search&utm_source=8_C4NSGbL05eUQksKleGYw", "transactions": [], "phone": "+16173577399", "image_url": "https://s3-media4.fl.yelpcdn.com/bphoto/RPrHJ7lmHGfPstgfb8JN0A/o.jpg"}, {"rating": 4.0, "display_phone": "(617) 523-3112", "price": "$$$", "categories": [{"title": "Italian", "alias": "italian"}, {"title": "Vegetarian", "alias": "vegetarian"}, {"title": "Gluten-Free", "alias": "gluten_free"}], "coordinates": {"longitude": -71.055697, "latitude": 42.364028}, "is_closed": false, "name": "Terramia Ristorante", "distance": 2207.156379912, "review_count": 210, "id": "terramia-ristorante-boston", "location": {"display_address": ["98 Salem St", "Boston, MA 02113"], "state": "MA", "city": "Boston", "address2": "", "country": "US", "zip_code": "02113", "address1": "98 Salem St", "address3": ""}, "url": "https://www.yelp.com/biz/terramia-ristorante-boston?adjust_creative=8_C4NSGbL05eUQksKleGYw&utm_campaign=yelp_api_v3&utm_medium=api_v3_business_search&utm_source=8_C4NSGbL05eUQksKleGYw", "transactions": ["pickup"], "phone": "+16175233112", "image_url": "https://s3-media1.fl.yelpcdn.com/bphoto/h4_5x1h7EdKd6TvQrlyOEA/o.jpg"}, {"rating": 3.5, "display_phone": "(617) 247-9249", "price": "$$", "categories": [{"title": "Puerto Rican", "alias": "puertorican"}, {"title": "Latin American", "alias": "latin"}], "coordinates": {"longitude": -71.0722504, "latitude": 42.3416595}, "is_closed": false, "name": "Vejigantes", "distance": 659.3367327458, "review_count": 288, "id": "vejigantes-boston-2", "location": {"display_address": ["57 W Dedham St", "Boston, MA 02118"], "state": "MA", "city": "Boston", "address2": "", "country": "US", "zip_code": "02118", "address1": "57 W Dedham St", "address3": ""}, "url": "https://www.yelp.com/biz/vejigantes-boston-2?adjust_creative=8_C4NSGbL05eUQksKleGYw&utm_campaign=yelp_api_v3&utm_medium=api_v3_business_search&utm_source=8_C4NSGbL05eUQksKleGYw", "transactions": ["delivery", "pickup"], "phone": "+16172479249", "image_url": "https://s3-media3.fl.yelpcdn.com/bphoto/kl6AnrgqIRCIkOeL2zac4Q/o.jpg"}, {"rating": 4.0, "display_phone": "(617) 542-5108", "price": "$$$", "categories": [{"title": "French", "alias": "french"}, {"title": "Jazz & Blues", "alias": "jazzandblues"}, {"title": "Venues & Event Spaces", "alias": "venues"}], "coordinates": {"longitude": -71.057466873432, "latitude": 42.351162781091}, "is_closed": false, "name": "Les Zygomates Wine Bar & Bistro", "distance": 1190.9293671136, "review_count": 374, "id": "les-zygomates-wine-bar-and-bistro-boston-3", "location": {"display_address": ["129 South St", "Boston, MA 02111"], "state": "MA", "city": "Boston", "address2": "", "country": "US", "zip_code": "02111", "address1": "129 South St", "address3": ""}, "url": "https://www.yelp.com/biz/les-zygomates-wine-bar-and-bistro-boston-3?adjust_creative=8_C4NSGbL05eUQksKleGYw&utm_campaign=yelp_api_v3&utm_medium=api_v3_business_search&utm_source=8_C4NSGbL05eUQksKleGYw", "transactions": ["delivery"], "phone": "+16175425108", "image_url": "https://s3-media2.fl.yelpcdn.com/bphoto/zIVJTReqb9GDtWG2pAE7Bg/o.jpg"}, {"rating": 4.0, "display_phone": "(617) 227-0295", "price": "$$$", "categories": [{"title": "Tobacco Shops", "alias": "tobaccoshops"}, {"title": "Lounges", "alias": "lounges"}, {"title": "Hookah Bars", "alias": "hookah_bars"}], "coordinates": {"longitude": -71.0542421, "latitude": 42.3642073}, "is_closed": false, "name": "Stanza Dei Sigari", "distance": 2280.8477366439997, "review_count": 212, "id": "stanza-dei-sigari-boston", "location": {"display_address": ["292 Hanover St", "Boston, MA 02113"], "state": "MA", "city": "Boston", "address2": "", "country": "US", "zip_code": "02113", "address1": "292 Hanover St", "address3": ""}, "url": "https://www.yelp.com/biz/stanza-dei-sigari-boston?adjust_creative=8_C4NSGbL05eUQksKleGYw&utm_campaign=yelp_api_v3&utm_medium=api_v3_business_search&utm_source=8_C4NSGbL05eUQksKleGYw", "transactions": [], "phone": "+16172270295", "image_url": "https://s3-media2.fl.yelpcdn.com/bphoto/PcW-8FwtGRqlZxrh3zbIBQ/o.jpg"}, {"rating": 4.0, "display_phone": "(617) 267-8888", "price": "$$", "categories": [{"title": "Sushi Bars", "alias": "sushi"}, {"title": "Japanese", "alias": "japanese"}], "coordinates": {"longitude": -71.09527, "latitude": 42.34957}, "is_closed": false, "name": "Fin's Sushi and Grill", "distance": 1984.55923034, "review_count": 308, "id": "fins-sushi-and-grill-boston", "location": {"display_address": ["636 Beacon St", "Boston, MA 02215"], "state": "MA", "city": "Boston", "address2": "", "country": "US", "zip_code": "02215", "address1": "636 Beacon St", "address3": ""}, "url": "https://www.yelp.com/biz/fins-sushi-and-grill-boston?adjust_creative=8_C4NSGbL05eUQksKleGYw&utm_campaign=yelp_api_v3&utm_medium=api_v3_business_search&utm_source=8_C4NSGbL05eUQksKleGYw", "transactions": ["delivery", "pickup"], "phone": "+16172678888", "image_url": "https://s3-media2.fl.yelpcdn.com/bphoto/aVlnP2BVGTNtOouS0HWinw/o.jpg"}], "total": 24769}