{"region": {"center": {"longitude": -71.07124328613281, "latitude": 42.34784169448538}}, "businesses": [{"rating": 4.0, "display_phone": "(857) 991-1483", "price": "$$", "categories": [{"title": "Korean", "alias": "korean"}, {"title": "Asian Fusion", "alias": "asianfusion"}], "coordinates": {"longitude": -71.056273070639, "latitude": 42.3605931357964}, "is_closed": false, "name": "Koy", "distance": 1876.840310516, "review_count": 238, "id": "koy-boston", "location": {"display_address": ["16 North St", "Boston, MA 02109"], "state": "MA", "city": "Boston", "address2": null, "country": "US", "zip_code": "02109", "address1": "16 North St", "address3": ""}, "url": "https://www.yelp.com/biz/koy-boston?adjust_creative=8_C4NSGbL05eUQksKleGYw&utm_campaign=yelp_api_v3&utm_medium=api_v3_business_search&utm_source=8_C4NSGbL05eUQksKleGYw", "transactions": ["delivery", "pickup"], "phone": "+18579911483", "image_url": "https://s3-media1.fl.yelpcdn.com/bphoto/n7e75gdjMy_fxmvwy0aZRg/o.jpg"}, {"rating": 3.5, "display_phone": "(617) 542-3456", "price": "$$", "categories": [{"title": "Italian", "alias": "italian"}, {"title": "Bars", "alias": "bars"}], "coordinates": {"longitude": -71.0684162378311, "latitude": 42.3513145744801}, "is_closed": false, "name": "Maggiano's Little Italy", "distance": 420.70682310499996, "review_count": 672, "id": "maggianos-little-italy-boston", "location": {"display_address": ["4 Columbus Ave", "Boston, MA 02116"], "state": "MA", "city": "Boston", "address2": "", "country": "US", "zip_code": "02116", "address1": "4 Columbus Ave", "address3": ""}, "url": "https://www.yelp.com/biz/maggianos-little-italy-boston?adjust_creative=8_C4NSGbL05eUQksKleGYw&utm_campaign=yelp_api_v3&utm_medium=api_v3_business_search&utm_source=8_C4NSGbL05eUQksKleGYw", "transactions": ["delivery"], "phone": "+16175423456", "image_url": "https://s3-media1.fl.yelpcdn.com/bphoto/yGBVAmENBagMhGkI4LIaHg/o.jpg"}, {"rating": 3.5, "display_phone": "(617) 338-8884", "price": "$$", "categories": [{"title": "Tapas Bars", "alias": "tapas"}, {"title": "Breakfast & Brunch", "alias": "breakfast_brunch"}, {"title": "Cocktail Bars", "alias": "cocktailbars"}], "coordinates": {"longitude": -71.0692466, "latitude": 42.346815}, "is_closed": false, "name": "Masa", "distance": 200.2544570444, "review_count": 981, "id": "masa-boston", "location": {"display_address": ["439 Tremont St", "Boston, MA 02116"], "state": "MA", "city": "Boston", "address2": "", "country": "US", "zip_code": "02116", "address1": "439 Tremont St", "address3": ""}, "url": "https://www.yelp.com/biz/masa-boston?adjust_creative=8_C4NSGbL05eUQksKleGYw&utm_campaign=yelp_api_v3&utm_medium=api_v3_business_search&utm_source=8_C4NSGbL05eUQksKleGYw", "transactions": ["delivery"], "phone": "+16173388884", "image_url": "https://s3-media2.fl.yelpcdn.com/bphoto/SXwwPiWwhGLFAxQfzG6zgw/o.jpg"}, {"rating": 4.0, "display_phone": "(617) 556-2600", "price": "$", "categories": [{"title": "Mediterranean", "alias": "mediterranean"}, {"title": "Middle Eastern", "alias": "mideastern"}, {"title": "Moroccan", "alias": "moroccan"}], "coordinates": {"longitude": -71.06499, "latitude": 42.33975}, "is_closed": false, "name": "Pita", "distance": 1035.610772802, "review_count": 174, "id": "pita-boston-2", "location": {"display_address": ["473 Albany St", "Boston, MA 02118"], "state": "MA", "city": "Boston", "address2": "", "country": "US", "zip_code": "02118", "address1": "473 Albany St", "address3": ""}, "url": "https://www.yelp.com/biz/pita-boston-2?adjust_creative=8_C4NSGbL05eUQksKleGYw&utm_campaign=yelp_api_v3&utm_medium=api_v3_business_search&utm_source=8_C4NSGbL05eUQksKleGYw", "transactions": ["delivery", "pickup"], "phone": "+16175562600", "image_url": "https://s3-media2.fl.yelpcdn.com/bphoto/SLITlZAM4Vpicr56DO-KLA/o.jpg"}, {"rating": 4.0, "display_phone": "(617) 266-9210", "price": "$", "categories": [{"title": "Pizza", "alias": "pizza"}, {"title": "Italian", "alias": "italian"}], "coordinates": {"longitude": -71.0984469096914, "latitude": 42.3442548214725}, "is_closed": false, "name": "Regina Pizzeria", "distance": 2271.252207828, "review_count": 75, "id": "regina-pizzeria-boston-8", "location": {"display_address": ["1330 Boylston St", "Boston, MA 02215"], "state": "MA", "city": "Boston", "address2": "", "country": "US", "zip_code": "02215", "address1": "1330 Boylston St", "address3": ""}, "url": "https://www.yelp.com/biz/regina-pizzeria-boston-8?adjust_creative=8_C4NSGbL05eUQksKleGYw&utm_campaign=yelp_api_v3&utm_medium=api_v3_business_search&utm_source=8_C4NSGbL05eUQksKleGYw", "transactions": ["delivery"], "phone": "+16172669210", "image_url": "https://s3-media2.fl.yelpcdn.com/bphoto/ENMyuOUvXPw2uNzNTnG8Uw/o.jpg"}, {"rating": 3.5, "display_phone": "(617) 426-8181", "price": "$$", "categories": [{"title": "Taiwanese", "alias": "taiwanese"}, {"title": "Chinese", "alias": "chinese"}], "coordinates": {"longitude": -71.060239, "latitude": 42.351503}, "is_closed": false, "name": "Taiwan Caf\u00e9", "distance": 991.389408749, "review_count": 875, "id": "taiwan-caf\u00e9-boston-2", "location": {"display_address": ["34 Oxford St", "Boston, MA 02111"], "state": "MA", "city": "Boston", "address2": "", "country": "US", "zip_code": "02111", "address1": "34 Oxford St", "address3": ""}, "url": "https://www.yelp.com/biz/taiwan-caf%C3%A9-boston-2?adjust_creative=8_C4NSGbL05eUQksKleGYw&utm_campaign=yelp_api_v3&utm_medium=api_v3_business_search&utm_source=8_C4NSGbL05eUQksKleGYw", "transactions": [], "phone": "+16174268181", "image_url": "https://s3-media3.fl.yelpcdn.com/bphoto/ufnGzrB5FrTMCMJcsfqCDQ/o.jpg"}, {"rating": 3.5, "display_phone": "(617) 859-4805", "price": "$$", "categories": [{"title": "Indian", "alias": "indpak"}], "coordinates": {"longitude": -71.0725056, "latitude": 42.3433344}, "is_closed": false, "name": "Mela", "distance": 513.0281893581999, "review_count": 512, "id": "mela-boston-2", "location": {"display_address": ["578 Tremont St", "Boston, MA 02118"], "state": "MA", "city": "Boston", "address2": "", "country": "US", "zip_code": "02118", "address1": "578 Tremont St", "address3": ""}, "url": "https://www.yelp.com/biz/mela-boston-2?adjust_creative=8_C4NSGbL05eUQksKleGYw&utm_campaign=yelp_api_v3&utm_medium=api_v3_business_search&utm_source=8_C4NSGbL05eUQksKleGYw", "transactions": ["delivery", "pickup"], "phone": "+16178594805", "image_url": "https://s3-media4.fl.yelpcdn.com/bphoto/HKBU-l_FaUbBUOy2vkBgGg/o.jpg"}, {"rating": 4.5, "display_phone": "(857) 250-2484", "price": "$$", "categories": [{"title": "Coffee & Tea", "alias": "coffee"}], "coordinates": {"longitude": -71.0430434, "latitude": 42.3498701}, "is_closed": false, "name": "Blue State Coffee", "distance": 2328.232178, "review_count": 21, "id": "blue-state-coffee-boston-2", "location": {"display_address": ["155 Seaport Blvd", "Boston, MA 02210"], "state": "MA", "city": "Boston", "address2": "", "country": "US", "zip_code": "02210", "address1": "155 Seaport Blvd", "address3": ""}, "url": "https://www.yelp.com/biz/blue-state-coffee-boston-2?adjust_creative=8_C4NSGbL05eUQksKleGYw&utm_campaign=yelp_api_v3&utm_medium=api_v3_business_search&utm_source=8_C4NSGbL05eUQksKleGYw", "transactions": [], "phone": "+18572502484", "image_url": "https://s3-media3.fl.yelpcdn.com/bphoto/ugOAR4p1odym-rYNH8Esnw/o.jpg"}, {"rating": 4.5, "display_phone": "(617) 832-0620", "price": "$", "categories": [{"title": "Coffee & Tea", "alias": "coffee"}, {"title": "Banks & Credit Unions", "alias": "banks"}, {"title": "Internet Cafes", "alias": "internetcafe"}], "coordinates": {"longitude": -71.0626633415086, "latitude": 42.3460322226822}, "is_closed": false, "name": "Capital One Caf\u00e9", "distance": 733.5837302062, "review_count": 15, "id": "capital-one-caf\u00e9-boston-3", "location": {"display_address": ["310 Harrison Ave", "Boston, MA 02118"], "state": "MA", "city": "Boston", "address2": null, "country": "US", "zip_code": "02118", "address1": "310 Harrison Ave", "address3": ""}, "url": "https://www.yelp.com/biz/capital-one-caf%C3%A9-boston-3?adjust_creative=8_C4NSGbL05eUQksKleGYw&utm_campaign=yelp_api_v3&utm_medium=api_v3_business_search&utm_source=8_C4NSGbL05eUQksKleGYw", "transactions": [], "phone": "+16178320620", "image_url": "https://s3-media1.fl.yelpcdn.com/bphoto/eNcTmNthY0X_h4lrVKY92w/o.jpg"}, {"rating": 3.5, "display_phone": "(617) 426-6969", "price": "$$$", "categories": [{"title": "Italian", "alias": "italian"}], "coordinates": {"longitude": -71.068389, "latitude": 42.350149}, "is_closed": false, "name": "Erbaluce", "distance": 347.3102491808, "review_count": 345, "id": "erbaluce-boston", "location": {"display_address": ["69 Church St", "Boston, MA 02116"], "state": "MA", "city": "Boston", "address2": "", "country": "US", "zip_code": "02116", "address1": "69 Church St", "address3": ""}, "url": "https://www.yelp.com/biz/erbaluce-boston?adjust_creative=8_C4NSGbL05eUQksKleGYw&utm_campaign=yelp_api_v3&utm_medium=api_v3_business_search&utm_source=8_C4NSGbL05eUQksKleGYw", "transactions": [], "phone": "+16174266969", "image_url": "https://s3-media4.fl.yelpcdn.com/bphoto/KIXnOKBu--36K5neskgMgA/o.jpg"}, {"rating": 3.5, "display_phone": "(617) 536-1100", "price": "$$", "categories": [{"title": "Bars", "alias": "bars"}, {"title": "Jazz & Blues", "alias": "jazzandblues"}, {"title": "Breakfast & Brunch", "alias": "breakfast_brunch"}], "coordinates": {"longitude": -71.08241, "latitude": 42.33976}, "is_closed": false, "name": "Darryl's Corner Bar & Kitchen", "distance": 1278.420589038, "review_count": 510, "id": "darryls-corner-bar-and-kitchen-boston", "location": {"display_address": ["604 Columbus Ave", "Boston, MA 02118"], "state": "MA", "city": "Boston", "address2": "", "country": "US", "zip_code": "02118", "address1": "604 Columbus Ave", "address3": ""}, "url": "https://www.yelp.com/biz/darryls-corner-bar-and-kitchen-boston?adjust_creative=8_C4NSGbL05eUQksKleGYw&utm_campaign=yelp_api_v3&utm_medium=api_v3_business_search&utm_source=8_C4NSGbL05eUQksKleGYw", "transactions": ["delivery", "pickup"], "phone": "+16175361100", "image_url": "https://s3-media3.fl.yelpcdn.com/bphoto/ASuEC7CAoygNZ02LUATGWQ/o.jpg"}, {"rating": 4.0, "display_phone": "(857) 350-3402", "price": "$$", "categories": [{"title": "Italian", "alias": "italian"}, {"title": "Beer, Wine & Spirits", "alias": "beer_and_wine"}, {"title": "Cocktail Bars", "alias": "cocktailbars"}], "coordinates": {"longitude": -71.0553724343586, "latitude": 42.3643884000782}, "is_closed": false, "name": "Rigoletto Ristorante", "distance": 2254.909199194, "review_count": 136, "id": "rigoletto-ristorante-boston", "location": {"display_address": ["115 Salem St", "Boston, MA 02113"], "state": "MA", "city": "Boston", "address2": null, "country": "US", "zip_code": "02113", "address1": "115 Salem St", "address3": ""}, "url": "https://www.yelp.com/biz/rigoletto-ristorante-boston?adjust_creative=8_C4NSGbL05eUQksKleGYw&utm_campaign=yelp_api_v3&utm_medium=api_v3_business_search&utm_source=8_C4NSGbL05eUQksKleGYw", "transactions": ["delivery", "pickup"], "phone": "+18573503402", "image_url": "https://s3-media3.fl.yelpcdn.com/bphoto/5oPnQNPaNHMSEhqZFBEtnA/o.jpg"}, {"rating": 4.0, "display_phone": "(617) 338-8770", "price": "$$", "categories": [{"title": "Seafood", "alias": "seafood"}], "coordinates": {"longitude": -71.06097, "latitude": 42.35071}, "is_closed": false, "name": "Gaga Seafood Restaurant", "distance": 904.2137944919999, "review_count": 67, "id": "gaga-seafood-restaurant-boston", "location": {"display_address": ["25-27 Tyler St", "Boston, MA 02111"], "state": "MA", "city": "Boston", "address2": null, "country": "US", "zip_code": "02111", "address1": "25-27 Tyler St", "address3": ""}, "url": "https://www.yelp.com/biz/gaga-seafood-restaurant-boston?adjust_creative=8_C4NSGbL05eUQksKleGYw&utm_campaign=yelp_api_v3&utm_medium=api_v3_business_search&utm_source=8_C4NSGbL05eUQksKleGYw", "transactions": [], "phone": "+16173388770", "image_url": "https://s3-media4.fl.yelpcdn.com/bphoto/RauYeTwmqPqQceW13pwM7w/o.jpg"}, {"rating": 4.0, "display_phone": "(617) 204-9280", "price": "$$", "categories": [{"title": "Coffee & Tea", "alias": "coffee"}, {"title": "Sandwiches", "alias": "sandwiches"}, {"title": "Breakfast & Brunch", "alias": "breakfast_brunch"}, {"title": "Cafes", "alias": "cafes"}], "coordinates": {"longitude": -71.0554199, "latitude": 42.3556213}, "is_closed": false, "name": "Pret A Manger", "distance": 1585.6862425479999, "review_count": 99, "id": "pret-a-manger-boston-2", "location": {"display_address": ["185 Franklin Street", "Boston, MA 02110"], "state": "MA", "city": "Boston", "address2": "", "country": "US", "zip_code": "02110", "address1": "185 Franklin Street", "address3": ""}, "url": "https://www.yelp.com/biz/pret-a-manger-boston-2?adjust_creative=8_C4NSGbL05eUQksKleGYw&utm_campaign=yelp_api_v3&utm_medium=api_v3_business_search&utm_source=8_C4NSGbL05eUQksKleGYw", "transactions": [], "phone": "+16172049280", "image_url": "https://s3-media2.fl.yelpcdn.com/bphoto/2_1DY1uy3IuVKrJ3iwdmpg/o.jpg"}, {"rating": 4.0, "display_phone": "(617) 262-7700", "price": "$", "categories": [{"title": "Coffee & Tea", "alias": "coffee"}, {"title": "Cafes", "alias": "cafes"}], "coordinates": {"longitude": -71.099228, "latitude": 42.343162}, "is_closed": false, "name": "Neighborhoods Coffee And Crepes", "distance": 2358.03393612, "review_count": 254, "id": "neighborhoods-coffee-and-crepes-boston", "location": {"display_address": ["96 Peterborough St", "Boston, MA 02215"], "state": "MA", "city": "Boston", "address2": null, "country": "US", "zip_code": "02215", "address1": "96 Peterborough St", "address3": ""}, "url": "https://www.yelp.com/biz/neighborhoods-coffee-and-crepes-boston?adjust_creative=8_C4NSGbL05eUQksKleGYw&utm_campaign=yelp_api_v3&utm_medium=api_v3_business_search&utm_source=8_C4NSGbL05eUQksKleGYw", "transactions": [], "phone": "+16172627700", "image_url": "https://s3-media2.fl.yelpcdn.com/bphoto/Bb8WsDv13twHFDr4PM3Luw/o.jpg"}, {"rating": 4.0, "display_phone": "(617) 266-0003", "price": "$$", "categories": [{"title": "Bars", "alias": "bars"}, {"title": "Senegalese", "alias": "senegalese"}], "coordinates": {"longitude": -71.07665195362, "latitude": 42.336586869527}, "is_closed": false, "name": "Teranga", "distance": 1328.3436676836, "review_count": 263, "id": "teranga-boston", "location": {"display_address": ["1746 Washington St", "Boston, MA 02118"], "state": "MA", "city": "Boston", "address2": "", "country": "US", "zip_code": "02118", "address1": "1746 Washington St", "address3": ""}, "url": "https://www.yelp.com/biz/teranga-boston?adjust_creative=8_C4NSGbL05eUQksKleGYw&utm_campaign=yelp_api_v3&utm_medium=api_v3_business_search&utm_source=8_C4NSGbL05eUQksKleGYw", "transactions": [], "phone": "+16172660003", "image_url": "https://s3-media2.fl.yelpcdn.com/bphoto/9ZIHN7k2b9rYcD0EqYt7SA/o.jpg"}, {"rating": 4.5, "display_phone": "", "categories": [{"title": "Landmarks & Historical Buildings", "alias": "landmarks"}], "coordinates": {"longitude": -71.063148, "latitude": 42.368736}, "is_closed": false, "name": "Leonard P. Zakim Bunker Hill Memorial Bridge", "distance": 2416.5400434139997, "review_count": 38, "id": "leonard-p-zakim-bunker-hill-memorial-bridge-boston", "location": {"display_address": ["100 Beverly St", "Boston, MA 02114"], "state": "MA", "city": "Boston", "address2": "", "country": "US", "zip_code": "02114", "address1": "100 Beverly St", "address3": ""}, "url": "https://www.yelp.com/biz/leonard-p-zakim-bunker-hill-memorial-bridge-boston?adjust_creative=8_C4NSGbL05eUQksKleGYw&utm_campaign=yelp_api_v3&utm_medium=api_v3_business_search&utm_source=8_C4NSGbL05eUQksKleGYw", "transactions": [], "phone": "", "image_url": "https://s3-media4.fl.yelpcdn.com/bphoto/Jugt794QC4E3p3SxRWLJBA/o.jpg"}, {"rating": 4.0, "display_phone": "(617) 720-1336", "price": "$$", "categories": [{"title": "Italian", "alias": "italian"}], "coordinates": {"longitude": -71.054771, "latitude": 42.3639035}, "is_closed": false, "name": "Trattoria Il Panino", "distance": 2245.102685904, "review_count": 412, "id": "trattoria-il-panino-boston", "location": {"display_address": ["11 Parmenter St", "Boston, MA 02113"], "state": "MA", "city": "Boston", "address2": null, "country": "US", "zip_code": "02113", "address1": "11 Parmenter St", "address3": ""}, "url": "https://www.yelp.com/biz/trattoria-il-panino-boston?adjust_creative=8_C4NSGbL05eUQksKleGYw&utm_campaign=yelp_api_v3&utm_medium=api_v3_business_search&utm_source=8_C4NSGbL05eUQksKleGYw", "transactions": [], "phone": "+16177201336", "image_url": "https://s3-media2.fl.yelpcdn.com/bphoto/gQcEPj2STAToPZum-FuiyQ/o.jpg"}, {"rating": 4.0, "display_phone": "(617) 375-9663", "price": "$$", "categories": [{"title": "Bars", "alias": "bars"}, {"title": "American (Traditional)", "alias": "tradamerican"}, {"title": "Pizza", "alias": "pizza"}], "coordinates": {"longitude": -71.089571, "latitude": 42.344859}, "is_closed": false, "name": "Woody's Grill and Tap", "distance": 1542.1575223376, "review_count": 232, "id": "woodys-grill-and-tap-boston-2", "location": {"display_address": ["58 Hemenway St", "Boston, MA 02115"], "state": "MA", "city": "Boston", "address2": "", "country": "US", "zip_code": "02115", "address1": "58 Hemenway St", "address3": ""}, "url": "https://www.yelp.com/biz/woodys-grill-and-tap-boston-2?adjust_creative=8_C4NSGbL05eUQksKleGYw&utm_campaign=yelp_api_v3&utm_medium=api_v3_business_search&utm_source=8_C4NSGbL05eUQksKleGYw", "transactions": [], "phone": "+16173759663", "image_url": "https://s3-media4.fl.yelpcdn.com/bphoto/dFI2s3YTns-PUNnz4GEo0Q/o.jpg"}, {"rating": 4.5, "display_phone": "(617) 567-6367", "price": "$", "categories": [{"title": "Mexican", "alias": "mexican"}], "coordinates": {"longitude": -71.02818, "latitude": 42.37872}, "is_closed": false, "name": "Taqueria Jalisco", "distance": 4925.988894368, "review_count": 199, "id": "taqueria-jalisco-boston-2", "location": {"display_address": ["291 Bennington St", "Boston, MA 02128"], "state": "MA", "city": "Boston", "address2": "", "country": "US", "zip_code": "02128", "address1": "291 Bennington St", "address3": ""}, "url": "https://www.yelp.com/biz/taqueria-jalisco-boston-2?adjust_creative=8_C4NSGbL05eUQksKleGYw&utm_campaign=yelp_api_v3&utm_medium=api_v3_business_search&utm_source=8_C4NSGbL05eUQksKleGYw", "transactions": [], "phone": "+16175676367", "image_url": "https://s3-media1.fl.yelpcdn.com/bphoto/-ZVd7j8fxquIWS8RlIy1HA/o.jpg"}, {"rating": 4.0, "display_phone": "(617) 482-1113", "price": "$", "categories": [{"title": "Italian", "alias": "italian"}], "coordinates": {"longitude": -71.05796, "latitude": 42.35415}, "is_closed": false, "name": "Viga Italian Eatery & Caterer", "distance": 1302.8592216079999, "review_count": 86, "id": "viga-italian-eatery-and-caterer-boston-2", "location": {"display_address": ["291 Devonshire St", "Boston, MA 02110"], "state": "MA", "city": "Boston", "address2": null, "country": "US", "zip_code": "02110", "address1": "291 Devonshire St", "address3": ""}, "url": "https://www.yelp.com/biz/viga-italian-eatery-and-caterer-boston-2?adjust_creative=8_C4NSGbL05eUQksKleGYw&utm_campaign=yelp_api_v3&utm_medium=api_v3_business_search&utm_source=8_C4NSGbL05eUQksKleGYw", "transactions": [], "phone": "+16174821113", "image_url": "https://s3-media2.fl.yelpcdn.com/bphoto/0jb8YkaZPANbYaSRfD7r-Q/o.jpg"}, {"rating": 4.0, "display_phone": "(617) 357-7399", "price": "$", "categories": [{"title": "Mexican", "alias": "mexican"}], "coordinates": {"longitude": -71.0645751953125, "latitude": 42.3513946533203}, "is_closed": false, "name": "Maria's Taqueria", "distance": 672.6226873960001, "review_count": 189, "id": "marias-taqueria-boston", "location": {"display_address": ["226 Tremont St", "Boston, MA 02116"], "state": "MA", "city": "Boston", "address2": "", "country": "US", "zip_code": "02116", "address1": "226 Tremont St", "address3": ""}, "url": "https://www.yelp.com/biz/marias-taqueria-boston?adjust_creative=8_C4NSGbL05eUQksKleGYw&utm_campaign=yelp_api_v3&utm_medium=api_v3_business_search&utm_source=8_C4NSGbL05eUQksKleGYw", "transactions": [], "phone": "+16173577399", "image_url": "https://s3-media4.fl.yelpcdn.com/bphoto/RPrHJ7lmHGfPstgfb8JN0A/o.jpg"}, {"rating": 4.0, "display_phone": "(617) 523-3112", "price": "$$$", "categories": [{"title": "Italian", "alias": "italian"}, {"title": "Vegetarian", "alias": "vegetarian"}, {"title": "Gluten-Free", "alias": "gluten_free"}], "coordinates": {"longitude": -71.055697, "latitude": 42.364028}, "is_closed": false, "name": "Terramia Ristorante", "distance": 2207.156379912, "review_count": 210, "id": "terramia-ristorante-boston", "location": {"display_address": ["98 Salem St", "Boston, MA 02113"], "state": "MA", "city": "Boston", "address2": "", "country": "US", "zip_code": "02113", "address1": "98 Salem St", "address3": ""}, "url": "https://www.yelp.com/biz/terramia-ristorante-boston?adjust_creative=8_C4NSGbL05eUQksKleGYw&utm_campaign=yelp_api_v3&utm_medium=api_v3_business_search&utm_source=8_C4NSGbL05eUQksKleGYw", "transactions": ["pickup"], "phone": "+16175233112", "image_url": "https://s3-media1.fl.yelpcdn.com/bphoto/h4_5x1h7EdKd6TvQrlyOEA/o.jpg"}, {"rating": 3.5, "display_phone": "(617) 247-9249", "price": "$$", "categories": [{"title": "Puerto Rican", "alias": "puertorican"}, {"title": "Latin American", "alias": "latin"}], "coordinates": {"longitude": -71.0722504, "latitude": 42.3416595}, "is_closed": false, "name": "Vejigantes", "distance": 659.3367327458, "review_count": 288, "id": "vejigantes-boston-2", "location": {"display_address": ["57 W Dedham St", "Boston, MA 02118"], "state": "MA", "city": "Boston", "address2": "", "country": "US", "zip_code": "02118", "address1": "57 W Dedham St", "address3": ""}, "url": "https://www.yelp.com/biz/vejigantes-boston-2?adjust_creative=8_C4NSGbL05eUQksKleGYw&utm_campaign=yelp_api_v3&utm_medium=api_v3_business_search&utm_source=8_C4NSGbL05eUQksKleGYw", "transactions": ["delivery", "pickup"], "phone": "+16172479249", "image_url": "https://s3-media3.fl.yelpcdn.com/bphoto/kl6AnrgqIRCIkOeL2zac4Q/o.jpg"}, {"rating": 4.0, "display_phone": "(617) 542-5108", "price": "$$$", "categories": [{"title": "French", "alias": "french"}, {"title": "Jazz & Blues", "alias": "jazzandblues"}, {"title": "Venues & Event Spaces", "alias": "venues"}], "coordinates": {"longitude": -71.057466873432, "latitude": 42.351162781091}, "is_closed": false, "name": "Les Zygomates Wine Bar & Bistro", "distance": 1190.9293671136, "review_count": 374, "id": "les-zygomates-wine-bar-and-bistro-boston-3", "location": {"display_address": ["129 South St", "Boston, MA 02111"], "state": "MA", "city": "Boston", "address2": "", "country": "US", "zip_code": "02111", "address1": "129 South St", "address3": ""}, "url": "https://www.yelp.com/biz/les-zygomates-wine-bar-and-bistro-boston-3?adjust_creative=8_C4NSGbL05eUQksKleGYw&utm_campaign=yelp_api_v3&utm_medium=api_v3_business_search&utm_source=8_C4NSGbL05eUQksKleGYw", "transactions": ["delivery"], "phone": "+16175425108", "image_url": "https://s3-media2.fl.yelpcdn.com/bphoto/zIVJTReqb9GDtWG2pAE7Bg/o.jpg"}, {"rating": 4.0, "display_phone": "(617) 227-0295", "price": "$$$", "categories": [{"title": "Tobacco Shops", "alias": "tobaccoshops"}, {"title": "Lounges", "alias": "lounges"}, {"title": "Hookah Bars", "alias": "hookah_bars"}], "coordinates": {"longitude": -71.0542421, "latitude": 42.3642073}, "is_closed": false, "name": "Stanza Dei Sigari", "distance": 2280.8477366439997, "review_count": 212, "id": "stanza-dei-sigari-boston", "location": {"display_address": ["292 Hanover St", "Boston, MA 02113"], "state": "MA", "city": "Boston", "address2": "", "country": "US", "zip_code": "02113", "address1": "292 Hanover St", "address3": ""}, "url": "https://www.yelp.com/biz/stanza-dei-sigari-boston?adjust_creative=8_C4NSGbL05eUQksKleGYw&utm_campaign=yelp_api_v3&utm_medium=api_v3_business_search&utm_source=8_C4NSGbL05eUQksKleGYw", "transactions": [], "phone": "+16172270295", "image_url": "https://s3-media2.fl.yelpcdn.com/bphoto/PcW-8FwtGRqlZxrh3zbIBQ/o.jpg"}, {"rating": 4.0, "display_phone": "(617) 267-8888", "price": "$$", "categories": [{"title": "Sushi Bars", "alias": "sushi"}, {"title": "Japanese", "alias": "japanese"}], "coordinates": {"longitude": -71.09527, "latitude": 42.34957}, "is_closed": false, "name": "Fin's Sushi and Grill", "distance": 1984.55923034, "review_count": 308, "id": "fins-sushi-and-grill-boston", "location": {"display_address": ["636 Beacon St", "Boston, MA 02215"], "state": "MA", "city": "Boston", "address2": "", "country": "US", "zip_code": "02215", "address1": "636 Beacon St", "address3": ""}, "url": "https://www.yelp.com/biz/fins-sushi-and-grill-boston?adjust_creative=8_C4NSGbL05eUQksKleGYw&utm_campaign=yelp_api_v3&utm_medium=api_v3_business_search&utm_source=8_C4NSGbL05eUQksKleGYw", "transactions": ["delivery", "pickup"], "phone": "+16172678888", "image_url": "https://s3-media2.fl.yelpcdn.com/bphoto/aVlnP2BVGTNtOouS0HWinw/o.jpg"}, {"rating": 4.0, "display_phone": "(617) 315-7829", "price": "$$$", "categories": [{"title": "Wine Bars", "alias": "wine_bars"}, {"title": "American (New)", "alias": "newamerican"}, {"title": "Burgers", "alias": "burgers"}], "coordinates": {"longitude": -71.05645, "latitude": 42.34276}, "is_closed": false, "name": "The Maiden", "distance": 1339.273918722, "review_count": 61, "id": "the-maiden-boston", "location": {"display_address": ["28 W Broadway", "Boston, MA 02127"], "state": "MA", "city": "Boston", "address2": "", "country": "US", "zip_code": "02127", "address1": "28 W Broadway", "address3": ""}, "url": "https://www.yelp.com/biz/the-maiden-boston?adjust_creative=8_C4NSGbL05eUQksKleGYw&utm_campaign=yelp_api_v3&utm_medium=api_v3_business_search&utm_source=8_C4NSGbL05eUQksKleGYw", "transactions": [], "phone": "+16173157829", "image_url": "https://s3-media1.fl.yelpcdn.com/bphoto/pzJqeB9jcm7pnXQ7Eg-33g/o.jpg"}, {"rating": 4.0, "display_phone": "(617) 867-6767", "price": "$", "categories": [{"title": "Mediterranean", "alias": "mediterranean"}], "coordinates": {"longitude": -71.0879785, "latitude": 42.3469996}, "is_closed": false, "name": "Zest Mediterranean Grille", "distance": 1378.8120229079998, "review_count": 119, "id": "zest-mediterranean-grille-boston", "location": {"display_address": ["1076 Boylston St", "Boston, MA 02215"], "state": "MA", "city": "Boston", "address2": "", "country": "US", "zip_code": "02215", "address1": "1076 Boylston St", "address3": ""}, "url": "https://www.yelp.com/biz/zest-mediterranean-grille-boston?adjust_creative=8_C4NSGbL05eUQksKleGYw&utm_campaign=yelp_api_v3&utm_medium=api_v3_business_search&utm_source=8_C4NSGbL05eUQksKleGYw", "transactions": ["delivery", "pickup"], "phone": "+16178676767", "image_url": "https://s3-media4.fl.yelpcdn.com/bphoto/f_lrgz1-aG3Gd_RvSGF59Q/o.jpg"}, {"rating": 4.0, "display_phone": "(857) 957-0217", "price": "$$", "categories": [{"title": "Coffee & Tea", "alias": "coffee"}], "coordinates": {"longitude": -71.0615319915548, "latitude": 42.3546934406566}, "is_closed": false, "name": "George Howell Coffee", "distance": 1103.3356624179999, "review_count": 71, "id": "george-howell-coffee-boston-4", "location": {"display_address": ["505 Washington St", "Boston, MA 02135"], "state": "MA", "city": "Boston", "address2": "505 Washington St", "country": "US", "zip_code": "02135", "address1": "", "address3": null}, "url": "https://www.yelp.com/biz/george-howell-coffee-boston-4?adjust_creative=8_C4NSGbL05eUQksKleGYw&utm_campaign=yelp_api_v3&utm_medium=api_v3_business_search&utm_source=8_C4NSGbL05eUQksKleGYw", "transactions": [], "phone": "+18579570217", "image_url": "https://s3-media2.fl.yelpcdn.com/bphoto/3e-Dm_8SgfaQiPbOYYy2uA/o.jpg"}, {"rating": 4.0, "display_phone": "(857) 366-4640", "price": "$", "categories": [{"title": "Grocery", "alias": "grocery"}, {"title": "Italian", "alias": "italian"}, {"title": "Delis", "alias": "delis"}], "coordinates": {"longitude": -71.0380000902748, "latitude": 42.3482864462329}, "is_closed": false, "name": "J Pace & Son", "distance": 2732.2215795199995, "review_count": 99, "id": "j-pace-and-son-boston-4", "location": {"display_address": ["225 Northern Ave", "Boston, MA 02210"], "state": "MA", "city": "Boston", "address2": "", "country": "US", "zip_code": "02210", "address1": "225 Northern Ave", "address3": ""}, "url": "https://www.yelp.com/biz/j-pace-and-son-boston-4?adjust_creative=8_C4NSGbL05eUQksKleGYw&utm_campaign=yelp_api_v3&utm_medium=api_v3_business_search&utm_source=8_C4NSGbL05eUQksKleGYw", "transactions": [], "phone": "+18573664640", "image_url": "https://s3-media3.fl.yelpcdn.com/bphoto/oEQis8Oy38olwDRLgeKfnA/o.jpg"}, {"rating": 4.0, "display_phone": "(857) 277-1531", "price": "$", "categories": [{"title": "Coffee & Tea", "alias": "coffee"}, {"title": "Bakeries", "alias": "bakeries"}, {"title": "Sandwiches", "alias": "sandwiches"}], "coordinates": {"longitude": -71.0694199, "latitude": 42.3430595}, "is_closed": false, "name": "The Wholy Grain", "distance": 554.4938483424, "review_count": 134, "id": "the-wholy-grain-boston", "location": {"display_address": ["275 Shawmut Ave", "Boston, MA 02118"], "state": "MA", "city": "Boston", "address2": "", "country": "US", "zip_code": "02118", "address1": "275 Shawmut Ave", "address3": ""}, "url": "https://www.yelp.com/biz/the-wholy-grain-boston?adjust_creative=8_C4NSGbL05eUQksKleGYw&utm_campaign=yelp_api_v3&utm_medium=api_v3_business_search&utm_source=8_C4NSGbL05eUQksKleGYw", "transactions": [], "phone": "+18572771531", "image_url": "https://s3-media3.fl.yelpcdn.com/bphoto/5aaToxw9SoAB2A_10fknyg/o.jpg"}, {"rating": 3.5, "display_phone": "(617) 451-5997", "price": "$$", "categories": [{"title": "Bars", "alias": "bars"}, {"title": "American (Traditional)", "alias": "tradamerican"}, {"title": "Burgers", "alias": "burgers"}], "coordinates": {"longitude": -71.0645904541016, "latitude": 42.3513412475586}, "is_closed": false, "name": "Intermission Tavern", "distance": 668.9255988942, "review_count": 311, "id": "intermission-tavern-boston-2", "location": {"display_address": ["228 Tremont St", "Boston, MA 02116"], "state": "MA", "city": "Boston", "address2": "", "country": "US", "zip_code": "02116", "address1": "228 Tremont St", "address3": ""}, "url": "https://www.yelp.com/biz/intermission-tavern-boston-2?adjust_creative=8_C4NSGbL05eUQksKleGYw&utm_campaign=yelp_api_v3&utm_medium=api_v3_business_search&utm_source=8_C4NSGbL05eUQksKleGYw", "transactions": [], "phone": "+16174515997", "image_url": "https://s3-media4.fl.yelpcdn.com/bphoto/331Dd0SQUYS-l78BneUu0A/o.jpg"}, {"rating": 4.0, "display_phone": "(617) 738-0888", "price": "$$", "categories": [{"title": "Japanese", "alias": "japanese"}, {"title": "Sushi Bars", "alias": "sushi"}], "coordinates": {"longitude": -71.101709, "latitude": 42.332906}, "is_closed": false, "name": "Sushi Station", "distance": 3004.7410996279996, "review_count": 160, "id": "sushi-station-boston", "location": {"display_address": ["1562 Tremont St", "Ste 1", "Boston, MA 02120"], "state": "MA", "city": "Boston", "address2": "Ste 1", "country": "US", "zip_code": "02120", "address1": "1562 Tremont St", "address3": ""}, "url": "https://www.yelp.com/biz/sushi-station-boston?adjust_creative=8_C4NSGbL05eUQksKleGYw&utm_campaign=yelp_api_v3&utm_medium=api_v3_business_search&utm_source=8_C4NSGbL05eUQksKleGYw", "transactions": ["delivery", "pickup"], "phone": "+16177380888", "image_url": "https://s3-media2.fl.yelpcdn.com/bphoto/0v0SEuT4BFtIx0TaCiC17Q/o.jpg"}, {"rating": 4.5, "display_phone": "(857) 277-1895", "price": "$$$", "categories": [{"title": "Seafood", "alias": "seafood"}], "coordinates": {"longitude": -71.05141, "latitude": 42.36541}, "is_closed": false, "name": "il Molo", "distance": 2560.3477690019995, "review_count": 54, "id": "il-molo-boston", "location": {"display_address": ["326 Commercial St", "Boston, MA 02109"], "state": "MA", "city": "Boston", "address2": "", "country": "US", "zip_code": "02109", "address1": "326 Commercial St", "address3": ""}, "url": "https://www.yelp.com/biz/il-molo-boston?adjust_creative=8_C4NSGbL05eUQksKleGYw&utm_campaign=yelp_api_v3&utm_medium=api_v3_business_search&utm_source=8_C4NSGbL05eUQksKleGYw", "transactions": [], "phone": "+18572771895", "image_url": "https://s3-media2.fl.yelpcdn.com/bphoto/iybwPjh2W0sMmGLq7bba8A/o.jpg"}, {"rating": 4.0, "display_phone": "(617) 482-1112", "price": "$", "categories": [{"title": "Italian", "alias": "italian"}, {"title": "Sandwiches", "alias": "sandwiches"}, {"title": "Caterers", "alias": "catering"}], "coordinates": {"longitude": -71.0538399, "latitude": 42.35474}, "is_closed": false, "name": "Viga Eatery & Catering", "distance": 1622.788127842, "review_count": 63, "id": "viga-eatery-and-catering-boston", "location": {"display_address": ["133 Pearl St", "Boston, MA 02110"], "state": "MA", "city": "Boston", "address2": "", "country": "US", "zip_code": "02110", "address1": "133 Pearl St", "address3": ""}, "url": "https://www.yelp.com/biz/viga-eatery-and-catering-boston?adjust_creative=8_C4NSGbL05eUQksKleGYw&utm_campaign=yelp_api_v3&utm_medium=api_v3_business_search&utm_source=8_C4NSGbL05eUQksKleGYw", "transactions": [], "phone": "+16174821112", "image_url": "https://s3-media1.fl.yelpcdn.com/bphoto/rrxpjk7ncgx5MMleEsoOkA/o.jpg"}, {"rating": 4.5, "display_phone": "(617) 569-3787", "price": "$$", "categories": [{"title": "Mexican", "alias": "mexican"}, {"title": "Salvadoran", "alias": "salvadoran"}, {"title": "Seafood", "alias": "seafood"}], "coordinates": {"longitude": -71.0398847, "latitude": 42.3790925}, "is_closed": false, "name": "Mi Pueblito Restaurant", "distance": 4323.554191458, "review_count": 121, "id": "mi-pueblito-restaurant-boston", "location": {"display_address": ["333 Border St", "Boston, MA 02128"], "state": "MA", "city": "Boston", "address2": "", "country": "US", "zip_code": "02128", "address1": "333 Border St", "address3": ""}, "url": "https://www.yelp.com/biz/mi-pueblito-restaurant-boston?adjust_creative=8_C4NSGbL05eUQksKleGYw&utm_campaign=yelp_api_v3&utm_medium=api_v3_business_search&utm_source=8_C4NSGbL05eUQksKleGYw", "transactions": [], "phone": "+16175693787", "image_url": "https://s3-media1.fl.yelpcdn.com/bphoto/adLufxu5qbl_Qzj-p_V_BA/o.jpg"}, {"rating": 4.0, "display_phone": "(617) 259-1619", "price": "$", "categories": [{"title": "American (New)", "alias": "newamerican"}, {"title": "Mexican", "alias": "mexican"}], "coordinates": {"longitude": -71.0764312744141, "latitude": 42.3506202697754}, "is_closed": false, "name": "Boloco Copley Square", "distance": 531.2257209411999, "review_count": 203, "id": "boloco-copley-square-boston", "location": {"display_address": ["569 Boylston St", "Boston, MA 02116"], "state": "MA", "city": "Boston", "address2": "", "country": "US", "zip_code": "02116", "address1": "569 Boylston St", "address3": ""}, "url": "https://www.yelp.com/biz/boloco-copley-square-boston?adjust_creative=8_C4NSGbL05eUQksKleGYw&utm_campaign=yelp_api_v3&utm_medium=api_v3_business_search&utm_source=8_C4NSGbL05eUQksKleGYw", "transactions": [], "phone": "+16172591619", "image_url": "https://s3-media1.fl.yelpcdn.com/bphoto/rv97Kqd5pgDcR4PRHFVEig/o.jpg"}, {"rating": 4.0, "display_phone": "(617) 367-1123", "price": "$$", "categories": [{"title": "Italian", "alias": "italian"}, {"title": "Wine Bars", "alias": "wine_bars"}], "coordinates": {"longitude": -71.0532836914062, "latitude": 42.3653869628906}, "is_closed": false, "name": "Maurizios", "distance": 2442.738167406, "review_count": 255, "id": "maurizios-boston", "location": {"display_address": ["364 Hanover St", "Boston, MA 02113"], "state": "MA", "city": "Boston", "address2": "", "country": "US", "zip_code": "02113", "address1": "364 Hanover St", "address3": ""}, "url": "https://www.yelp.com/biz/maurizios-boston?adjust_creative=8_C4NSGbL05eUQksKleGYw&utm_campaign=yelp_api_v3&utm_medium=api_v3_business_search&utm_source=8_C4NSGbL05eUQksKleGYw", "transactions": [], "phone": "+16173671123", "image_url": "https://s3-media2.fl.yelpcdn.com/bphoto/5Xl_HpXtJXWX2qsw9skD1Q/o.jpg"}, {"rating": 3.5, "display_phone": "(617) 338-8686", "price": "$$", "categories": [{"title": "Sushi Bars", "alias": "sushi"}, {"title": "Japanese", "alias": "japanese"}, {"title": "Bars", "alias": "bars"}], "coordinates": {"longitude": -71.0647221654654, "latitude": 42.3512460187279}, "is_closed": false, "name": "Genki Ya", "distance": 656.1401972642, "review_count": 356, "id": "genki-ya-boston", "location": {"display_address": ["232 Tremont St", "Boston, MA 02116"], "state": "MA", "city": "Boston", "address2": "", "country": "US", "zip_code": "02116", "address1": "232 Tremont St", "address3": ""}, "url": "https://www.yelp.com/biz/genki-ya-boston?adjust_creative=8_C4NSGbL05eUQksKleGYw&utm_campaign=yelp_api_v3&utm_medium=api_v3_business_search&utm_source=8_C4NSGbL05eUQksKleGYw", "transactions": ["delivery", "pickup"], "phone": "+16173388686", "image_url": "https://s3-media2.fl.yelpcdn.com/bphoto/8xJTkEE-dpAxT722wBt66A/o.jpg"}, {"rating": 3.5, "display_phone": "(617) 742-5300", "price": "$$$", "categories": [{"title": "Seafood", "alias": "seafood"}, {"title": "Gluten-Free", "alias": "gluten_free"}, {"title": "Bars", "alias": "bars"}], "coordinates": {"longitude": -71.0510174185038, "latitude": 42.3595530399974}, "is_closed": false, "name": "Legal Sea Foods", "distance": 2111.393086014, "review_count": 876, "id": "legal-sea-foods-boston-38", "location": {"display_address": ["255 State St", "Boston, MA 02109"], "state": "MA", "city": "Boston", "address2": "", "country": "US", "zip_code": "02109", "address1": "255 State St", "address3": ""}, "url": "https://www.yelp.com/biz/legal-sea-foods-boston-38?adjust_creative=8_C4NSGbL05eUQksKleGYw&utm_campaign=yelp_api_v3&utm_medium=api_v3_business_search&utm_source=8_C4NSGbL05eUQksKleGYw", "transactions": [], "phone": "+16177425300", "image_url": "https://s3-media1.fl.yelpcdn.com/bphoto/x0Khp-RKkwTBasbmhJf4vg/o.jpg"}, {"rating": 4.0, "display_phone": "(617) 567-9871", "price": "$$", "categories": [{"title": "Pizza", "alias": "pizza"}], "coordinates": {"longitude": -71.0352554321289, "latitude": 42.3726043701172}, "is_closed": false, "name": "Santarpio's Pizza", "distance": 4041.902954322, "review_count": 889, "id": "santarpios-pizza-boston-2", "location": {"display_address": ["111 Chelsea St", "Boston, MA 02128"], "state": "MA", "city": "Boston", "address2": "", "country": "US", "zip_code": "02128", "address1": "111 Chelsea St", "address3": ""}, "url": "https://www.yelp.com/biz/santarpios-pizza-boston-2?adjust_creative=8_C4NSGbL05eUQksKleGYw&utm_campaign=yelp_api_v3&utm_medium=api_v3_business_search&utm_source=8_C4NSGbL05eUQksKleGYw", "transactions": [], "phone": "+16175679871", "image_url": "https://s3-media3.fl.yelpcdn.com/bphoto/5QVtZDY6KMJS000C4qHyAw/o.jpg"}, {"rating": 4.0, "display_phone": "(617) 993-0750", "price": "$$$", "categories": [{"title": "Brasseries", "alias": "brasseries"}, {"title": "American (New)", "alias": "newamerican"}], "coordinates": {"longitude": -71.0590591430664, "latitude": 42.3522148132324}, "is_closed": false, "name": "Townsman", "distance": 1116.0175030189998, "review_count": 206, "id": "townsman-boston", "location": {"display_address": ["120 Kingston St", "Boston, MA 02111"], "state": "MA", "city": "Boston", "address2": "", "country": "US", "zip_code": "02111", "address1": "120 Kingston St", "address3": ""}, "url": "https://www.yelp.com/biz/townsman-boston?adjust_creative=8_C4NSGbL05eUQksKleGYw&utm_campaign=yelp_api_v3&utm_medium=api_v3_business_search&utm_source=8_C4NSGbL05eUQksKleGYw", "transactions": [], "phone": "+16179930750", "image_url": "https://s3-media2.fl.yelpcdn.com/bphoto/5Bl0JouxQQt2TZvpkoAugQ/o.jpg"}, {"rating": 4.0, "display_phone": "(617) 292-0020", "categories": [{"title": "Parks", "alias": "parks"}], "coordinates": {"longitude": -71.05624, "latitude": 42.3511}, "is_closed": false, "name": "Rose Fitzgerald Kennedy Greenway", "distance": 1293.2142377737998, "review_count": 47, "id": "rose-fitzgerald-kennedy-greenway-boston", "location": {"display_address": ["Atlantic Ave", "Boston, MA 02111"], "state": "MA", "city": "Boston", "address2": "", "country": "US", "zip_code": "02111", "address1": "Atlantic Ave", "address3": ""}, "url": "https://www.yelp.com/biz/rose-fitzgerald-kennedy-greenway-boston?adjust_creative=8_C4NSGbL05eUQksKleGYw&utm_campaign=yelp_api_v3&utm_medium=api_v3_business_search&utm_source=8_C4NSGbL05eUQksKleGYw", "transactions": [], "phone": "+16172920020", "image_url": "https://s3-media1.fl.yelpcdn.com/bphoto/50wa6XQQdSMtCMwhONm9iQ/o.jpg"}, {"rating": 3.5, "display_phone": "(617) 357-5825", "price": "$$", "categories": [{"title": "Lounges", "alias": "lounges"}, {"title": "American (Traditional)", "alias": "tradamerican"}, {"title": "Music Venues", "alias": "musicvenues"}], "coordinates": {"longitude": -71.0484848022461, "latitude": 42.350040435791}, "is_closed": false, "name": "Lucky's Lounge", "distance": 1886.1648264759997, "review_count": 548, "id": "luckys-lounge-boston-2", "location": {"display_address": ["355 Congress St", "Boston, MA 02210"], "state": "MA", "city": "Boston", "address2": "", "country": "US", "zip_code": "02210", "address1": "355 Congress St", "address3": ""}, "url": "https://www.yelp.com/biz/luckys-lounge-boston-2?adjust_creative=8_C4NSGbL05eUQksKleGYw&utm_campaign=yelp_api_v3&utm_medium=api_v3_business_search&utm_source=8_C4NSGbL05eUQksKleGYw", "transactions": [], "phone": "+16173575825", "image_url": "https://s3-media3.fl.yelpcdn.com/bphoto/Yk1obwLkMH_we7bcig3KNQ/o.jpg"}, {"rating": 4.0, "display_phone": "(617) 437-0966", "price": "$", "categories": [{"title": "Ice Cream & Frozen Yogurt", "alias": "icecream"}, {"title": "American (Traditional)", "alias": "tradamerican"}, {"title": "Middle Eastern", "alias": "mideastern"}], "coordinates": {"longitude": -71.09912, "latitude": 42.34255}, "is_closed": false, "name": "Hidyan Caf\u00e9", "distance": 2365.395218214, "review_count": 113, "id": "hidyan-caf\u00e9-boston-2", "location": {"display_address": ["80 Kilmarnock St", "Boston, MA 02215"], "state": "MA", "city": "Boston", "address2": "", "country": "US", "zip_code": "02215", "address1": "80 Kilmarnock St", "address3": ""}, "url": "https://www.yelp.com/biz/hidyan-caf%C3%A9-boston-2?adjust_creative=8_C4NSGbL05eUQksKleGYw&utm_campaign=yelp_api_v3&utm_medium=api_v3_business_search&utm_source=8_C4NSGbL05eUQksKleGYw", "transactions": ["delivery", "pickup"], "phone": "+16174370966", "image_url": "https://s3-media2.fl.yelpcdn.com/bphoto/33_Hj5YJ4e4c_n8B8GTmAw/o.jpg"}, {"rating": 4.0, "display_phone": "(617) 752-4206", "price": "$$", "categories": [{"title": "American (New)", "alias": "newamerican"}, {"title": "Bars", "alias": "bars"}], "coordinates": {"longitude": -71.0568092748732, "latitude": 42.3427610900378}, "is_closed": false, "name": "Worden Hall", "distance": 1313.98507183, "review_count": 181, "id": "worden-hall-boston", "location": {"display_address": ["22 W Broadway", "Boston, MA 02127"], "state": "MA", "city": "Boston", "address2": "", "country": "US", "zip_code": "02127", "address1": "22 W Broadway", "address3": ""}, "url": "https://www.yelp.com/biz/worden-hall-boston?adjust_creative=8_C4NSGbL05eUQksKleGYw&utm_campaign=yelp_api_v3&utm_medium=api_v3_business_search&utm_source=8_C4NSGbL05eUQksKleGYw", "transactions": [], "phone": "+16177524206", "image_url": "https://s3-media2.fl.yelpcdn.com/bphoto/GGrs2_GKtTktrvIDVYNPEg/o.jpg"}, {"rating": 3.5, "display_phone": "(617) 267-8688", "price": "$$", "categories": [{"title": "Bookstores", "alias": "bookstores"}, {"title": "Breakfast & Brunch", "alias": "breakfast_brunch"}, {"title": "Sandwiches", "alias": "sandwiches"}], "coordinates": {"longitude": -71.08662, "latitude": 42.3482399}, "is_closed": false, "name": "Trident Booksellers & Caf\u00e9", "distance": 1263.5061432418, "review_count": 1586, "id": "trident-booksellers-and-caf\u00e9-boston-2", "location": {"display_address": ["338 Newbury St", "Boston, MA 02115"], "state": "MA", "city": "Boston", "address2": "", "country": "US", "zip_code": "02115", "address1": "338 Newbury St", "address3": ""}, "url": "https://www.yelp.com/biz/trident-booksellers-and-caf%C3%A9-boston-2?adjust_creative=8_C4NSGbL05eUQksKleGYw&utm_campaign=yelp_api_v3&utm_medium=api_v3_business_search&utm_source=8_C4NSGbL05eUQksKleGYw", "transactions": ["delivery"], "phone": "+16172678688", "image_url": "https://s3-media4.fl.yelpcdn.com/bphoto/IgvmxUmr6yv0LldWs281HQ/o.jpg"}, {"rating": 4.0, "display_phone": "(617) 299-1504", "price": "$$", "categories": [{"title": "Bakeries", "alias": "bakeries"}, {"title": "Coffee & Tea", "alias": "coffee"}, {"title": "Desserts", "alias": "desserts"}], "coordinates": {"longitude": -71.0866001, "latitude": 42.3434116}, "is_closed": false, "name": "Oakleaf Cakes", "distance": 1354.997975192, "review_count": 120, "id": "oakleaf-cakes-boston-2", "location": {"display_address": ["12 Westland Ave", "Boston, MA 02115"], "state": "MA", "city": "Boston", "address2": "", "country": "US", "zip_code": "02115", "address1": "12 Westland Ave", "address3": ""}, "url": "https://www.yelp.com/biz/oakleaf-cakes-boston-2?adjust_creative=8_C4NSGbL05eUQksKleGYw&utm_campaign=yelp_api_v3&utm_medium=api_v3_business_search&utm_source=8_C4NSGbL05eUQksKleGYw", "transactions": [], "phone": "+16172991504", "image_url": "https://s3-media1.fl.yelpcdn.com/bphoto/JKjlhX1DC-O2wrgg-luJVQ/o.jpg"}, {"rating": 4.0, "display_phone": "(617) 422-0008", "price": "$$$", "categories": [{"title": "Mediterranean", "alias": "mediterranean"}, {"title": "Greek", "alias": "greek"}, {"title": "Cocktail Bars", "alias": "cocktailbars"}], "coordinates": {"longitude": -71.0701272977902, "latitude": 42.35153296594}, "is_closed": false, "name": "Doretta Taverna & Raw Bar", "distance": 420.2667168952, "review_count": 96, "id": "doretta-taverna-and-raw-bar-boston", "location": {"display_address": ["79 Park Plz", "Boston, MA 02116"], "state": "MA", "city": "Boston", "address2": "", "country": "US", "zip_code": "02116", "address1": "79 Park Plz", "address3": ""}, "url": "https://www.yelp.com/biz/doretta-taverna-and-raw-bar-boston?adjust_creative=8_C4NSGbL05eUQksKleGYw&utm_campaign=yelp_api_v3&utm_medium=api_v3_business_search&utm_source=8_C4NSGbL05eUQksKleGYw", "transactions": [], "phone": "+16174220008", "image_url": "https://s3-media1.fl.yelpcdn.com/bphoto/HxJHHFG76rcNzl0dydnYfw/o.jpg"}], "total": 24769}