{"region": {"center": {"longitude": -71.07124328613281, "latitude": 42.34784169448538}}, "businesses": [{"rating": 3.5, "display_phone": "(617) 556-8000", "price": "$$$", "categories": [{"title": "Bars", "alias": "bars"}, {"title": "French", "alias": "french"}], "coordinates": {"longitude": -71.0501609, "latitude": 42.349462}, "is_closed": false, "name": "Bastille Kitchen", "distance": 1741.6573598559999, "review_count": 189, "id": "bastille-kitchen-boston", "location": {"display_address": ["49 Melcher St", "Boston, MA 02210"], "state": "MA", "city": "Boston", "address2": "", "country": "US", "zip_code": "02210", "address1": "49 Melcher St", "address3": ""}, "url": "https://www.yelp.com/biz/bastille-kitchen-boston?adjust_creative=8_C4NSGbL05eUQksKleGYw&utm_campaign=yelp_api_v3&utm_medium=api_v3_business_search&utm_source=8_C4NSGbL05eUQksKleGYw", "transactions": [], "phone": "+16175568000", "image_url": "https://s3-media2.fl.yelpcdn.com/bphoto/dykO2SzGpiEHY7DrD2H42Q/o.jpg"}, {"rating": 3.5, "display_phone": "(617) 720-1336", "price": "$$", "categories": [{"title": "Italian", "alias": "italian"}, {"title": "Wine Bars", "alias": "wine_bars"}], "coordinates": {"longitude": -71.0545270889997, "latitude": 42.3638492077589}, "is_closed": false, "name": "Trattoria Il Panino", "distance": 2269.357049044, "review_count": 193, "id": "trattoria-il-panino-boston-3", "location": {"display_address": ["278 Hanover St", "Boston, MA 02113"], "state": "MA", "city": "Boston", "address2": "", "country": "US", "zip_code": "02113", "address1": "278 Hanover St", "address3": ""}, "url": "https://www.yelp.com/biz/trattoria-il-panino-boston-3?adjust_creative=8_C4NSGbL05eUQksKleGYw&utm_campaign=yelp_api_v3&utm_medium=api_v3_business_search&utm_source=8_C4NSGbL05eUQksKleGYw", "transactions": [], "phone": "+16177201336", "image_url": "https://s3-media2.fl.yelpcdn.com/bphoto/XFMVAsEnwd2G3RbYnjDY-Q/o.jpg"}, {"rating": 4.0, "display_phone": "(617) 859-7017", "price": "$", "categories": [{"title": "Fast Food", "alias": "hotdogs"}, {"title": "Sandwiches", "alias": "sandwiches"}], "coordinates": {"longitude": -71.0898874, "latitude": 42.3381946}, "is_closed": false, "name": "Chicken Lou's", "distance": 1870.628579984, "review_count": 98, "id": "chicken-lous-boston", "location": {"display_address": ["50 Forsyth St", "Boston, MA 02115"], "state": "MA", "city": "Boston", "address2": "", "country": "US", "zip_code": "02115", "address1": "50 Forsyth St", "address3": ""}, "url": "https://www.yelp.com/biz/chicken-lous-boston?adjust_creative=8_C4NSGbL05eUQksKleGYw&utm_campaign=yelp_api_v3&utm_medium=api_v3_business_search&utm_source=8_C4NSGbL05eUQksKleGYw", "transactions": ["delivery", "pickup"], "phone": "+16178597017", "image_url": "https://s3-media4.fl.yelpcdn.com/bphoto/E5XAG43yMCftEXfWlPxmqQ/o.jpg"}, {"rating": 4.0, "display_phone": "(617) 567-4972", "price": "$$", "categories": [{"title": "Mexican", "alias": "mexican"}], "coordinates": {"longitude": -71.0349960327148, "latitude": 42.378532409668}, "is_closed": false, "name": "Angela's Cafe Eagle Hill", "distance": 4530.578079718, "review_count": 319, "id": "angelas-cafe-eagle-hill-boston", "location": {"display_address": ["131 Lexington St", "Boston, MA 02128"], "state": "MA", "city": "Boston", "address2": "", "country": "US", "zip_code": "02128", "address1": "131 Lexington St", "address3": ""}, "url": "https://www.yelp.com/biz/angelas-cafe-eagle-hill-boston?adjust_creative=8_C4NSGbL05eUQksKleGYw&utm_campaign=yelp_api_v3&utm_medium=api_v3_business_search&utm_source=8_C4NSGbL05eUQksKleGYw", "transactions": [], "phone": "+16175674972", "image_url": "https://s3-media1.fl.yelpcdn.com/bphoto/Dn8cp_txj54YjmGJn_Iivw/o.jpg"}, {"rating": 3.5, "display_phone": "(617) 447-2183", "price": "$$", "categories": [{"title": "Sushi Bars", "alias": "sushi"}, {"title": "Japanese", "alias": "japanese"}], "coordinates": {"longitude": -71.0769424438477, "latitude": 42.3369369506836}, "is_closed": false, "name": "Seiyo", "distance": 1280.41987212, "review_count": 190, "id": "seiyo-boston", "location": {"display_address": ["1721 Washington St", "Boston, MA 02118"], "state": "MA", "city": "Boston", "address2": null, "country": "US", "zip_code": "02118", "address1": "1721 Washington St", "address3": ""}, "url": "https://www.yelp.com/biz/seiyo-boston?adjust_creative=8_C4NSGbL05eUQksKleGYw&utm_campaign=yelp_api_v3&utm_medium=api_v3_business_search&utm_source=8_C4NSGbL05eUQksKleGYw", "transactions": ["delivery"], "phone": "+16174472183", "image_url": "https://s3-media1.fl.yelpcdn.com/bphoto/3HAvuM6d3E3yejnbOHeVWg/o.jpg"}, {"rating": 4.0, "display_phone": "(617) 863-8363", "price": "$$", "categories": [{"title": "American (New)", "alias": "newamerican"}], "coordinates": {"longitude": -71.0513283, "latitude": 42.3595754}, "is_closed": false, "name": "State Street Provisions", "distance": 2088.86779777, "review_count": 165, "id": "state-street-provisions-boston", "location": {"display_address": ["255 State Street", "Long Wharf", "Boston, MA 02109"], "state": "MA", "city": "Boston", "address2": "Long Wharf", "country": "US", "zip_code": "02109", "address1": "255 State Street", "address3": ""}, "url": "https://www.yelp.com/biz/state-street-provisions-boston?adjust_creative=8_C4NSGbL05eUQksKleGYw&utm_campaign=yelp_api_v3&utm_medium=api_v3_business_search&utm_source=8_C4NSGbL05eUQksKleGYw", "transactions": [], "phone": "+16178638363", "image_url": "https://s3-media2.fl.yelpcdn.com/bphoto/BSMXTnvnYBGUdkdzoaA3rg/o.jpg"}, {"rating": 3.5, "display_phone": "(617) 426-4444", "price": "$$$", "categories": [{"title": "Seafood", "alias": "seafood"}, {"title": "Gluten-Free", "alias": "gluten_free"}], "coordinates": {"longitude": -71.0679728, "latitude": 42.3510123}, "is_closed": false, "name": "Legal Sea Foods", "distance": 443.38923121319993, "review_count": 481, "id": "legal-sea-foods-boston-39", "location": {"display_address": ["26 Park Plz", "Boston, MA 02116"], "state": "MA", "city": "Boston", "address2": "", "country": "US", "zip_code": "02116", "address1": "26 Park Plz", "address3": ""}, "url": "https://www.yelp.com/biz/legal-sea-foods-boston-39?adjust_creative=8_C4NSGbL05eUQksKleGYw&utm_campaign=yelp_api_v3&utm_medium=api_v3_business_search&utm_source=8_C4NSGbL05eUQksKleGYw", "transactions": [], "phone": "+16174264444", "image_url": "https://s3-media3.fl.yelpcdn.com/bphoto/kiH4an4hmb8DXXwZYEb81w/o.jpg"}, {"rating": 4.0, "display_phone": "(617) 227-1181", "price": "$", "categories": [{"title": "Italian", "alias": "italian"}, {"title": "Sandwiches", "alias": "sandwiches"}, {"title": "Pizza", "alias": "pizza"}], "coordinates": {"longitude": -71.0635452, "latitude": 42.3610458}, "is_closed": false, "name": "Uptown Cafe", "distance": 1606.0738444699998, "review_count": 65, "id": "uptown-cafe-boston", "location": {"display_address": ["120 Cambridge St", "Boston, MA 02114"], "state": "MA", "city": "Boston", "address2": "", "country": "US", "zip_code": "02114", "address1": "120 Cambridge St", "address3": ""}, "url": "https://www.yelp.com/biz/uptown-cafe-boston?adjust_creative=8_C4NSGbL05eUQksKleGYw&utm_campaign=yelp_api_v3&utm_medium=api_v3_business_search&utm_source=8_C4NSGbL05eUQksKleGYw", "transactions": [], "phone": "+16172271181", "image_url": "https://s3-media2.fl.yelpcdn.com/bphoto/QUZ-WYLRIYHC53EvTmMlXw/o.jpg"}, {"rating": 4.5, "display_phone": "(617) 567-6373", "price": "$", "categories": [{"title": "Cheese Shops", "alias": "cheese"}, {"title": "Delis", "alias": "delis"}], "coordinates": {"longitude": -71.0353165, "latitude": 42.3678818}, "is_closed": false, "name": "Carmella's Market", "distance": 3698.78957418, "review_count": 20, "id": "carmellas-market-boston", "location": {"display_address": ["86 Cottage St", "Boston, MA 02128"], "state": "MA", "city": "Boston", "address2": "", "country": "US", "zip_code": "02128", "address1": "86 Cottage St", "address3": ""}, "url": "https://www.yelp.com/biz/carmellas-market-boston?adjust_creative=8_C4NSGbL05eUQksKleGYw&utm_campaign=yelp_api_v3&utm_medium=api_v3_business_search&utm_source=8_C4NSGbL05eUQksKleGYw", "transactions": [], "phone": "+16175676373", "image_url": "https://s3-media1.fl.yelpcdn.com/bphoto/Vy_DE4OdwNGWAvN9AiWoSQ/o.jpg"}, {"rating": 4.0, "display_phone": "(617) 536-7500", "price": "$$", "categories": [{"title": "Italian", "alias": "italian"}], "coordinates": {"longitude": -71.0812225341797, "latitude": 42.3496932983398}, "is_closed": false, "name": "Piattini Gelateria and Caf\u00e9", "distance": 847.2326977819998, "review_count": 35, "id": "piattini-gelateria-and-caf\u00e9-boston-2", "location": {"display_address": ["226 Newbury St", "Boston, MA 02116"], "state": "MA", "city": "Boston", "address2": null, "country": "US", "zip_code": "02116", "address1": "226 Newbury St", "address3": ""}, "url": "https://www.yelp.com/biz/piattini-gelateria-and-caf%C3%A9-boston-2?adjust_creative=8_C4NSGbL05eUQksKleGYw&utm_campaign=yelp_api_v3&utm_medium=api_v3_business_search&utm_source=8_C4NSGbL05eUQksKleGYw", "transactions": [], "phone": "+16175367500", "image_url": "https://s3-media4.fl.yelpcdn.com/bphoto/etfw_xM4pSX-ci15ohIDAg/o.jpg"}, {"rating": 4.0, "display_phone": "(617) 236-3100", "categories": [{"title": "Landmarks & Historical Buildings", "alias": "landmarks"}], "coordinates": {"longitude": -71.08135, "latitude": 42.34751}, "is_closed": false, "name": "Prudential Tower", "distance": 924.4188972579999, "review_count": 46, "id": "prudential-tower-boston", "location": {"display_address": ["800 Boylston St", "Boston, MA 02199"], "state": "MA", "city": "Boston", "address2": "", "country": "US", "zip_code": "02199", "address1": "800 Boylston St", "address3": ""}, "url": "https://www.yelp.com/biz/prudential-tower-boston?adjust_creative=8_C4NSGbL05eUQksKleGYw&utm_campaign=yelp_api_v3&utm_medium=api_v3_business_search&utm_source=8_C4NSGbL05eUQksKleGYw", "transactions": [], "phone": "+16172363100", "image_url": "https://s3-media2.fl.yelpcdn.com/bphoto/2HTUWzoL_Zj1cf9DLET9cg/o.jpg"}, {"rating": 3.5, "display_phone": "(617) 269-3500", "price": "$", "categories": [{"title": "Pizza", "alias": "pizza"}, {"title": "Italian", "alias": "italian"}, {"title": "Sandwiches", "alias": "sandwiches"}], "coordinates": {"longitude": -71.04922, "latitude": 42.33994}, "is_closed": false, "name": "AK's Takeout & Delivery", "distance": 2010.4464298439998, "review_count": 127, "id": "aks-takeout-and-delivery-boston", "location": {"display_address": ["309 D St", "Boston, MA 02127"], "state": "MA", "city": "Boston", "address2": "", "country": "US", "zip_code": "02127", "address1": "309 D St", "address3": ""}, "url": "https://www.yelp.com/biz/aks-takeout-and-delivery-boston?adjust_creative=8_C4NSGbL05eUQksKleGYw&utm_campaign=yelp_api_v3&utm_medium=api_v3_business_search&utm_source=8_C4NSGbL05eUQksKleGYw", "transactions": ["delivery", "pickup"], "phone": "+16172693500", "image_url": "https://s3-media2.fl.yelpcdn.com/bphoto/p4n2SJzNSJDx-Ddwlzan0w/o.jpg"}, {"rating": 3.5, "display_phone": "(617) 227-3320", "price": "$$", "categories": [{"title": "Thai", "alias": "thai"}], "coordinates": {"longitude": -71.0705642700195, "latitude": 42.3603591918945}, "is_closed": false, "name": "King and I", "distance": 1393.5602721623998, "review_count": 276, "id": "king-and-i-boston-2", "location": {"display_address": ["145 Charles St", "Boston, MA 02114"], "state": "MA", "city": "Boston", "address2": null, "country": "US", "zip_code": "02114", "address1": "145 Charles St", "address3": ""}, "url": "https://www.yelp.com/biz/king-and-i-boston-2?adjust_creative=8_C4NSGbL05eUQksKleGYw&utm_campaign=yelp_api_v3&utm_medium=api_v3_business_search&utm_source=8_C4NSGbL05eUQksKleGYw", "transactions": [], "phone": "+16172273320", "image_url": "https://s3-media2.fl.yelpcdn.com/bphoto/6-zYpNWxmhbolC_wkNzejw/o.jpg"}, {"rating": 4.0, "display_phone": "(617) 350-7275", "price": "$$", "categories": [{"title": "American (Traditional)", "alias": "tradamerican"}, {"title": "Lounges", "alias": "lounges"}, {"title": "Sports Bars", "alias": "sportsbars"}], "coordinates": {"longitude": -71.054102, "latitude": 42.357783}, "is_closed": false, "name": "Battery Park Bar & Lounge", "distance": 1790.650819344, "review_count": 199, "id": "battery-park-bar-and-lounge-boston-3", "location": {"display_address": ["33 Batterymarch St", "Boston, MA 02110"], "state": "MA", "city": "Boston", "address2": null, "country": "US", "zip_code": "02110", "address1": "33 Batterymarch St", "address3": ""}, "url": "https://www.yelp.com/biz/battery-park-bar-and-lounge-boston-3?adjust_creative=8_C4NSGbL05eUQksKleGYw&utm_campaign=yelp_api_v3&utm_medium=api_v3_business_search&utm_source=8_C4NSGbL05eUQksKleGYw", "transactions": [], "phone": "+16173507275", "image_url": "https://s3-media4.fl.yelpcdn.com/bphoto/cv5lWursQeSPS_Zf5Qz8gQ/o.jpg"}, {"rating": 4.0, "display_phone": "(857) 263-8390", "price": "$", "categories": [{"title": "Mediterranean", "alias": "mediterranean"}, {"title": "Middle Eastern", "alias": "mideastern"}], "coordinates": {"longitude": -71.0867931, "latitude": 42.3451324}, "is_closed": false, "name": "Pita", "distance": 1331.164615396, "review_count": 97, "id": "pita-boston-5", "location": {"display_address": ["197A Massachusetts Ave", "Boston, MA 02115"], "state": "MA", "city": "Boston", "address2": "", "country": "US", "zip_code": "02115", "address1": "197A Massachusetts Ave", "address3": ""}, "url": "https://www.yelp.com/biz/pita-boston-5?adjust_creative=8_C4NSGbL05eUQksKleGYw&utm_campaign=yelp_api_v3&utm_medium=api_v3_business_search&utm_source=8_C4NSGbL05eUQksKleGYw", "transactions": ["delivery", "pickup"], "phone": "+18572638390", "image_url": "https://s3-media1.fl.yelpcdn.com/bphoto/YZgXBjnjhBErjx-BYT5JpA/o.jpg"}, {"rating": 3.5, "display_phone": "(617) 982-6688", "price": "$", "categories": [{"title": "Gelato", "alias": "gelato"}, {"title": "Coffee & Tea", "alias": "coffee"}, {"title": "Cafes", "alias": "cafes"}], "coordinates": {"longitude": -71.0844606, "latitude": 42.3422516}, "is_closed": false, "name": "Caff\u00e9bene", "distance": 1266.066007726, "review_count": 154, "id": "caff\u00e9bene-boston-2", "location": {"display_address": ["333 Massachusetts Ave", "Boston, MA 02115"], "state": "MA", "city": "Boston", "address2": null, "country": "US", "zip_code": "02115", "address1": "333 Massachusetts Ave", "address3": null}, "url": "https://www.yelp.com/biz/caff%C3%A9bene-boston-2?adjust_creative=8_C4NSGbL05eUQksKleGYw&utm_campaign=yelp_api_v3&utm_medium=api_v3_business_search&utm_source=8_C4NSGbL05eUQksKleGYw", "transactions": [], "phone": "+16179826688", "image_url": "https://s3-media1.fl.yelpcdn.com/bphoto/XZV0pkDU8n098KUHEAl7vg/o.jpg"}, {"rating": 3.5, "display_phone": "(617) 742-4144", "price": "$$", "categories": [{"title": "Pizza", "alias": "pizza"}, {"title": "Bars", "alias": "bars"}], "coordinates": {"longitude": -71.0582408, "latitude": 42.3669544}, "is_closed": false, "name": "Ducali Pizzeria & Bar", "distance": 2367.3903170119997, "review_count": 218, "id": "ducali-pizzeria-and-bar-boston", "location": {"display_address": ["289 Causeway St", "Boston, MA 02114"], "state": "MA", "city": "Boston", "address2": "", "country": "US", "zip_code": "02114", "address1": "289 Causeway St", "address3": ""}, "url": "https://www.yelp.com/biz/ducali-pizzeria-and-bar-boston?adjust_creative=8_C4NSGbL05eUQksKleGYw&utm_campaign=yelp_api_v3&utm_medium=api_v3_business_search&utm_source=8_C4NSGbL05eUQksKleGYw", "transactions": [], "phone": "+16177424144", "image_url": "https://s3-media4.fl.yelpcdn.com/bphoto/TDm7NfVuR49xvlQhGiY8kA/o.jpg"}, {"rating": 4.0, "display_phone": "", "categories": [{"title": "Parks", "alias": "parks"}], "coordinates": {"longitude": -71.0761142, "latitude": 42.3500639}, "is_closed": false, "name": "Copley Square", "distance": 470.0572020182, "review_count": 37, "id": "copley-square-boston", "location": {"display_address": ["560 Boylston St", "Boston, MA 02116"], "state": "MA", "city": "Boston", "address2": null, "country": "US", "zip_code": "02116", "address1": "560 Boylston St", "address3": ""}, "url": "https://www.yelp.com/biz/copley-square-boston?adjust_creative=8_C4NSGbL05eUQksKleGYw&utm_campaign=yelp_api_v3&utm_medium=api_v3_business_search&utm_source=8_C4NSGbL05eUQksKleGYw", "transactions": [], "phone": "", "image_url": "https://s3-media4.fl.yelpcdn.com/bphoto/q4lc642vPHA7FypIznD8PA/o.jpg"}, {"rating": 4.0, "display_phone": "(617) 330-5355", "price": "$", "categories": [{"title": "Italian", "alias": "italian"}, {"title": "Delis", "alias": "delis"}, {"title": "Sandwiches", "alias": "sandwiches"}], "coordinates": {"longitude": -71.05397, "latitude": 42.35695}, "is_closed": false, "name": "Oliver's Street Cafe", "distance": 1743.309991102, "review_count": 25, "id": "olivers-street-cafe-boston", "location": {"display_address": ["260 Franklin St", "Boston, MA 02110"], "state": "MA", "city": "Boston", "address2": null, "country": "US", "zip_code": "02110", "address1": "260 Franklin St", "address3": ""}, "url": "https://www.yelp.com/biz/olivers-street-cafe-boston?adjust_creative=8_C4NSGbL05eUQksKleGYw&utm_campaign=yelp_api_v3&utm_medium=api_v3_business_search&utm_source=8_C4NSGbL05eUQksKleGYw", "transactions": ["delivery", "pickup"], "phone": "+16173305355", "image_url": "https://s3-media3.fl.yelpcdn.com/bphoto/8qkRrfmwzN6CkYBrFQbL1g/o.jpg"}, {"rating": 3.5, "display_phone": "(617) 742-8240", "price": "$$$", "categories": [{"title": "Italian", "alias": "italian"}, {"title": "Mediterranean", "alias": "mediterranean"}], "coordinates": {"longitude": -71.0549946, "latitude": 42.3630402}, "is_closed": false, "name": "Tresca", "distance": 2149.26713264, "review_count": 215, "id": "tresca-boston", "location": {"display_address": ["233 Hanover St", "Boston, MA 02113"], "state": "MA", "city": "Boston", "address2": null, "country": "US", "zip_code": "02113", "address1": "233 Hanover St", "address3": ""}, "url": "https://www.yelp.com/biz/tresca-boston?adjust_creative=8_C4NSGbL05eUQksKleGYw&utm_campaign=yelp_api_v3&utm_medium=api_v3_business_search&utm_source=8_C4NSGbL05eUQksKleGYw", "transactions": ["delivery"], "phone": "+16177428240", "image_url": "https://s3-media1.fl.yelpcdn.com/bphoto/wNuMCSp1sT9A-Jz11GaFJg/o.jpg"}, {"rating": 4.0, "display_phone": "(617) 562-8800", "price": "$$", "categories": [{"title": "Bars", "alias": "bars"}, {"title": "Music Venues", "alias": "musicvenues"}], "coordinates": {"longitude": -71.1192632, "latitude": 42.35177}, "is_closed": false, "name": "Paradise Rock Club", "distance": 3990.28530503, "review_count": 350, "id": "paradise-rock-club-boston", "location": {"display_address": ["967 Commonwealth Ave", "Boston, MA 02215"], "state": "MA", "city": "Boston", "address2": "", "country": "US", "zip_code": "02215", "address1": "967 Commonwealth Ave", "address3": ""}, "url": "https://www.yelp.com/biz/paradise-rock-club-boston?adjust_creative=8_C4NSGbL05eUQksKleGYw&utm_campaign=yelp_api_v3&utm_medium=api_v3_business_search&utm_source=8_C4NSGbL05eUQksKleGYw", "transactions": [], "phone": "+16175628800", "image_url": "https://s3-media2.fl.yelpcdn.com/bphoto/WKPyHgMMaP8oBYm4RDNigw/o.jpg"}, {"rating": 3.5, "display_phone": "(617) 523-6390", "price": "$", "categories": [{"title": "Mexican", "alias": "mexican"}, {"title": "Salad", "alias": "salad"}, {"title": "Soup", "alias": "soup"}], "coordinates": {"longitude": -71.0639805, "latitude": 42.3629393}, "is_closed": false, "name": "Viva Burrito", "distance": 1790.2557263739998, "review_count": 214, "id": "viva-burrito-boston", "location": {"display_address": ["66 Staniford St", "Boston, MA 02114"], "state": "MA", "city": "Boston", "address2": "", "country": "US", "zip_code": "02114", "address1": "66 Staniford St", "address3": ""}, "url": "https://www.yelp.com/biz/viva-burrito-boston?adjust_creative=8_C4NSGbL05eUQksKleGYw&utm_campaign=yelp_api_v3&utm_medium=api_v3_business_search&utm_source=8_C4NSGbL05eUQksKleGYw", "transactions": ["delivery", "pickup"], "phone": "+16175236390", "image_url": "https://s3-media1.fl.yelpcdn.com/bphoto/eTJ8KK9RHQ7ltRnk-cniZg/o.jpg"}, {"rating": 4.0, "display_phone": "(617) 445-1000", "price": "$", "categories": [{"title": "Cafes", "alias": "cafes"}, {"title": "Breakfast & Brunch", "alias": "breakfast_brunch"}, {"title": "Sandwiches", "alias": "sandwiches"}], "coordinates": {"longitude": -71.083503961358, "latitude": 42.3295896999157}, "is_closed": false, "name": "Dudley Cafe", "distance": 2266.069972094, "review_count": 43, "id": "dudley-cafe-boston", "location": {"display_address": ["15 Warren St", "Boston, MA 02119"], "state": "MA", "city": "Boston", "address2": "", "country": "US", "zip_code": "02119", "address1": "15 Warren St", "address3": ""}, "url": "https://www.yelp.com/biz/dudley-cafe-boston?adjust_creative=8_C4NSGbL05eUQksKleGYw&utm_campaign=yelp_api_v3&utm_medium=api_v3_business_search&utm_source=8_C4NSGbL05eUQksKleGYw", "transactions": ["delivery", "pickup"], "phone": "+16174451000", "image_url": "https://s3-media4.fl.yelpcdn.com/bphoto/7bpmjsmt7EiLNOJ5gEJ7hw/o.jpg"}, {"rating": 3.5, "display_phone": "(617) 695-9700", "price": "$", "categories": [{"title": "Coffee & Tea", "alias": "coffee"}], "coordinates": {"longitude": -71.056659635094, "latitude": 42.353430587367}, "is_closed": false, "name": "Boston Common Coffee Co.", "distance": 1350.24269736, "review_count": 111, "id": "boston-common-coffee-co-boston-2", "location": {"display_address": ["10 High St", "Boston, MA 02110"], "state": "MA", "city": "Boston", "address2": "", "country": "US", "zip_code": "02110", "address1": "10 High St", "address3": ""}, "url": "https://www.yelp.com/biz/boston-common-coffee-co-boston-2?adjust_creative=8_C4NSGbL05eUQksKleGYw&utm_campaign=yelp_api_v3&utm_medium=api_v3_business_search&utm_source=8_C4NSGbL05eUQksKleGYw", "transactions": [], "phone": "+16176959700", "image_url": "https://s3-media3.fl.yelpcdn.com/bphoto/i8V4hCoZ7mrOpUcGQwjNdg/o.jpg"}, {"rating": 3.5, "display_phone": "(617) 742-8565", "price": "$$", "categories": [{"title": "Pubs", "alias": "pubs"}, {"title": "Irish", "alias": "irish"}, {"title": "Burgers", "alias": "burgers"}], "coordinates": {"longitude": -71.0612726, "latitude": 42.3582161}, "is_closed": false, "name": "Emmet's Irish Pub & Restaurant", "distance": 1414.778357898, "review_count": 207, "id": "emmets-irish-pub-and-restaurant-boston", "location": {"display_address": ["6 Beacon St", "Boston, MA 02108"], "state": "MA", "city": "Boston", "address2": "", "country": "US", "zip_code": "02108", "address1": "6 Beacon St", "address3": ""}, "url": "https://www.yelp.com/biz/emmets-irish-pub-and-restaurant-boston?adjust_creative=8_C4NSGbL05eUQksKleGYw&utm_campaign=yelp_api_v3&utm_medium=api_v3_business_search&utm_source=8_C4NSGbL05eUQksKleGYw", "transactions": [], "phone": "+16177428565", "image_url": "https://s3-media3.fl.yelpcdn.com/bphoto/LSNYnV_CzyLJS71SEx_UsA/o.jpg"}, {"rating": 3.5, "display_phone": "(617) 424-6711", "price": "$$", "categories": [{"title": "American (New)", "alias": "newamerican"}, {"title": "Bars", "alias": "bars"}], "coordinates": {"longitude": -71.0720904, "latitude": 42.3489003}, "is_closed": false, "name": "Back Bay Harry's", "distance": 136.560867568, "review_count": 160, "id": "back-bay-harrys-boston", "location": {"display_address": ["142 Berkeley St", "Boston, MA 02116"], "state": "MA", "city": "Boston", "address2": "", "country": "US", "zip_code": "02116", "address1": "142 Berkeley St", "address3": ""}, "url": "https://www.yelp.com/biz/back-bay-harrys-boston?adjust_creative=8_C4NSGbL05eUQksKleGYw&utm_campaign=yelp_api_v3&utm_medium=api_v3_business_search&utm_source=8_C4NSGbL05eUQksKleGYw", "transactions": [], "phone": "+16174246711", "image_url": "https://s3-media1.fl.yelpcdn.com/bphoto/31LUBU3X2HR_AsYex3KZUA/o.jpg"}, {"rating": 3.5, "display_phone": "(617) 449-7110", "price": "$$", "categories": [{"title": "American (New)", "alias": "newamerican"}, {"title": "Pubs", "alias": "pubs"}], "coordinates": {"longitude": -71.052597, "latitude": 42.3587303}, "is_closed": false, "name": "Granary Tavern", "distance": 1949.5737880799998, "review_count": 430, "id": "granary-tavern-boston", "location": {"display_address": ["170 Milk St", "Boston, MA 02109"], "state": "MA", "city": "Boston", "address2": "", "country": "US", "zip_code": "02109", "address1": "170 Milk St", "address3": ""}, "url": "https://www.yelp.com/biz/granary-tavern-boston?adjust_creative=8_C4NSGbL05eUQksKleGYw&utm_campaign=yelp_api_v3&utm_medium=api_v3_business_search&utm_source=8_C4NSGbL05eUQksKleGYw", "transactions": [], "phone": "+16174497110", "image_url": "https://s3-media4.fl.yelpcdn.com/bphoto/LtybIRoKnmiU65qL9CzzSA/o.jpg"}, {"rating": 4.0, "display_phone": "(781) 888-3897", "price": "$", "categories": [{"title": "Creperies", "alias": "creperies"}, {"title": "Shaved Ice", "alias": "shavedice"}, {"title": "Ramen", "alias": "ramen"}], "coordinates": {"longitude": -71.06095, "latitude": 42.35161}, "is_closed": false, "name": "Sakura Sunakku", "distance": 941.4871710564, "review_count": 57, "id": "sakura-sunakku-boston", "location": {"display_address": ["42 Beach St", "Ste 101", "Boston, MA 02111"], "state": "MA", "city": "Boston", "address2": "Ste 101", "country": "US", "zip_code": "02111", "address1": "42 Beach St", "address3": ""}, "url": "https://www.yelp.com/biz/sakura-sunakku-boston?adjust_creative=8_C4NSGbL05eUQksKleGYw&utm_campaign=yelp_api_v3&utm_medium=api_v3_business_search&utm_source=8_C4NSGbL05eUQksKleGYw", "transactions": [], "phone": "+17818883897", "image_url": "https://s3-media2.fl.yelpcdn.com/bphoto/cHR4PkWcNSMGoXYHDiIDng/o.jpg"}, {"rating": 3.5, "display_phone": "(617) 723-4577", "price": "$$", "categories": [{"title": "Italian", "alias": "italian"}], "coordinates": {"longitude": -71.0534499, "latitude": 42.365013}, "is_closed": false, "name": "Cantina Italiana", "distance": 2401.10470254, "review_count": 318, "id": "cantina-italiana-boston", "location": {"display_address": ["346 Hanover St", "Boston, MA 02113"], "state": "MA", "city": "Boston", "address2": "", "country": "US", "zip_code": "02113", "address1": "346 Hanover St", "address3": ""}, "url": "https://www.yelp.com/biz/cantina-italiana-boston?adjust_creative=8_C4NSGbL05eUQksKleGYw&utm_campaign=yelp_api_v3&utm_medium=api_v3_business_search&utm_source=8_C4NSGbL05eUQksKleGYw", "transactions": [], "phone": "+16177234577", "image_url": "https://s3-media2.fl.yelpcdn.com/bphoto/7TD_n-y5yAzH7Tvy4WRRlg/o.jpg"}, {"rating": 4.5, "display_phone": "(617) 569-0100", "price": "$$", "categories": [{"title": "Colombian", "alias": "colombian"}], "coordinates": {"longitude": -71.03713, "latitude": 42.37578}, "is_closed": false, "name": "El Pe\u00f1ol", "distance": 4184.344028382, "review_count": 55, "id": "el-pe\u00f1ol-boston-2", "location": {"display_address": ["54 Bennington St", "Boston, MA 02128"], "state": "MA", "city": "Boston", "address2": "", "country": "US", "zip_code": "02128", "address1": "54 Bennington St", "address3": ""}, "url": "https://www.yelp.com/biz/el-pe%C3%B1ol-boston-2?adjust_creative=8_C4NSGbL05eUQksKleGYw&utm_campaign=yelp_api_v3&utm_medium=api_v3_business_search&utm_source=8_C4NSGbL05eUQksKleGYw", "transactions": [], "phone": "+16175690100", "image_url": "https://s3-media3.fl.yelpcdn.com/bphoto/Zfv3RYqSPKEfDcFP56Xj9Q/o.jpg"}, {"rating": 4.0, "display_phone": "(617) 570-9009", "price": "$$", "categories": [{"title": "Middle Eastern", "alias": "mideastern"}, {"title": "Turkish", "alias": "turkish"}], "coordinates": {"longitude": -71.0546585, "latitude": 42.3593442}, "is_closed": false, "name": "Sultan's Kitchen", "distance": 1857.379849368, "review_count": 143, "id": "sultans-kitchen-boston", "location": {"display_address": ["116 State St", "Boston, MA 02109"], "state": "MA", "city": "Boston", "address2": "", "country": "US", "zip_code": "02109", "address1": "116 State St", "address3": ""}, "url": "https://www.yelp.com/biz/sultans-kitchen-boston?adjust_creative=8_C4NSGbL05eUQksKleGYw&utm_campaign=yelp_api_v3&utm_medium=api_v3_business_search&utm_source=8_C4NSGbL05eUQksKleGYw", "transactions": [], "phone": "+16175709009", "image_url": "https://s3-media4.fl.yelpcdn.com/bphoto/zkhJKzNc6nCga5K_NCQFdQ/o.jpg"}, {"rating": 3.5, "display_phone": "(617) 305-1888", "price": "$$", "categories": [{"title": "Bars", "alias": "bars"}, {"title": "American (New)", "alias": "newamerican"}], "coordinates": {"longitude": -71.0599632561207, "latitude": 42.35779479146}, "is_closed": false, "name": "Last Hurrah", "distance": 1424.904164244, "review_count": 131, "id": "last-hurrah-boston", "location": {"display_address": ["60 School St", "Boston, MA 02108"], "state": "MA", "city": "Boston", "address2": "", "country": "US", "zip_code": "02108", "address1": "60 School St", "address3": ""}, "url": "https://www.yelp.com/biz/last-hurrah-boston?adjust_creative=8_C4NSGbL05eUQksKleGYw&utm_campaign=yelp_api_v3&utm_medium=api_v3_business_search&utm_source=8_C4NSGbL05eUQksKleGYw", "transactions": [], "phone": "+16173051888", "image_url": "https://s3-media2.fl.yelpcdn.com/bphoto/FRGX1dZMPw0aP75jgy7hLQ/o.jpg"}, {"rating": 4.0, "display_phone": "(617) 859-9585", "price": "$", "categories": [{"title": "Creperies", "alias": "creperies"}, {"title": "Mediterranean", "alias": "mediterranean"}], "coordinates": {"longitude": -71.1055280606266, "latitude": 42.3496809744298}, "is_closed": false, "name": "Crispy Cr\u00eapes Cafe", "distance": 2825.052173136, "review_count": 151, "id": "crispy-cr\u00eapes-cafe-boston-2", "location": {"display_address": ["714 Commonwealth Ave", "Boston, MA 02215"], "state": "MA", "city": "Boston", "address2": "", "country": "US", "zip_code": "02215", "address1": "714 Commonwealth Ave", "address3": ""}, "url": "https://www.yelp.com/biz/crispy-cr%C3%AApes-cafe-boston-2?adjust_creative=8_C4NSGbL05eUQksKleGYw&utm_campaign=yelp_api_v3&utm_medium=api_v3_business_search&utm_source=8_C4NSGbL05eUQksKleGYw", "transactions": ["delivery", "pickup"], "phone": "+16178599585", "image_url": "https://s3-media1.fl.yelpcdn.com/bphoto/cfs7RmhBqNxn3k3nMUsnfw/o.jpg"}, {"rating": 3.5, "display_phone": "(617) 482-1116", "price": "$$", "categories": [{"title": "Chinese", "alias": "chinese"}], "coordinates": {"longitude": -71.0604095458984, "latitude": 42.3511428833008}, "is_closed": false, "name": "Peach Farm", "distance": 961.5989160089999, "review_count": 414, "id": "peach-farm-boston", "location": {"display_address": ["4 Tyler St", "Boston, MA 02111"], "state": "MA", "city": "Boston", "address2": "", "country": "US", "zip_code": "02111", "address1": "4 Tyler St", "address3": ""}, "url": "https://www.yelp.com/biz/peach-farm-boston?adjust_creative=8_C4NSGbL05eUQksKleGYw&utm_campaign=yelp_api_v3&utm_medium=api_v3_business_search&utm_source=8_C4NSGbL05eUQksKleGYw", "transactions": [], "phone": "+16174821116", "image_url": "https://s3-media3.fl.yelpcdn.com/bphoto/8EpwUexAlYIB9-TWq3EYqA/o.jpg"}, {"rating": 3.5, "display_phone": "(617) 542-8499", "price": "$", "categories": [{"title": "Mexican", "alias": "mexican"}], "coordinates": {"longitude": -71.0647949649984, "latitude": 42.3435162508759}, "is_closed": false, "name": "El Triunfo", "distance": 715.6026548532, "review_count": 218, "id": "el-triunfo-boston", "location": {"display_address": ["147 E Berkeley St", "Boston, MA 02118"], "state": "MA", "city": "Boston", "address2": null, "country": "US", "zip_code": "02118", "address1": "147 E Berkeley St", "address3": ""}, "url": "https://www.yelp.com/biz/el-triunfo-boston?adjust_creative=8_C4NSGbL05eUQksKleGYw&utm_campaign=yelp_api_v3&utm_medium=api_v3_business_search&utm_source=8_C4NSGbL05eUQksKleGYw", "transactions": ["delivery", "pickup"], "phone": "+16175428499", "image_url": "https://s3-media2.fl.yelpcdn.com/bphoto/mLJFzGIud6shQ-LSNZ3HPg/o.jpg"}, {"rating": 3.5, "display_phone": "(617) 338-0808", "price": "$$", "categories": [{"title": "Chinese", "alias": "chinese"}, {"title": "Buffets", "alias": "buffets"}, {"title": "Hot Pot", "alias": "hotpot"}], "coordinates": {"longitude": -71.059814453125, "latitude": 42.3513488769531}, "is_closed": false, "name": "Hot Pot Buffet", "distance": 1015.728342706, "review_count": 436, "id": "hot-pot-buffet-boston", "location": {"display_address": ["70 Beach St", "Boston, MA 02111"], "state": "MA", "city": "Boston", "address2": "", "country": "US", "zip_code": "02111", "address1": "70 Beach St", "address3": ""}, "url": "https://www.yelp.com/biz/hot-pot-buffet-boston?adjust_creative=8_C4NSGbL05eUQksKleGYw&utm_campaign=yelp_api_v3&utm_medium=api_v3_business_search&utm_source=8_C4NSGbL05eUQksKleGYw", "transactions": [], "phone": "+16173380808", "image_url": "https://s3-media2.fl.yelpcdn.com/bphoto/QiI-HdjrpDvi58HkfXDfRA/o.jpg"}, {"rating": 4.0, "display_phone": "(617) 982-7108", "price": "$$", "categories": [{"title": "Coffee & Tea", "alias": "coffee"}], "coordinates": {"longitude": -71.0721123218536, "latitude": 42.3436595499516}, "is_closed": false, "name": "Caff\u00e8 Nero", "distance": 450.94134884439995, "review_count": 62, "id": "caff\u00e8-nero-boston-19", "location": {"display_address": ["564 Tremont St", "Boston, MA 02118"], "state": "MA", "city": "Boston", "address2": "", "country": "US", "zip_code": "02118", "address1": "564 Tremont St", "address3": ""}, "url": "https://www.yelp.com/biz/caff%C3%A8-nero-boston-19?adjust_creative=8_C4NSGbL05eUQksKleGYw&utm_campaign=yelp_api_v3&utm_medium=api_v3_business_search&utm_source=8_C4NSGbL05eUQksKleGYw", "transactions": [], "phone": "+16179827108", "image_url": "https://s3-media1.fl.yelpcdn.com/bphoto/O2yyrzS5QuF0UnFquIOU2g/o.jpg"}, {"rating": 3.5, "display_phone": "(617) 269-9999", "price": "$$", "categories": [{"title": "Breakfast & Brunch", "alias": "breakfast_brunch"}, {"title": "American (New)", "alias": "newamerican"}, {"title": "Specialty Food", "alias": "gourmet"}], "coordinates": {"longitude": -71.03788, "latitude": 42.335373}, "is_closed": false, "name": "The Paramount", "distance": 3072.7513252259996, "review_count": 199, "id": "the-paramount-boston-2", "location": {"display_address": ["667 E Broadway", "Boston, MA 02127"], "state": "MA", "city": "Boston", "address2": "", "country": "US", "zip_code": "02127", "address1": "667 E Broadway", "address3": ""}, "url": "https://www.yelp.com/biz/the-paramount-boston-2?adjust_creative=8_C4NSGbL05eUQksKleGYw&utm_campaign=yelp_api_v3&utm_medium=api_v3_business_search&utm_source=8_C4NSGbL05eUQksKleGYw", "transactions": [], "phone": "+16172699999", "image_url": "https://s3-media2.fl.yelpcdn.com/bphoto/g9X7lYaUgNK3PZjiazYPjA/o.jpg"}, {"rating": 4.5, "display_phone": "(617) 208-8072", "price": "$$", "categories": [{"title": "Afghan", "alias": "afghani"}], "coordinates": {"longitude": -71.1378785311356, "latitude": 42.3627373286036}, "is_closed": false, "name": "Ariana Restaurant", "distance": 5720.4022486799995, "review_count": 339, "id": "ariana-restaurant-boston-2", "location": {"display_address": ["384 Western Ave", "Boston, MA 02135"], "state": "MA", "city": "Boston", "address2": "", "country": "US", "zip_code": "02135", "address1": "384 Western Ave", "address3": ""}, "url": "https://www.yelp.com/biz/ariana-restaurant-boston-2?adjust_creative=8_C4NSGbL05eUQksKleGYw&utm_campaign=yelp_api_v3&utm_medium=api_v3_business_search&utm_source=8_C4NSGbL05eUQksKleGYw", "transactions": ["pickup"], "phone": "+16172088072", "image_url": "https://s3-media4.fl.yelpcdn.com/bphoto/WDp5FhHYSYOTqKUKhguM8Q/o.jpg"}, {"rating": 3.5, "display_phone": "(617) 262-3888", "price": "$$", "categories": [{"title": "Japanese", "alias": "japanese"}, {"title": "Sushi Bars", "alias": "sushi"}], "coordinates": {"longitude": -71.0868249088526, "latitude": 42.3417364060879}, "is_closed": false, "name": "Symphony Sushi", "distance": 1447.067431455, "review_count": 298, "id": "symphony-sushi-boston", "location": {"display_address": ["45 Gainsborough St", "Boston, MA 02115"], "state": "MA", "city": "Boston", "address2": "", "country": "US", "zip_code": "02115", "address1": "45 Gainsborough St", "address3": ""}, "url": "https://www.yelp.com/biz/symphony-sushi-boston?adjust_creative=8_C4NSGbL05eUQksKleGYw&utm_campaign=yelp_api_v3&utm_medium=api_v3_business_search&utm_source=8_C4NSGbL05eUQksKleGYw", "transactions": ["delivery"], "phone": "+16172623888", "image_url": "https://s3-media2.fl.yelpcdn.com/bphoto/myG53NsrulZBqKzf7jrp_Q/o.jpg"}, {"rating": 4.5, "display_phone": "(617) 727-5290", "categories": [{"title": "Parks", "alias": "parks"}, {"title": "Hiking", "alias": "hiking"}, {"title": "Fishing", "alias": "fishing"}], "coordinates": {"longitude": -71.011839, "latitude": 42.338518}, "is_closed": false, "name": "Fort Independence Park", "distance": 4991.034554752, "review_count": 44, "id": "fort-independence-park-boston", "location": {"display_address": ["2010 William J Day Blvd", "Boston, MA 02127"], "state": "MA", "city": "Boston", "address2": null, "country": "US", "zip_code": "02127", "address1": "2010 William J Day Blvd", "address3": ""}, "url": "https://www.yelp.com/biz/fort-independence-park-boston?adjust_creative=8_C4NSGbL05eUQksKleGYw&utm_campaign=yelp_api_v3&utm_medium=api_v3_business_search&utm_source=8_C4NSGbL05eUQksKleGYw", "transactions": [], "phone": "+16177275290", "image_url": "https://s3-media2.fl.yelpcdn.com/bphoto/fZmbkKsFD7Kne-UO47VkGQ/o.jpg"}, {"rating": 4.0, "display_phone": "(617) 227-3812", "price": "$$", "categories": [{"title": "Coffee & Tea", "alias": "coffee"}], "coordinates": {"longitude": -71.07054, "latitude": 42.35891}, "is_closed": false, "name": "Starbucks", "distance": 1230.792171738, "review_count": 35, "id": "starbucks-boston-32", "location": {"display_address": ["97 Charles St", "Boston, MA 02114"], "state": "MA", "city": "Boston", "address2": "", "country": "US", "zip_code": "02114", "address1": "97 Charles St", "address3": ""}, "url": "https://www.yelp.com/biz/starbucks-boston-32?adjust_creative=8_C4NSGbL05eUQksKleGYw&utm_campaign=yelp_api_v3&utm_medium=api_v3_business_search&utm_source=8_C4NSGbL05eUQksKleGYw", "transactions": [], "phone": "+16172273812", "image_url": "https://s3-media3.fl.yelpcdn.com/bphoto/kvPAZ4exiLtlrIoErd6pgg/o.jpg"}, {"rating": 3.5, "display_phone": "(617) 457-8130", "price": "$$$", "categories": [{"title": "American (New)", "alias": "newamerican"}, {"title": "Cocktail Bars", "alias": "cocktailbars"}], "coordinates": {"longitude": -71.0695033, "latitude": 42.3499842}, "is_closed": false, "name": "Liquid Art House", "distance": 277.59832356019996, "review_count": 229, "id": "liquid-art-house-boston", "location": {"display_address": ["100 Arlington St", "Boston, MA 02116"], "state": "MA", "city": "Boston", "address2": "", "country": "US", "zip_code": "02116", "address1": "100 Arlington St", "address3": ""}, "url": "https://www.yelp.com/biz/liquid-art-house-boston?adjust_creative=8_C4NSGbL05eUQksKleGYw&utm_campaign=yelp_api_v3&utm_medium=api_v3_business_search&utm_source=8_C4NSGbL05eUQksKleGYw", "transactions": [], "phone": "+16174578130", "image_url": "https://s3-media1.fl.yelpcdn.com/bphoto/isoRg_L5c77Yx1NcqPRs1w/o.jpg"}, {"rating": 5.0, "display_phone": "", "price": "$$", "categories": [{"title": "Fruits & Veggies", "alias": "markets"}, {"title": "Food Stands", "alias": "foodstands"}], "coordinates": {"longitude": -71.0550765991211, "latitude": 42.3638076782227}, "is_closed": false, "name": "The Vegetable Guy", "distance": 2217.189166406, "review_count": 14, "id": "the-vegetable-guy-boston", "location": {"display_address": ["18 Parmenter St", "Boston, MA 02113"], "state": "MA", "city": "Boston", "address2": "", "country": "US", "zip_code": "02113", "address1": "18 Parmenter St", "address3": ""}, "url": "https://www.yelp.com/biz/the-vegetable-guy-boston?adjust_creative=8_C4NSGbL05eUQksKleGYw&utm_campaign=yelp_api_v3&utm_medium=api_v3_business_search&utm_source=8_C4NSGbL05eUQksKleGYw", "transactions": [], "phone": "", "image_url": "https://s3-media4.fl.yelpcdn.com/bphoto/pR-cOiJZe34xMj0JVnDayg/o.jpg"}, {"rating": 3.5, "display_phone": "(617) 624-0454", "price": "$$$", "categories": [{"title": "Italian", "alias": "italian"}, {"title": "Wine Bars", "alias": "wine_bars"}, {"title": "Southern", "alias": "southern"}], "coordinates": {"longitude": -71.05538, "latitude": 42.36417}, "is_closed": false, "name": "Bacco", "distance": 2233.8086596519997, "review_count": 256, "id": "bacco-boston", "location": {"display_address": ["107 Salem St", "Boston, MA 02113"], "state": "MA", "city": "Boston", "address2": "", "country": "US", "zip_code": "02113", "address1": "107 Salem St", "address3": ""}, "url": "https://www.yelp.com/biz/bacco-boston?adjust_creative=8_C4NSGbL05eUQksKleGYw&utm_campaign=yelp_api_v3&utm_medium=api_v3_business_search&utm_source=8_C4NSGbL05eUQksKleGYw", "transactions": [], "phone": "+16176240454", "image_url": "https://s3-media2.fl.yelpcdn.com/bphoto/uIMDwuoSP4o2gcXRoaqezw/o.jpg"}, {"rating": 4.0, "display_phone": "(617) 567-1944", "price": "$", "categories": [{"title": "Vietnamese", "alias": "vietnamese"}], "coordinates": {"longitude": -71.0390451, "latitude": 42.377266}, "is_closed": false, "name": "Saigon Hut", "distance": 4214.649670856, "review_count": 110, "id": "saigon-hut-boston-3", "location": {"display_address": ["305 Meridian St", "Boston, MA 02128"], "state": "MA", "city": "Boston", "address2": "", "country": "US", "zip_code": "02128", "address1": "305 Meridian St", "address3": ""}, "url": "https://www.yelp.com/biz/saigon-hut-boston-3?adjust_creative=8_C4NSGbL05eUQksKleGYw&utm_campaign=yelp_api_v3&utm_medium=api_v3_business_search&utm_source=8_C4NSGbL05eUQksKleGYw", "transactions": [], "phone": "+16175671944", "image_url": "https://s3-media2.fl.yelpcdn.com/bphoto/KnuNV3RE-S1-6kL8MXN1Fw/o.jpg"}, {"rating": 4.0, "display_phone": "(781) 640-2361", "price": "$", "categories": [{"title": "Food Trucks", "alias": "foodtrucks"}, {"title": "Asian Fusion", "alias": "asianfusion"}], "coordinates": {"longitude": -71.0732286, "latitude": 42.3364742}, "is_closed": false, "name": "Moyzilla", "distance": 1274.51037564, "review_count": 67, "id": "moyzilla-boston", "location": {"display_address": ["Boston, MA 02010"], "state": "MA", "city": "Boston", "address2": "", "country": "US", "zip_code": "02010", "address1": "", "address3": ""}, "url": "https://www.yelp.com/biz/moyzilla-boston?adjust_creative=8_C4NSGbL05eUQksKleGYw&utm_campaign=yelp_api_v3&utm_medium=api_v3_business_search&utm_source=8_C4NSGbL05eUQksKleGYw", "transactions": [], "phone": "+17816402361", "image_url": "https://s3-media4.fl.yelpcdn.com/bphoto/5lCr772zJAqlnOwhnZc2PA/o.jpg"}, {"rating": 3.5, "display_phone": "(617) 266-7775", "price": "$$$", "categories": [{"title": "Seafood", "alias": "seafood"}], "coordinates": {"longitude": -71.0774663402672, "latitude": 42.3469028366983}, "is_closed": false, "name": "Legal Sea Foods", "distance": 522.2436725332, "review_count": 409, "id": "legal-sea-foods-boston-32", "location": {"display_address": ["100 Huntington Ave", "Boston, MA 02116"], "state": "MA", "city": "Boston", "address2": null, "country": "US", "zip_code": "02116", "address1": "100 Huntington Ave", "address3": ""}, "url": "https://www.yelp.com/biz/legal-sea-foods-boston-32?adjust_creative=8_C4NSGbL05eUQksKleGYw&utm_campaign=yelp_api_v3&utm_medium=api_v3_business_search&utm_source=8_C4NSGbL05eUQksKleGYw", "transactions": [], "phone": "+16172667775", "image_url": "https://s3-media2.fl.yelpcdn.com/bphoto/g7xlEIak0Xu9mA4krObeyw/o.jpg"}, {"rating": 3.5, "display_phone": "(617) 431-2284", "price": "$$", "categories": [{"title": "Sushi Bars", "alias": "sushi"}, {"title": "Japanese", "alias": "japanese"}, {"title": "Asian Fusion", "alias": "asianfusion"}], "coordinates": {"longitude": -71.0827255249023, "latitude": 42.3492889404297}, "is_closed": false, "name": "Wabora", "distance": 958.8692983415999, "review_count": 140, "id": "wabora-boston", "location": {"display_address": ["254 Newbury St", "Boston, MA 02116"], "state": "MA", "city": "Boston", "address2": "", "country": "US", "zip_code": "02116", "address1": "254 Newbury St", "address3": ""}, "url": "https://www.yelp.com/biz/wabora-boston?adjust_creative=8_C4NSGbL05eUQksKleGYw&utm_campaign=yelp_api_v3&utm_medium=api_v3_business_search&utm_source=8_C4NSGbL05eUQksKleGYw", "transactions": ["delivery", "pickup"], "phone": "+16174312284", "image_url": "https://s3-media3.fl.yelpcdn.com/bphoto/7K0sqK9GEr-7eg40PMniTg/o.jpg"}, {"rating": 3.5, "display_phone": "(857) 350-4222", "price": "$$", "categories": [{"title": "Pizza", "alias": "pizza"}, {"title": "Italian", "alias": "italian"}], "coordinates": {"longitude": -71.0549778, "latitude": 42.3591313}, "is_closed": false, "name": "Crush Pizza", "distance": 1833.5505129219998, "review_count": 151, "id": "crush-pizza-boston-2", "location": {"display_address": ["107 State St", "Boston, MA 02109"], "state": "MA", "city": "Boston", "address2": "", "country": "US", "zip_code": "02109", "address1": "107 State St", "address3": ""}, "url": "https://www.yelp.com/biz/crush-pizza-boston-2?adjust_creative=8_C4NSGbL05eUQksKleGYw&utm_campaign=yelp_api_v3&utm_medium=api_v3_business_search&utm_source=8_C4NSGbL05eUQksKleGYw", "transactions": ["delivery", "pickup"], "phone": "+18573504222", "image_url": "https://s3-media2.fl.yelpcdn.com/bphoto/u35zg3lx-uPLj3ilsBXEFg/o.jpg"}], "total": 24769}