{"region": {"center": {"longitude": -71.07124328613281, "latitude": 42.34784169448538}}, "businesses": [{"rating": 4.5, "display_phone": "(857) 362-7477", "price": "$$", "categories": [{"title": "Seafood Markets", "alias": "seafoodmarkets"}, {"title": "Seafood", "alias": "seafood"}], "coordinates": {"longitude": -71.0554885864258, "latitude": 42.3639030456543}, "is_closed": false, "name": "North End Fish Market", "distance": 2205.53046371, "review_count": 188, "id": "north-end-fish-market-boston", "location": {"display_address": ["99 Salem St", "Boston, MA 02113"], "state": "MA", "city": "Boston", "address2": "", "country": "US", "zip_code": "02113", "address1": "99 Salem St", "address3": ""}, "url": "https://www.yelp.com/biz/north-end-fish-market-boston?adjust_creative=8_C4NSGbL05eUQksKleGYw&utm_campaign=yelp_api_v3&utm_medium=api_v3_business_search&utm_source=8_C4NSGbL05eUQksKleGYw", "transactions": ["delivery", "pickup"], "phone": "+18573627477", "image_url": "https://s3-media3.fl.yelpcdn.com/bphoto/sl8uGbwVMlpE3A4xU29byQ/o.jpg"}, {"rating": 4.0, "display_phone": "(617) 267-0047", "price": "$$$", "categories": [{"title": "Lounges", "alias": "lounges"}], "coordinates": {"longitude": -71.06141, "latitude": 42.35549}, "is_closed": false, "name": "Yvonne's", "distance": 1172.085379746, "review_count": 426, "id": "yvonnes-boston", "location": {"display_address": ["2 Winter Pl", "Boston, MA 02108"], "state": "MA", "city": "Boston", "address2": null, "country": "US", "zip_code": "02108", "address1": "2 Winter Pl", "address3": ""}, "url": "https://www.yelp.com/biz/yvonnes-boston?adjust_creative=8_C4NSGbL05eUQksKleGYw&utm_campaign=yelp_api_v3&utm_medium=api_v3_business_search&utm_source=8_C4NSGbL05eUQksKleGYw", "transactions": [], "phone": "+16172670047", "image_url": "https://s3-media1.fl.yelpcdn.com/bphoto/90APKneSvVTf6QXt4KUyiQ/o.jpg"}, {"rating": 4.5, "display_phone": "(617) 248-9537", "price": "$", "categories": [{"title": "Mexican", "alias": "mexican"}, {"title": "Food Trucks", "alias": "foodtrucks"}], "coordinates": {"longitude": -71.051844, "latitude": 42.363278}, "is_closed": false, "name": "Tenoch Mexican", "distance": 2342.427039602, "review_count": 227, "id": "tenoch-mexican-boston", "location": {"display_address": ["3 Lewis St", "Boston, MA 02110"], "state": "MA", "city": "Boston", "address2": "", "country": "US", "zip_code": "02110", "address1": "3 Lewis St", "address3": ""}, "url": "https://www.yelp.com/biz/tenoch-mexican-boston?adjust_creative=8_C4NSGbL05eUQksKleGYw&utm_campaign=yelp_api_v3&utm_medium=api_v3_business_search&utm_source=8_C4NSGbL05eUQksKleGYw", "transactions": [], "phone": "+16172489537", "image_url": "https://s3-media2.fl.yelpcdn.com/bphoto/jmwfNcxMhGTPGB0sReNAyg/o.jpg"}, {"rating": 4.5, "display_phone": "(617) 227-5709", "price": "$", "categories": [{"title": "Pizza", "alias": "pizza"}, {"title": "Salad", "alias": "salad"}, {"title": "Italian", "alias": "italian"}], "coordinates": {"longitude": -71.0544499754906, "latitude": 42.36377812922}, "is_closed": false, "name": "Galleria Umberto", "distance": 2245.9722123059996, "review_count": 471, "id": "galleria-umberto-boston", "location": {"display_address": ["289 Hanover St", "Boston, MA 02113"], "state": "MA", "city": "Boston", "address2": "", "country": "US", "zip_code": "02113", "address1": "289 Hanover St", "address3": ""}, "url": "https://www.yelp.com/biz/galleria-umberto-boston?adjust_creative=8_C4NSGbL05eUQksKleGYw&utm_campaign=yelp_api_v3&utm_medium=api_v3_business_search&utm_source=8_C4NSGbL05eUQksKleGYw", "transactions": [], "phone": "+16172275709", "image_url": "https://s3-media1.fl.yelpcdn.com/bphoto/C2Lhz7qkKESCAYpov_qdFA/o.jpg"}, {"rating": 4.5, "display_phone": "", "categories": [{"title": "Parks", "alias": "parks"}], "coordinates": {"longitude": -71.0725625172882, "latitude": 42.3603070472907}, "is_closed": false, "name": "Charles River Bike Paths", "distance": 1390.01592612, "review_count": 73, "id": "charles-river-bike-paths-boston", "location": {"display_address": ["Storrow and Memorial Dr", "Boston, MA 02228"], "state": "MA", "city": "Boston", "address2": null, "country": "US", "zip_code": "02228", "address1": "Storrow and Memorial Dr", "address3": ""}, "url": "https://www.yelp.com/biz/charles-river-bike-paths-boston?adjust_creative=8_C4NSGbL05eUQksKleGYw&utm_campaign=yelp_api_v3&utm_medium=api_v3_business_search&utm_source=8_C4NSGbL05eUQksKleGYw", "transactions": [], "phone": "", "image_url": "https://s3-media2.fl.yelpcdn.com/bphoto/HrngKNGEFep_yf4WzR3z_w/o.jpg"}, {"rating": 4.5, "display_phone": "(617) 266-4976", "price": "$", "categories": [{"title": "Greek", "alias": "greek"}], "coordinates": {"longitude": -71.0989929288362, "latitude": 42.3431622796524}, "is_closed": false, "name": "Gyro City", "distance": 2339.079773336, "review_count": 223, "id": "gyro-city-boston", "location": {"display_address": ["88 Peterborough St", "Boston, MA 02215"], "state": "MA", "city": "Boston", "address2": "", "country": "US", "zip_code": "02215", "address1": "88 Peterborough St", "address3": ""}, "url": "https://www.yelp.com/biz/gyro-city-boston?adjust_creative=8_C4NSGbL05eUQksKleGYw&utm_campaign=yelp_api_v3&utm_medium=api_v3_business_search&utm_source=8_C4NSGbL05eUQksKleGYw", "transactions": ["pickup", "delivery"], "phone": "+16172664976", "image_url": "https://s3-media4.fl.yelpcdn.com/bphoto/pIxv2RmbOBy3wRZdUukkaA/o.jpg"}, {"rating": 4.5, "display_phone": "(617) 585-9575", "price": "$$$$", "categories": [{"title": "American (New)", "alias": "newamerican"}], "coordinates": {"longitude": -71.0891662, "latitude": 42.3498513}, "is_closed": false, "name": "Asta", "distance": 1489.576618682, "review_count": 144, "id": "asta-boston", "location": {"display_address": ["47 Massachusetts Ave", "Boston, MA 02115"], "state": "MA", "city": "Boston", "address2": "", "country": "US", "zip_code": "02115", "address1": "47 Massachusetts Ave", "address3": ""}, "url": "https://www.yelp.com/biz/asta-boston?adjust_creative=8_C4NSGbL05eUQksKleGYw&utm_campaign=yelp_api_v3&utm_medium=api_v3_business_search&utm_source=8_C4NSGbL05eUQksKleGYw", "transactions": [], "phone": "+16175859575", "image_url": "https://s3-media3.fl.yelpcdn.com/bphoto/gFzC6sxYQ0XW9Tm5GIPQhg/o.jpg"}, {"rating": 4.0, "display_phone": "(617) 262-9090", "price": "$", "categories": [{"title": "Mexican", "alias": "mexican"}, {"title": "Gluten-Free", "alias": "gluten_free"}, {"title": "Vegetarian", "alias": "vegetarian"}], "coordinates": {"longitude": -71.0989652574062, "latitude": 42.3432216793299}, "is_closed": false, "name": "El Pel\u00f3n Taquer\u00eda", "distance": 2348.2179277239998, "review_count": 902, "id": "el-pel\u00f3n-taquer\u00eda-boston-3", "location": {"display_address": ["92 Peterborough St", "Boston, MA 02215"], "state": "MA", "city": "Boston", "address2": "", "country": "US", "zip_code": "02215", "address1": "92 Peterborough St", "address3": ""}, "url": "https://www.yelp.com/biz/el-pel%C3%B3n-taquer%C3%ADa-boston-3?adjust_creative=8_C4NSGbL05eUQksKleGYw&utm_campaign=yelp_api_v3&utm_medium=api_v3_business_search&utm_source=8_C4NSGbL05eUQksKleGYw", "transactions": ["delivery", "pickup"], "phone": "+16172629090", "image_url": "https://s3-media3.fl.yelpcdn.com/bphoto/b7L9Y1vElmxPX1svRedAJw/o.jpg"}, {"rating": 4.0, "display_phone": "(617) 227-0765", "price": "$$", "categories": [{"title": "Pizza", "alias": "pizza"}, {"title": "Italian", "alias": "italian"}], "coordinates": {"longitude": -71.0568833173494, "latitude": 42.3654185550275}, "is_closed": false, "name": "Regina Pizza", "distance": 2282.713283572, "review_count": 1281, "id": "regina-pizza-boston-2", "location": {"display_address": ["11 1/2 Thacher St", "Boston, MA 02113"], "state": "MA", "city": "Boston", "address2": "", "country": "US", "zip_code": "02113", "address1": "11 1/2 Thacher St", "address3": ""}, "url": "https://www.yelp.com/biz/regina-pizza-boston-2?adjust_creative=8_C4NSGbL05eUQksKleGYw&utm_campaign=yelp_api_v3&utm_medium=api_v3_business_search&utm_source=8_C4NSGbL05eUQksKleGYw", "transactions": ["delivery"], "phone": "+16172270765", "image_url": "https://s3-media3.fl.yelpcdn.com/bphoto/sq0_SrEbI6SvNhc5i34LPg/o.jpg"}, {"rating": 4.0, "display_phone": "(617) 330-1002", "price": "$", "categories": [{"title": "Sandwiches", "alias": "sandwiches"}, {"title": "Salad", "alias": "salad"}], "coordinates": {"longitude": -71.0573908, "latitude": 42.3520819}, "is_closed": false, "name": "Al's South Street Cafe", "distance": 1232.246371362, "review_count": 167, "id": "als-south-street-cafe-boston", "location": {"display_address": ["179 Essex St", "Boston, MA 02111"], "state": "MA", "city": "Boston", "address2": "", "country": "US", "zip_code": "02111", "address1": "179 Essex St", "address3": ""}, "url": "https://www.yelp.com/biz/als-south-street-cafe-boston?adjust_creative=8_C4NSGbL05eUQksKleGYw&utm_campaign=yelp_api_v3&utm_medium=api_v3_business_search&utm_source=8_C4NSGbL05eUQksKleGYw", "transactions": [], "phone": "+16173301002", "image_url": "https://s3-media1.fl.yelpcdn.com/bphoto/DZtsHccwa8DjnI-HKWwAoA/o.jpg"}, {"rating": 4.0, "display_phone": "(617) 742-0020", "price": "$$", "categories": [{"title": "Italian", "alias": "italian"}], "coordinates": {"longitude": -71.0541488, "latitude": 42.3640943}, "is_closed": false, "name": "Carmelina's", "distance": 2288.87094028, "review_count": 568, "id": "carmelinas-boston-2", "location": {"display_address": ["307 Hanover St", "Boston, MA 02113"], "state": "MA", "city": "Boston", "address2": "", "country": "US", "zip_code": "02113", "address1": "307 Hanover St", "address3": ""}, "url": "https://www.yelp.com/biz/carmelinas-boston-2?adjust_creative=8_C4NSGbL05eUQksKleGYw&utm_campaign=yelp_api_v3&utm_medium=api_v3_business_search&utm_source=8_C4NSGbL05eUQksKleGYw", "transactions": [], "phone": "+16177420020", "image_url": "https://s3-media3.fl.yelpcdn.com/bphoto/qJSoZ8eOLSXkBq92py5zMg/o.jpg"}, {"rating": 4.0, "display_phone": "(617) 292-8828", "price": "$$", "categories": [{"title": "Hot Pot", "alias": "hotpot"}, {"title": "Do-It-Yourself Food", "alias": "diyfood"}, {"title": "Fondue", "alias": "fondue"}], "coordinates": {"longitude": -71.060475, "latitude": 42.350822}, "is_closed": false, "name": "Shabu-Zen", "distance": 944.6529681439999, "review_count": 717, "id": "shabu-zen-boston", "location": {"display_address": ["16 Tyler St", "Boston, MA 02111"], "state": "MA", "city": "Boston", "address2": "", "country": "US", "zip_code": "02111", "address1": "16 Tyler St", "address3": ""}, "url": "https://www.yelp.com/biz/shabu-zen-boston?adjust_creative=8_C4NSGbL05eUQksKleGYw&utm_campaign=yelp_api_v3&utm_medium=api_v3_business_search&utm_source=8_C4NSGbL05eUQksKleGYw", "transactions": [], "phone": "+16172928828", "image_url": "https://s3-media4.fl.yelpcdn.com/bphoto/MzzPIqeynyVSx78Zoq0XAQ/o.jpg"}, {"rating": 4.0, "display_phone": "(617) 523-1373", "price": "$", "categories": [{"title": "Pizza", "alias": "pizza"}, {"title": "Desserts", "alias": "desserts"}], "coordinates": {"longitude": -71.0558242797852, "latitude": 42.363353729248}, "is_closed": false, "name": "Ernesto's", "distance": 2140.0523736679997, "review_count": 577, "id": "ernestos-boston", "location": {"display_address": ["69 Salem St", "Boston, MA 02113"], "state": "MA", "city": "Boston", "address2": null, "country": "US", "zip_code": "02113", "address1": "69 Salem St", "address3": ""}, "url": "https://www.yelp.com/biz/ernestos-boston?adjust_creative=8_C4NSGbL05eUQksKleGYw&utm_campaign=yelp_api_v3&utm_medium=api_v3_business_search&utm_source=8_C4NSGbL05eUQksKleGYw", "transactions": ["delivery"], "phone": "+16175231373", "image_url": "https://s3-media3.fl.yelpcdn.com/bphoto/RnPETYggrID5916lhqJdvg/o.jpg"}, {"rating": 4.5, "display_phone": "(857) 263-7916", "price": "$$", "categories": [{"title": "Salad", "alias": "salad"}, {"title": "Vegetarian", "alias": "vegetarian"}], "coordinates": {"longitude": -71.0477234423169, "latitude": 42.3501618122571}, "is_closed": false, "name": "sweetgreen", "distance": 1950.0981110520001, "review_count": 107, "id": "sweetgreen-boston-3", "location": {"display_address": ["372 Congress St", "Boston, MA 02210"], "state": "MA", "city": "Boston", "address2": "", "country": "US", "zip_code": "02210", "address1": "372 Congress St", "address3": ""}, "url": "https://www.yelp.com/biz/sweetgreen-boston-3?adjust_creative=8_C4NSGbL05eUQksKleGYw&utm_campaign=yelp_api_v3&utm_medium=api_v3_business_search&utm_source=8_C4NSGbL05eUQksKleGYw", "transactions": [], "phone": "+18572637916", "image_url": "https://s3-media2.fl.yelpcdn.com/bphoto/hTc34T7IptRkZ2V31HtGmQ/o.jpg"}, {"rating": 4.5, "display_phone": "(617) 532-9150", "price": "$$", "categories": [{"title": "Cocktail Bars", "alias": "cocktailbars"}], "coordinates": {"longitude": -71.0953666879285, "latitude": 42.3486925877382}, "is_closed": false, "name": "The Hawthorne", "distance": 1984.7790661839997, "review_count": 242, "id": "the-hawthorne-boston-2", "location": {"display_address": ["Hotel Commonwealth", "500A Commonwealth Ave", "Boston, MA 02215"], "state": "MA", "city": "Boston", "address2": "500A Commonwealth Ave", "country": "US", "zip_code": "02215", "address1": "Hotel Commonwealth", "address3": ""}, "url": "https://www.yelp.com/biz/the-hawthorne-boston-2?adjust_creative=8_C4NSGbL05eUQksKleGYw&utm_campaign=yelp_api_v3&utm_medium=api_v3_business_search&utm_source=8_C4NSGbL05eUQksKleGYw", "transactions": [], "phone": "+16175329150", "image_url": "https://s3-media2.fl.yelpcdn.com/bphoto/zdD_eMLEHJEb40u2j10GRg/o.jpg"}, {"rating": 4.0, "display_phone": "(617) 536-6200", "price": "$$", "categories": [{"title": "American (New)", "alias": "newamerican"}, {"title": "Italian", "alias": "italian"}, {"title": "Pizza", "alias": "pizza"}], "coordinates": {"longitude": -71.0761067061516, "latitude": 42.3468620018707}, "is_closed": false, "name": "The Salty Pig", "distance": 414.0047427683999, "review_count": 1070, "id": "the-salty-pig-boston", "location": {"display_address": ["130 Dartmouth St", "Boston, MA 02116"], "state": "MA", "city": "Boston", "address2": "", "country": "US", "zip_code": "02116", "address1": "130 Dartmouth St", "address3": ""}, "url": "https://www.yelp.com/biz/the-salty-pig-boston?adjust_creative=8_C4NSGbL05eUQksKleGYw&utm_campaign=yelp_api_v3&utm_medium=api_v3_business_search&utm_source=8_C4NSGbL05eUQksKleGYw", "transactions": [], "phone": "+16175366200", "image_url": "https://s3-media4.fl.yelpcdn.com/bphoto/0lHTVuN-EiK4Z3fLAqY-9A/o.jpg"}, {"rating": 4.5, "display_phone": "(617) 367-4348", "price": "$$", "categories": [{"title": "Italian", "alias": "italian"}, {"title": "Mediterranean", "alias": "mediterranean"}], "coordinates": {"longitude": -71.05349, "latitude": 42.36454}, "is_closed": false, "name": "Pomodoro", "distance": 2364.994170686, "review_count": 174, "id": "pomodoro-boston-2", "location": {"display_address": ["351 Hanover St", "Boston, MA 02113"], "state": "MA", "city": "Boston", "address2": "", "country": "US", "zip_code": "02113", "address1": "351 Hanover St", "address3": ""}, "url": "https://www.yelp.com/biz/pomodoro-boston-2?adjust_creative=8_C4NSGbL05eUQksKleGYw&utm_campaign=yelp_api_v3&utm_medium=api_v3_business_search&utm_source=8_C4NSGbL05eUQksKleGYw", "transactions": [], "phone": "+16173674348", "image_url": "https://s3-media3.fl.yelpcdn.com/bphoto/uMku93cQlPYtss75TXOdMw/o.jpg"}, {"rating": 4.0, "display_phone": "(617) 780-7139", "price": "$$", "categories": [{"title": "Coffee & Tea", "alias": "coffee"}, {"title": "Sandwiches", "alias": "sandwiches"}, {"title": "Cafes", "alias": "cafes"}], "coordinates": {"longitude": -71.0579220950603, "latitude": 42.3567795753479}, "is_closed": false, "name": "Ogawa Coffee", "distance": 1465.03691956, "review_count": 262, "id": "ogawa-coffee-boston-2", "location": {"display_address": ["10 Milk St", "Boston, MA 02108"], "state": "MA", "city": "Boston", "address2": "", "country": "US", "zip_code": "02108", "address1": "10 Milk St", "address3": ""}, "url": "https://www.yelp.com/biz/ogawa-coffee-boston-2?adjust_creative=8_C4NSGbL05eUQksKleGYw&utm_campaign=yelp_api_v3&utm_medium=api_v3_business_search&utm_source=8_C4NSGbL05eUQksKleGYw", "transactions": [], "phone": "+16177807139", "image_url": "https://s3-media2.fl.yelpcdn.com/bphoto/mNztqxXQXTaoMYEjAW_NHA/o.jpg"}, {"rating": 4.0, "display_phone": "(617) 517-5915", "price": "$$$", "categories": [{"title": "American (New)", "alias": "newamerican"}, {"title": "Bars", "alias": "bars"}], "coordinates": {"longitude": -71.089166, "latitude": 42.349521}, "is_closed": false, "name": "Deuxave", "distance": 1484.5545927449998, "review_count": 393, "id": "deuxave-boston", "location": {"display_address": ["371 Commonwealth Ave", "Boston, MA 02115"], "state": "MA", "city": "Boston", "address2": "", "country": "US", "zip_code": "02115", "address1": "371 Commonwealth Ave", "address3": ""}, "url": "https://www.yelp.com/biz/deuxave-boston?adjust_creative=8_C4NSGbL05eUQksKleGYw&utm_campaign=yelp_api_v3&utm_medium=api_v3_business_search&utm_source=8_C4NSGbL05eUQksKleGYw", "transactions": [], "phone": "+16175175915", "image_url": "https://s3-media1.fl.yelpcdn.com/bphoto/T5yczouXE4xgEURtRduamQ/o.jpg"}, {"rating": 4.0, "display_phone": "(617) 523-3783", "price": "$", "categories": [{"title": "Bakeries", "alias": "bakeries"}, {"title": "Coffee & Tea", "alias": "coffee"}, {"title": "Desserts", "alias": "desserts"}], "coordinates": {"longitude": -71.0547409057617, "latitude": 42.3632507324219}, "is_closed": false, "name": "Modern Pastry Shop", "distance": 2185.660103664, "review_count": 1274, "id": "modern-pastry-shop-boston", "location": {"display_address": ["257 Hanover St", "Boston, MA 02113"], "state": "MA", "city": "Boston", "address2": "", "country": "US", "zip_code": "02113", "address1": "257 Hanover St", "address3": ""}, "url": "https://www.yelp.com/biz/modern-pastry-shop-boston?adjust_creative=8_C4NSGbL05eUQksKleGYw&utm_campaign=yelp_api_v3&utm_medium=api_v3_business_search&utm_source=8_C4NSGbL05eUQksKleGYw", "transactions": ["delivery"], "phone": "+16175233783", "image_url": "https://s3-media1.fl.yelpcdn.com/bphoto/ahWS2VxSune19MjENJbWLA/o.jpg"}, {"rating": 4.5, "display_phone": "(617) 530-1770", "price": "$$$", "categories": [{"title": "Italian", "alias": "italian"}, {"title": "Seafood", "alias": "seafood"}, {"title": "Cocktail Bars", "alias": "cocktailbars"}], "coordinates": {"longitude": -71.0635791144088, "latitude": 42.3445756001492}, "is_closed": false, "name": "Bar Mezzana", "distance": 727.475753824, "review_count": 103, "id": "bar-mezzana-boston", "location": {"display_address": ["360 Harrison Ave", "Boston, MA 02118"], "state": "MA", "city": "Boston", "address2": "", "country": "US", "zip_code": "02118", "address1": "360 Harrison Ave", "address3": ""}, "url": "https://www.yelp.com/biz/bar-mezzana-boston?adjust_creative=8_C4NSGbL05eUQksKleGYw&utm_campaign=yelp_api_v3&utm_medium=api_v3_business_search&utm_source=8_C4NSGbL05eUQksKleGYw", "transactions": [], "phone": "+16175301770", "image_url": "https://s3-media1.fl.yelpcdn.com/bphoto/yO0puhFHIH1Qt8mZNkW82w/o.jpg"}, {"rating": 4.5, "display_phone": "(617) 742-1276", "price": "$$$", "categories": [{"title": "Italian", "alias": "italian"}], "coordinates": {"longitude": -71.0549427, "latitude": 42.3632969}, "is_closed": false, "name": "Aria Trattoria", "distance": 2178.871907544, "review_count": 114, "id": "aria-trattoria-boston", "location": {"display_address": ["253 Hanover St", "Boston, MA 02113"], "state": "MA", "city": "Boston", "address2": "", "country": "US", "zip_code": "02113", "address1": "253 Hanover St", "address3": ""}, "url": "https://www.yelp.com/biz/aria-trattoria-boston?adjust_creative=8_C4NSGbL05eUQksKleGYw&utm_campaign=yelp_api_v3&utm_medium=api_v3_business_search&utm_source=8_C4NSGbL05eUQksKleGYw", "transactions": [], "phone": "+16177421276", "image_url": "https://s3-media1.fl.yelpcdn.com/bphoto/NPAQlQaiPWQUvLRpA2ei8A/o.jpg"}, {"rating": 4.0, "display_phone": "(617) 723-4090", "price": "$$$", "categories": [{"title": "Italian", "alias": "italian"}], "coordinates": {"longitude": -71.069847310732, "latitude": 42.357408381604}, "is_closed": false, "name": "Toscano Restaurant", "distance": 1069.576698172, "review_count": 382, "id": "toscano-restaurant-boston", "location": {"display_address": ["47 Charles St", "Boston, MA 02114"], "state": "MA", "city": "Boston", "address2": "", "country": "US", "zip_code": "02114", "address1": "47 Charles St", "address3": ""}, "url": "https://www.yelp.com/biz/toscano-restaurant-boston?adjust_creative=8_C4NSGbL05eUQksKleGYw&utm_campaign=yelp_api_v3&utm_medium=api_v3_business_search&utm_source=8_C4NSGbL05eUQksKleGYw", "transactions": [], "phone": "+16177234090", "image_url": "https://s3-media3.fl.yelpcdn.com/bphoto/AWBMahACQe5vFXEECqgLZw/o.jpg"}, {"rating": 4.0, "display_phone": "", "price": "$", "categories": [{"title": "Food Trucks", "alias": "foodtrucks"}, {"title": "Fast Food", "alias": "hotdogs"}], "coordinates": {"longitude": -71.0558474063873, "latitude": 42.3529583942053}, "is_closed": false, "name": "Clover", "distance": 1387.196040572, "review_count": 202, "id": "clover-boston-3", "location": {"display_address": ["Dewey Sq", "Boston, MA 02111"], "state": "MA", "city": "Boston", "address2": "", "country": "US", "zip_code": "02111", "address1": "Dewey Sq", "address3": ""}, "url": "https://www.yelp.com/biz/clover-boston-3?adjust_creative=8_C4NSGbL05eUQksKleGYw&utm_campaign=yelp_api_v3&utm_medium=api_v3_business_search&utm_source=8_C4NSGbL05eUQksKleGYw", "transactions": [], "phone": "", "image_url": "https://s3-media3.fl.yelpcdn.com/bphoto/Oei0YBfPx4pSvPCdQDXZEA/o.jpg"}, {"rating": 4.5, "display_phone": "(857) 317-4843", "price": "$$", "categories": [{"title": "Seafood", "alias": "seafood"}], "coordinates": {"longitude": -71.0584545135498, "latitude": 42.3572093993425}, "is_closed": false, "name": "Luke's Lobster Downtown Crossing", "distance": 1510.7572228889999, "review_count": 89, "id": "lukes-lobster-downtown-crossing-boston", "location": {"display_address": ["290 Washington St", "Boston, MA 02108"], "state": "MA", "city": "Boston", "address2": null, "country": "US", "zip_code": "02108", "address1": "290 Washington St", "address3": ""}, "url": "https://www.yelp.com/biz/lukes-lobster-downtown-crossing-boston?adjust_creative=8_C4NSGbL05eUQksKleGYw&utm_campaign=yelp_api_v3&utm_medium=api_v3_business_search&utm_source=8_C4NSGbL05eUQksKleGYw", "transactions": [], "phone": "+18573174843", "image_url": "https://s3-media4.fl.yelpcdn.com/bphoto/yE2YEjJ2_hbvEUqcqEmpCA/o.jpg"}, {"rating": 4.0, "display_phone": "(617) 248-8835", "price": "$", "categories": [{"title": "Sandwiches", "alias": "sandwiches"}, {"title": "Beer Bar", "alias": "beerbar"}], "coordinates": {"longitude": -71.0570718850568, "latitude": 42.3610800091721}, "is_closed": false, "name": "Saus", "distance": 1876.645097574, "review_count": 969, "id": "saus-boston", "location": {"display_address": ["33 Union St", "Boston, MA 02108"], "state": "MA", "city": "Boston", "address2": "", "country": "US", "zip_code": "02108", "address1": "33 Union St", "address3": ""}, "url": "https://www.yelp.com/biz/saus-boston?adjust_creative=8_C4NSGbL05eUQksKleGYw&utm_campaign=yelp_api_v3&utm_medium=api_v3_business_search&utm_source=8_C4NSGbL05eUQksKleGYw", "transactions": [], "phone": "+16172488835", "image_url": "https://s3-media4.fl.yelpcdn.com/bphoto/U_GZbsZdQYeoFwWmKdRg_g/o.jpg"}, {"rating": 4.0, "display_phone": "(617) 423-7888", "price": "$$", "categories": [{"title": "Asian Fusion", "alias": "asianfusion"}, {"title": "Japanese", "alias": "japanese"}, {"title": "Tapas Bars", "alias": "tapas"}], "coordinates": {"longitude": -71.0607028752565, "latitude": 42.3510322719812}, "is_closed": false, "name": "Shojo", "distance": 936.6873305997999, "review_count": 536, "id": "shojo-boston-2", "location": {"display_address": ["9A Tyler St", "Boston, MA 02111"], "state": "MA", "city": "Boston", "address2": "", "country": "US", "zip_code": "02111", "address1": "9A Tyler St", "address3": ""}, "url": "https://www.yelp.com/biz/shojo-boston-2?adjust_creative=8_C4NSGbL05eUQksKleGYw&utm_campaign=yelp_api_v3&utm_medium=api_v3_business_search&utm_source=8_C4NSGbL05eUQksKleGYw", "transactions": [], "phone": "+16174237888", "image_url": "https://s3-media1.fl.yelpcdn.com/bphoto/8KiRiDfoonaUSQQghT0npQ/o.jpg"}, {"rating": 4.0, "display_phone": "(617) 262-5377", "price": "$$", "categories": [{"title": "Vietnamese", "alias": "vietnamese"}, {"title": "Thai", "alias": "thai"}, {"title": "Seafood", "alias": "seafood"}], "coordinates": {"longitude": -71.0873718261719, "latitude": 42.3457679748535}, "is_closed": false, "name": "Pho Basil", "distance": 1343.5251029857998, "review_count": 793, "id": "pho-basil-boston", "location": {"display_address": ["177 Massachusetts Ave", "Ste A", "Boston, MA 02115"], "state": "MA", "city": "Boston", "address2": "Ste A", "country": "US", "zip_code": "02115", "address1": "177 Massachusetts Ave", "address3": ""}, "url": "https://www.yelp.com/biz/pho-basil-boston?adjust_creative=8_C4NSGbL05eUQksKleGYw&utm_campaign=yelp_api_v3&utm_medium=api_v3_business_search&utm_source=8_C4NSGbL05eUQksKleGYw", "transactions": ["delivery"], "phone": "+16172625377", "image_url": "https://s3-media1.fl.yelpcdn.com/bphoto/sRASmyQ-S7MRgZfCi4q4OA/o.jpg"}, {"rating": 4.0, "display_phone": "(617) 391-0902", "price": "$$$", "categories": [{"title": "Italian", "alias": "italian"}, {"title": "Tapas/Small Plates", "alias": "tapasmallplates"}, {"title": "Wine Bars", "alias": "wine_bars"}], "coordinates": {"longitude": -71.0684599315418, "latitude": 42.3434049842376}, "is_closed": false, "name": "Coppa", "distance": 543.8161510302, "review_count": 655, "id": "coppa-boston-2", "location": {"display_address": ["253 Shawmut Ave", "Boston, MA 02118"], "state": "MA", "city": "Boston", "address2": "", "country": "US", "zip_code": "02118", "address1": "253 Shawmut Ave", "address3": ""}, "url": "https://www.yelp.com/biz/coppa-boston-2?adjust_creative=8_C4NSGbL05eUQksKleGYw&utm_campaign=yelp_api_v3&utm_medium=api_v3_business_search&utm_source=8_C4NSGbL05eUQksKleGYw", "transactions": ["delivery"], "phone": "+16173910902", "image_url": "https://s3-media1.fl.yelpcdn.com/bphoto/WxgO4Te0H5ycUqkOWSVA6A/o.jpg"}, {"rating": 4.5, "display_phone": "(617) 266-0900", "price": "$", "categories": [{"title": "Spanish", "alias": "spanish"}, {"title": "Puerto Rican", "alias": "puertorican"}], "coordinates": {"longitude": -71.0755717009306, "latitude": 42.3412831127644}, "is_closed": false, "name": "Man\u00e1 Escondido Caf\u00e9", "distance": 780.9674795459999, "review_count": 51, "id": "man\u00e1-escondido-caf\u00e9-boston-3", "location": {"display_address": ["68 Aguadilla St", "Boston, MA 02118"], "state": "MA", "city": "Boston", "address2": "", "country": "US", "zip_code": "02118", "address1": "68 Aguadilla St", "address3": ""}, "url": "https://www.yelp.com/biz/man%C3%A1-escondido-caf%C3%A9-boston-3?adjust_creative=8_C4NSGbL05eUQksKleGYw&utm_campaign=yelp_api_v3&utm_medium=api_v3_business_search&utm_source=8_C4NSGbL05eUQksKleGYw", "transactions": [], "phone": "+16172660900", "image_url": "https://s3-media3.fl.yelpcdn.com/bphoto/XguCh8kjcttNi4v6Fx6Zpw/o.jpg"}, {"rating": 4.5, "display_phone": "(617) 877-8690", "price": "$", "categories": [{"title": "Sandwiches", "alias": "sandwiches"}, {"title": "Burgers", "alias": "burgers"}, {"title": "Delis", "alias": "delis"}], "coordinates": {"longitude": -71.1236789566271, "latitude": 42.351783181146}, "is_closed": false, "name": "Roast Beast", "distance": 4331.3759057259995, "review_count": 383, "id": "roast-beast-boston", "location": {"display_address": ["1080 Commonwealth Ave", "Boston, MA 02215"], "state": "MA", "city": "Boston", "address2": "", "country": "US", "zip_code": "02215", "address1": "1080 Commonwealth Ave", "address3": ""}, "url": "https://www.yelp.com/biz/roast-beast-boston?adjust_creative=8_C4NSGbL05eUQksKleGYw&utm_campaign=yelp_api_v3&utm_medium=api_v3_business_search&utm_source=8_C4NSGbL05eUQksKleGYw", "transactions": [], "phone": "+16178778690", "image_url": "https://s3-media1.fl.yelpcdn.com/bphoto/IEiinc3arYe03yP-LX2rZQ/o.jpg"}, {"rating": 4.5, "display_phone": "(617) 482-1722", "categories": [{"title": "Parks", "alias": "parks"}], "coordinates": {"longitude": -71.05526, "latitude": 42.36549}, "is_closed": false, "name": "HarborWalk", "distance": 2367.871992474, "review_count": 41, "id": "harborwalk-boston", "location": {"display_address": ["Boston, MA 02113"], "state": "MA", "city": "Boston", "address2": "", "country": "US", "zip_code": "02113", "address1": "", "address3": ""}, "url": "https://www.yelp.com/biz/harborwalk-boston?adjust_creative=8_C4NSGbL05eUQksKleGYw&utm_campaign=yelp_api_v3&utm_medium=api_v3_business_search&utm_source=8_C4NSGbL05eUQksKleGYw", "transactions": [], "phone": "+16174821722", "image_url": "https://s3-media2.fl.yelpcdn.com/bphoto/oWrU1eO0T6YV_T7UQLmWZg/o.jpg"}, {"rating": 4.5, "display_phone": "(857) 350-4606", "price": "$", "categories": [{"title": "Mediterranean", "alias": "mediterranean"}, {"title": "Bakeries", "alias": "bakeries"}, {"title": "Food Delivery Services", "alias": "fooddeliveryservices"}], "coordinates": {"longitude": -71.0586968, "latitude": 42.3556009}, "is_closed": false, "name": "Bonapita", "distance": 1344.1454391821999, "review_count": 147, "id": "bonapita-boston-2", "location": {"display_address": ["49 Franklin St", "Boston, MA 02110"], "state": "MA", "city": "Boston", "address2": "", "country": "US", "zip_code": "02110", "address1": "49 Franklin St", "address3": ""}, "url": "https://www.yelp.com/biz/bonapita-boston-2?adjust_creative=8_C4NSGbL05eUQksKleGYw&utm_campaign=yelp_api_v3&utm_medium=api_v3_business_search&utm_source=8_C4NSGbL05eUQksKleGYw", "transactions": ["delivery", "pickup"], "phone": "+18573504606", "image_url": "https://s3-media2.fl.yelpcdn.com/bphoto/eenK8RVMx2ceBU0MFwYbCQ/o.jpg"}, {"rating": 4.0, "display_phone": "(617) 423-0550", "price": "$$$", "categories": [{"title": "Seafood", "alias": "seafood"}, {"title": "Italian", "alias": "italian"}], "coordinates": {"longitude": -71.0712432861328, "latitude": 42.343879699707}, "is_closed": false, "name": "B & G Oysters", "distance": 439.44879441, "review_count": 840, "id": "b-and-g-oysters-boston", "location": {"display_address": ["550 Tremont St", "Boston, MA 02116"], "state": "MA", "city": "Boston", "address2": "", "country": "US", "zip_code": "02116", "address1": "550 Tremont St", "address3": ""}, "url": "https://www.yelp.com/biz/b-and-g-oysters-boston?adjust_creative=8_C4NSGbL05eUQksKleGYw&utm_campaign=yelp_api_v3&utm_medium=api_v3_business_search&utm_source=8_C4NSGbL05eUQksKleGYw", "transactions": [], "phone": "+16174230550", "image_url": "https://s3-media2.fl.yelpcdn.com/bphoto/OZjIHnVj5ffvkp2_578UyQ/o.jpg"}, {"rating": 4.0, "display_phone": "(617) 936-3464", "price": "$$", "categories": [{"title": "Salad", "alias": "salad"}, {"title": "Vegetarian", "alias": "vegetarian"}], "coordinates": {"longitude": -71.078664958477, "latitude": 42.3500286700385}, "is_closed": false, "name": "sweetgreen", "distance": 656.6841863709999, "review_count": 443, "id": "sweetgreen-boston", "location": {"display_address": ["659 Boylston St", "Boston, MA 02116"], "state": "MA", "city": "Boston", "address2": "", "country": "US", "zip_code": "02116", "address1": "659 Boylston St", "address3": ""}, "url": "https://www.yelp.com/biz/sweetgreen-boston?adjust_creative=8_C4NSGbL05eUQksKleGYw&utm_campaign=yelp_api_v3&utm_medium=api_v3_business_search&utm_source=8_C4NSGbL05eUQksKleGYw", "transactions": [], "phone": "+16179363464", "image_url": "https://s3-media1.fl.yelpcdn.com/bphoto/03XMn6TiWyWTQMf_fZuh_Q/o.jpg"}, {"rating": 4.0, "display_phone": "", "price": "$", "categories": [{"title": "Desserts", "alias": "desserts"}, {"title": "Chinese", "alias": "chinese"}], "coordinates": {"longitude": -71.0608778893948, "latitude": 42.3516293312528}, "is_closed": false, "name": "Egg Puffs", "distance": 950.476525868, "review_count": 145, "id": "egg-puffs-boston", "location": {"display_address": ["42 Beach St", "Boston, MA 02111"], "state": "MA", "city": "Boston", "address2": "", "country": "US", "zip_code": "02111", "address1": "42 Beach St", "address3": ""}, "url": "https://www.yelp.com/biz/egg-puffs-boston?adjust_creative=8_C4NSGbL05eUQksKleGYw&utm_campaign=yelp_api_v3&utm_medium=api_v3_business_search&utm_source=8_C4NSGbL05eUQksKleGYw", "transactions": [], "phone": "", "image_url": "https://s3-media1.fl.yelpcdn.com/bphoto/hqtmnPThMN7tBlBxz3tDGA/o.jpg"}, {"rating": 4.5, "display_phone": "(617) 450-2000", "categories": [{"title": "Churches", "alias": "churches"}, {"title": "Museums", "alias": "museums"}, {"title": "Landmarks & Historical Buildings", "alias": "landmarks"}], "coordinates": {"longitude": -71.084479140845, "latitude": 42.344110284178}, "is_closed": false, "name": "The Christian Science Plaza", "distance": 1164.4224590558001, "review_count": 76, "id": "the-christian-science-plaza-boston", "location": {"display_address": ["210 Massachusetts Ave", "Boston, MA 02115"], "state": "MA", "city": "Boston", "address2": "", "country": "US", "zip_code": "02115", "address1": "210 Massachusetts Ave", "address3": ""}, "url": "https://www.yelp.com/biz/the-christian-science-plaza-boston?adjust_creative=8_C4NSGbL05eUQksKleGYw&utm_campaign=yelp_api_v3&utm_medium=api_v3_business_search&utm_source=8_C4NSGbL05eUQksKleGYw", "transactions": [], "phone": "+16174502000", "image_url": "https://s3-media3.fl.yelpcdn.com/bphoto/slRwOpMD7GGYloXzNTM6tQ/o.jpg"}, {"rating": 4.0, "display_phone": "(617) 695-1806", "price": "$$$", "categories": [{"title": "Lounges", "alias": "lounges"}, {"title": "American (New)", "alias": "newamerican"}], "coordinates": {"longitude": -71.04846, "latitude": 42.35067}, "is_closed": false, "name": "Drink", "distance": 1893.4548148079998, "review_count": 1326, "id": "drink-boston", "location": {"display_address": ["348 Congress St", "Boston, MA 02228"], "state": "MA", "city": "Boston", "address2": "", "country": "US", "zip_code": "02228", "address1": "348 Congress St", "address3": ""}, "url": "https://www.yelp.com/biz/drink-boston?adjust_creative=8_C4NSGbL05eUQksKleGYw&utm_campaign=yelp_api_v3&utm_medium=api_v3_business_search&utm_source=8_C4NSGbL05eUQksKleGYw", "transactions": [], "phone": "+16176951806", "image_url": "https://s3-media4.fl.yelpcdn.com/bphoto/j32zPQjRn2AsdGGMoyv04A/o.jpg"}, {"rating": 4.0, "display_phone": "(617) 585-6300", "price": "$$$", "categories": [{"title": "Brazilian", "alias": "brazilian"}, {"title": "Steakhouses", "alias": "steak"}, {"title": "Seafood", "alias": "seafood"}], "coordinates": {"longitude": -71.077162199668, "latitude": 42.34880756427}, "is_closed": false, "name": "Fogo de Ch\u00e3o Brazilian Steakhouse", "distance": 498.23405782040004, "review_count": 501, "id": "fogo-de-ch\u00e3o-brazilian-steakhouse-boston-4", "location": {"display_address": ["200 Dartmouth St", "Boston, MA 02116"], "state": "MA", "city": "Boston", "address2": "", "country": "US", "zip_code": "02116", "address1": "200 Dartmouth St", "address3": ""}, "url": "https://www.yelp.com/biz/fogo-de-ch%C3%A3o-brazilian-steakhouse-boston-4?adjust_creative=8_C4NSGbL05eUQksKleGYw&utm_campaign=yelp_api_v3&utm_medium=api_v3_business_search&utm_source=8_C4NSGbL05eUQksKleGYw", "transactions": [], "phone": "+16175856300", "image_url": "https://s3-media2.fl.yelpcdn.com/bphoto/feRE6V5OndC5SA2XMmvHzA/o.jpg"}, {"rating": 4.5, "display_phone": "(857) 233-5805", "price": "$", "categories": [{"title": "Ice Cream & Frozen Yogurt", "alias": "icecream"}, {"title": "Coffee & Tea", "alias": "coffee"}, {"title": "Kosher", "alias": "kosher"}], "coordinates": {"longitude": -71.0887018, "latitude": 42.3470193}, "is_closed": false, "name": "J.P. Licks", "distance": 1437.4815425856, "review_count": 117, "id": "j-p-licks-boston-3", "location": {"display_address": ["1106 Boylston St", "Boston, MA 02215"], "state": "MA", "city": "Boston", "address2": "", "country": "US", "zip_code": "02215", "address1": "1106 Boylston St", "address3": ""}, "url": "https://www.yelp.com/biz/j-p-licks-boston-3?adjust_creative=8_C4NSGbL05eUQksKleGYw&utm_campaign=yelp_api_v3&utm_medium=api_v3_business_search&utm_source=8_C4NSGbL05eUQksKleGYw", "transactions": [], "phone": "+18572335805", "image_url": "https://s3-media4.fl.yelpcdn.com/bphoto/nQjS6pbThk8zuLBC9UrjXg/o.jpg"}, {"rating": 4.5, "display_phone": "(617) 241-0202", "price": "$", "categories": [{"title": "Italian", "alias": "italian"}], "coordinates": {"longitude": -71.05511, "latitude": 42.36609}, "is_closed": false, "name": "Theo's Cozy Corner", "distance": 2424.698753478, "review_count": 267, "id": "theos-cozy-corner-boston", "location": {"display_address": ["162 Salem St", "Boston, MA 02113"], "state": "MA", "city": "Boston", "address2": "", "country": "US", "zip_code": "02113", "address1": "162 Salem St", "address3": ""}, "url": "https://www.yelp.com/biz/theos-cozy-corner-boston?adjust_creative=8_C4NSGbL05eUQksKleGYw&utm_campaign=yelp_api_v3&utm_medium=api_v3_business_search&utm_source=8_C4NSGbL05eUQksKleGYw", "transactions": [], "phone": "+16172410202", "image_url": "https://s3-media1.fl.yelpcdn.com/bphoto/xrE5mnueu7LtoCqHXZ-UNw/o.jpg"}, {"rating": 4.0, "display_phone": "(617) 227-3434", "price": "$$$", "categories": [{"title": "Italian", "alias": "italian"}], "coordinates": {"longitude": -71.063289740014, "latitude": 42.3598607550211}, "is_closed": false, "name": "Grotto", "distance": 1487.2941883203998, "review_count": 671, "id": "grotto-boston", "location": {"display_address": ["37 Bowdoin St", "Boston, MA 02114"], "state": "MA", "city": "Boston", "address2": "", "country": "US", "zip_code": "02114", "address1": "37 Bowdoin St", "address3": ""}, "url": "https://www.yelp.com/biz/grotto-boston?adjust_creative=8_C4NSGbL05eUQksKleGYw&utm_campaign=yelp_api_v3&utm_medium=api_v3_business_search&utm_source=8_C4NSGbL05eUQksKleGYw", "transactions": [], "phone": "+16172273434", "image_url": "https://s3-media4.fl.yelpcdn.com/bphoto/-EfHjU10XYGCe92VbIreuA/o.jpg"}, {"rating": 4.5, "display_phone": "(617) 426-1822", "price": "$", "categories": [{"title": "Diners", "alias": "diners"}, {"title": "Sandwiches", "alias": "sandwiches"}, {"title": "Salad", "alias": "salad"}], "coordinates": {"longitude": -71.07046, "latitude": 42.34662}, "is_closed": false, "name": "Billy's Sub Shop", "distance": 147.20143096904, "review_count": 125, "id": "billys-sub-shop-boston", "location": {"display_address": ["57 Berkeley St", "Boston, MA 02116"], "state": "MA", "city": "Boston", "address2": "", "country": "US", "zip_code": "02116", "address1": "57 Berkeley St", "address3": ""}, "url": "https://www.yelp.com/biz/billys-sub-shop-boston?adjust_creative=8_C4NSGbL05eUQksKleGYw&utm_campaign=yelp_api_v3&utm_medium=api_v3_business_search&utm_source=8_C4NSGbL05eUQksKleGYw", "transactions": [], "phone": "+16174261822", "image_url": "https://s3-media4.fl.yelpcdn.com/bphoto/EVcB58jnRZbBDmSFQTjYSw/o.jpg"}, {"rating": 4.5, "display_phone": "(617) 487-1513", "price": "$", "categories": [{"title": "Coffee & Tea", "alias": "coffee"}], "coordinates": {"longitude": -71.083393, "latitude": 42.341943}, "is_closed": false, "name": "Farmer Horse Coffee", "distance": 1194.5808952, "review_count": 107, "id": "farmer-horse-coffee-boston", "location": {"display_address": ["374 Massachusetts Ave", "Boston, MA 02115"], "state": "MA", "city": "Boston", "address2": "", "country": "US", "zip_code": "02115", "address1": "374 Massachusetts Ave", "address3": ""}, "url": "https://www.yelp.com/biz/farmer-horse-coffee-boston?adjust_creative=8_C4NSGbL05eUQksKleGYw&utm_campaign=yelp_api_v3&utm_medium=api_v3_business_search&utm_source=8_C4NSGbL05eUQksKleGYw", "transactions": [], "phone": "+16174871513", "image_url": "https://s3-media3.fl.yelpcdn.com/bphoto/6lbBZJA-TPrZEyWdvydSWQ/o.jpg"}, {"rating": 4.0, "display_phone": "(617) 532-9100", "price": "$$$", "categories": [{"title": "American (New)", "alias": "newamerican"}, {"title": "Lounges", "alias": "lounges"}, {"title": "Breakfast & Brunch", "alias": "breakfast_brunch"}], "coordinates": {"longitude": -71.0960168391466, "latitude": 42.348740324378}, "is_closed": false, "name": "Eastern Standard Kitchen and Drinks", "distance": 2036.70506502, "review_count": 1541, "id": "eastern-standard-kitchen-and-drinks-boston-3", "location": {"display_address": ["528 Commonwealth Ave", "Boston, MA 02215"], "state": "MA", "city": "Boston", "address2": "", "country": "US", "zip_code": "02215", "address1": "528 Commonwealth Ave", "address3": ""}, "url": "https://www.yelp.com/biz/eastern-standard-kitchen-and-drinks-boston-3?adjust_creative=8_C4NSGbL05eUQksKleGYw&utm_campaign=yelp_api_v3&utm_medium=api_v3_business_search&utm_source=8_C4NSGbL05eUQksKleGYw", "transactions": [], "phone": "+16175329100", "image_url": "https://s3-media1.fl.yelpcdn.com/bphoto/AJJUNPdbEuFwH2PSRMQgoA/o.jpg"}, {"rating": 4.0, "display_phone": "(617) 422-0224", "price": "$$", "categories": [{"title": "Modern European", "alias": "modern_european"}, {"title": "American (New)", "alias": "newamerican"}, {"title": "Brasseries", "alias": "brasseries"}], "coordinates": {"longitude": -71.0673901926598, "latitude": 42.3409677894859}, "is_closed": false, "name": "Gaslight Brasserie", "distance": 827.354130102, "review_count": 1597, "id": "gaslight-brasserie-boston-4", "location": {"display_address": ["560 Harrison Ave", "Boston, MA 02118"], "state": "MA", "city": "Boston", "address2": "", "country": "US", "zip_code": "02118", "address1": "560 Harrison Ave", "address3": ""}, "url": "https://www.yelp.com/biz/gaslight-brasserie-boston-4?adjust_creative=8_C4NSGbL05eUQksKleGYw&utm_campaign=yelp_api_v3&utm_medium=api_v3_business_search&utm_source=8_C4NSGbL05eUQksKleGYw", "transactions": ["delivery"], "phone": "+16174220224", "image_url": "https://s3-media2.fl.yelpcdn.com/bphoto/LoHqXfoS9vVxjhag4fOIOQ/o.jpg"}, {"rating": 4.0, "display_phone": "(617) 587-4200", "price": "$$$", "categories": [{"title": "French", "alias": "french"}], "coordinates": {"longitude": -71.0832099, "latitude": 42.34967}, "is_closed": false, "name": "La Voile", "distance": 1009.90752086, "review_count": 402, "id": "la-voile-boston", "location": {"display_address": ["261 Newbury St", "Boston, MA 02116"], "state": "MA", "city": "Boston", "address2": "", "country": "US", "zip_code": "02116", "address1": "261 Newbury St", "address3": ""}, "url": "https://www.yelp.com/biz/la-voile-boston?adjust_creative=8_C4NSGbL05eUQksKleGYw&utm_campaign=yelp_api_v3&utm_medium=api_v3_business_search&utm_source=8_C4NSGbL05eUQksKleGYw", "transactions": [], "phone": "+16175874200", "image_url": "https://s3-media2.fl.yelpcdn.com/bphoto/F1vTpWnJsE2x2MSc3iADJg/o.jpg"}, {"rating": 4.0, "display_phone": "(617) 262-5555", "price": "$$", "categories": [{"title": "Bars", "alias": "bars"}, {"title": "American (New)", "alias": "newamerican"}], "coordinates": {"longitude": -71.0894393920898, "latitude": 42.3501434326172}, "is_closed": false, "name": "Corner Tavern", "distance": 1520.97999197, "review_count": 213, "id": "corner-tavern-boston", "location": {"display_address": ["421 Marlborough St", "Boston, MA 02115"], "state": "MA", "city": "Boston", "address2": "", "country": "US", "zip_code": "02115", "address1": "421 Marlborough St", "address3": ""}, "url": "https://www.yelp.com/biz/corner-tavern-boston?adjust_creative=8_C4NSGbL05eUQksKleGYw&utm_campaign=yelp_api_v3&utm_medium=api_v3_business_search&utm_source=8_C4NSGbL05eUQksKleGYw", "transactions": [], "phone": "+16172625555", "image_url": "https://s3-media2.fl.yelpcdn.com/bphoto/6HoLVAEkWjVAzTObv1JOqg/o.jpg"}, {"rating": 4.0, "display_phone": "(617) 948-9800", "price": "$$", "categories": [{"title": "American (New)", "alias": "newamerican"}, {"title": "Lounges", "alias": "lounges"}], "coordinates": {"longitude": -71.0542373657227, "latitude": 42.3589973449707}, "is_closed": false, "name": "Bostonia Public House", "distance": 1874.4681433560002, "review_count": 633, "id": "bostonia-public-house-boston-4", "location": {"display_address": ["131 State St", "Boston, MA 02109"], "state": "MA", "city": "Boston", "address2": "", "country": "US", "zip_code": "02109", "address1": "131 State St", "address3": ""}, "url": "https://www.yelp.com/biz/bostonia-public-house-boston-4?adjust_creative=8_C4NSGbL05eUQksKleGYw&utm_campaign=yelp_api_v3&utm_medium=api_v3_business_search&utm_source=8_C4NSGbL05eUQksKleGYw", "transactions": [], "phone": "+16179489800", "image_url": "https://s3-media3.fl.yelpcdn.com/bphoto/UK-n9h6Ng80K2aBbilSWwA/o.jpg"}, {"rating": 4.5, "display_phone": "(617) 330-5145", "price": "$", "categories": [{"title": "Delis", "alias": "delis"}, {"title": "Breakfast & Brunch", "alias": "breakfast_brunch"}, {"title": "Sandwiches", "alias": "sandwiches"}], "coordinates": {"longitude": -71.0592011686825, "latitude": 42.3550721034927}, "is_closed": false, "name": "Archie's New York Deli", "distance": 1274.7105775359998, "review_count": 101, "id": "archies-new-york-deli-boston", "location": {"display_address": ["101 Arch St", "Boston, MA 02110"], "state": "MA", "city": "Boston", "address2": "", "country": "US", "zip_code": "02110", "address1": "101 Arch St", "address3": ""}, "url": "https://www.yelp.com/biz/archies-new-york-deli-boston?adjust_creative=8_C4NSGbL05eUQksKleGYw&utm_campaign=yelp_api_v3&utm_medium=api_v3_business_search&utm_source=8_C4NSGbL05eUQksKleGYw", "transactions": [], "phone": "+16173305145", "image_url": "https://s3-media3.fl.yelpcdn.com/bphoto/NdtoWl_cvLVUmftNazlYdg/o.jpg"}], "total": 24769}