{"region": {"center": {"longitude": -71.07124328613281, "latitude": 42.34784169448538}}, "businesses": [{"rating": 4.5, "display_phone": "(857) 263-8598", "price": "$$", "categories": [{"title": "Juice Bars & Smoothies", "alias": "juicebars"}, {"title": "Salad", "alias": "salad"}, {"title": "Vegan", "alias": "vegan"}], "coordinates": {"longitude": -71.0593623143009, "latitude": 42.359302047671}, "is_closed": false, "name": "Cocobeet", "distance": 1531.12768534, "review_count": 161, "id": "cocobeet-boston", "location": {"display_address": ["100 City Hall Plz", "Boston, MA 02108"], "state": "MA", "city": "Boston", "address2": "", "country": "US", "zip_code": "02108", "address1": "100 City Hall Plz", "address3": ""}, "url": "https://www.yelp.com/biz/cocobeet-boston?adjust_creative=8_C4NSGbL05eUQksKleGYw&utm_campaign=yelp_api_v3&utm_medium=api_v3_business_search&utm_source=8_C4NSGbL05eUQksKleGYw", "transactions": ["delivery", "pickup"], "phone": "+18572638598", "image_url": "https://s3-media4.fl.yelpcdn.com/bphoto/o2_XecGERwKSXIbo5T4BjA/o.jpg"}, {"rating": 5.0, "display_phone": "(617) 635-4505", "categories": [{"title": "Parks", "alias": "parks"}, {"title": "Playgrounds", "alias": "playgrounds"}], "coordinates": {"longitude": -71.0519084931724, "latitude": 42.3616582704001}, "is_closed": false, "name": "Christopher Columbus Waterfront Park", "distance": 2208.47796992, "review_count": 77, "id": "christopher-columbus-waterfront-park-boston", "location": {"display_address": ["Atlantic Ave & Richmond St", "Boston, MA 02109"], "state": "MA", "city": "Boston", "address2": "", "country": "US", "zip_code": "02109", "address1": "Atlantic Ave & Richmond St", "address3": ""}, "url": "https://www.yelp.com/biz/christopher-columbus-waterfront-park-boston?adjust_creative=8_C4NSGbL05eUQksKleGYw&utm_campaign=yelp_api_v3&utm_medium=api_v3_business_search&utm_source=8_C4NSGbL05eUQksKleGYw", "transactions": [], "phone": "+16176354505", "image_url": "https://s3-media1.fl.yelpcdn.com/bphoto/B6VYLLgJjsjrewq-epPrQQ/o.jpg"}, {"rating": 5.0, "display_phone": "(617) 585-9534", "price": "$$", "categories": [{"title": "Coffee & Tea", "alias": "coffee"}], "coordinates": {"longitude": -71.0757675, "latitude": 42.3420601}, "is_closed": false, "name": "DavidsTea", "distance": 744.074486584, "review_count": 50, "id": "davidstea-boston-4", "location": {"display_address": ["661 Tremont St", "Boston, MA 02118"], "state": "MA", "city": "Boston", "address2": null, "country": "US", "zip_code": "02118", "address1": "661 Tremont St", "address3": ""}, "url": "https://www.yelp.com/biz/davidstea-boston-4?adjust_creative=8_C4NSGbL05eUQksKleGYw&utm_campaign=yelp_api_v3&utm_medium=api_v3_business_search&utm_source=8_C4NSGbL05eUQksKleGYw", "transactions": [], "phone": "+16175859534", "image_url": "https://s3-media3.fl.yelpcdn.com/bphoto/URnH_luOH1b9Dxx9llf6kQ/o.jpg"}, {"rating": 4.5, "display_phone": "(617) 423-3447", "price": "$", "categories": [{"title": "Sandwiches", "alias": "sandwiches"}, {"title": "Breakfast & Brunch", "alias": "breakfast_brunch"}], "coordinates": {"longitude": -71.0677027702332, "latitude": 42.3485697036883}, "is_closed": false, "name": "Mike & Patty's", "distance": 301.8778406844, "review_count": 1104, "id": "mike-and-pattys-boston", "location": {"display_address": ["12 Church St", "Boston, MA 02116"], "state": "MA", "city": "Boston", "address2": "", "country": "US", "zip_code": "02116", "address1": "12 Church St", "address3": ""}, "url": "https://www.yelp.com/biz/mike-and-pattys-boston?adjust_creative=8_C4NSGbL05eUQksKleGYw&utm_campaign=yelp_api_v3&utm_medium=api_v3_business_search&utm_source=8_C4NSGbL05eUQksKleGYw", "transactions": ["delivery", "pickup"], "phone": "+16174233447", "image_url": "https://s3-media2.fl.yelpcdn.com/bphoto/5yjX0pGQKxWpqvMxtmlFXQ/o.jpg"}, {"rating": 5.0, "display_phone": "(978) 270-4558", "price": "$", "categories": [{"title": "Meat Shops", "alias": "meats"}, {"title": "Delis", "alias": "delis"}], "coordinates": {"longitude": -71.0563299, "latitude": 42.3614769}, "is_closed": false, "name": "Harry's Cheese and Cold Cuts", "distance": 1946.8185979999998, "review_count": 37, "id": "harrys-cheese-and-cold-cuts-boston", "location": {"display_address": ["98 Blackstone St", "Boston, MA 02109"], "state": "MA", "city": "Boston", "address2": "", "country": "US", "zip_code": "02109", "address1": "98 Blackstone St", "address3": ""}, "url": "https://www.yelp.com/biz/harrys-cheese-and-cold-cuts-boston?adjust_creative=8_C4NSGbL05eUQksKleGYw&utm_campaign=yelp_api_v3&utm_medium=api_v3_business_search&utm_source=8_C4NSGbL05eUQksKleGYw", "transactions": [], "phone": "+19782704558", "image_url": "https://s3-media3.fl.yelpcdn.com/bphoto/x02uk-vqOJ_A1mxrwTK0gw/o.jpg"}, {"rating": 4.5, "display_phone": "(617) 357-6861", "price": "$$", "categories": [{"title": "Delis", "alias": "delis"}, {"title": "Sandwiches", "alias": "sandwiches"}], "coordinates": {"longitude": -71.0598373, "latitude": 42.3568611}, "is_closed": false, "name": "Sam LaGrassa's", "distance": 1358.70058373, "review_count": 757, "id": "sam-lagrassas-boston-3", "location": {"display_address": ["44 Province St", "Boston, MA 02108"], "state": "MA", "city": "Boston", "address2": "", "country": "US", "zip_code": "02108", "address1": "44 Province St", "address3": ""}, "url": "https://www.yelp.com/biz/sam-lagrassas-boston-3?adjust_creative=8_C4NSGbL05eUQksKleGYw&utm_campaign=yelp_api_v3&utm_medium=api_v3_business_search&utm_source=8_C4NSGbL05eUQksKleGYw", "transactions": ["delivery"], "phone": "+16173576861", "image_url": "https://s3-media4.fl.yelpcdn.com/bphoto/JcSU7Vgu3iQPrJ60FMLiUA/o.jpg"}, {"rating": 4.5, "display_phone": "(617) 727-9547", "categories": [{"title": "Parks", "alias": "parks"}], "coordinates": {"longitude": -71.073371, "latitude": 42.357735}, "is_closed": false, "name": "The Esplanade", "distance": 1113.706249378, "review_count": 76, "id": "the-esplanade-boston-2", "location": {"display_address": ["Storrow Dr", "Boston, MA 02116"], "state": "MA", "city": "Boston", "address2": "", "country": "US", "zip_code": "02116", "address1": "Storrow Dr", "address3": ""}, "url": "https://www.yelp.com/biz/the-esplanade-boston-2?adjust_creative=8_C4NSGbL05eUQksKleGYw&utm_campaign=yelp_api_v3&utm_medium=api_v3_business_search&utm_source=8_C4NSGbL05eUQksKleGYw", "transactions": [], "phone": "+16177279547", "image_url": "https://s3-media2.fl.yelpcdn.com/bphoto/FJfX6WP5Ns5nZEhifJzYDg/o.jpg"}, {"rating": 4.5, "display_phone": "", "price": "$", "categories": [{"title": "Cafes", "alias": "cafes"}, {"title": "Coffee & Tea", "alias": "coffee"}], "coordinates": {"longitude": -71.0815582, "latitude": 42.3411102}, "is_closed": false, "name": "Render Coffee", "distance": 1127.342187198, "review_count": 385, "id": "render-coffee-boston", "location": {"display_address": ["563 Columbus Ave", "Boston, MA 02118"], "state": "MA", "city": "Boston", "address2": "", "country": "US", "zip_code": "02118", "address1": "563 Columbus Ave", "address3": ""}, "url": "https://www.yelp.com/biz/render-coffee-boston?adjust_creative=8_C4NSGbL05eUQksKleGYw&utm_campaign=yelp_api_v3&utm_medium=api_v3_business_search&utm_source=8_C4NSGbL05eUQksKleGYw", "transactions": [], "phone": "", "image_url": "https://s3-media4.fl.yelpcdn.com/bphoto/0zf3d7GyDZciVB88BskC6Q/o.jpg"}, {"rating": 4.5, "display_phone": "(617) 742-3474", "price": "$$$", "categories": [{"title": "Seafood", "alias": "seafood"}, {"title": "Soup", "alias": "soup"}, {"title": "American (Traditional)", "alias": "tradamerican"}], "coordinates": {"longitude": -71.0560575975533, "latitude": 42.3632711771092}, "is_closed": false, "name": "Neptune Oyster", "distance": 2121.050735354, "review_count": 3436, "id": "neptune-oyster-boston", "location": {"display_address": ["63 Salem St", "Boston, MA 02113"], "state": "MA", "city": "Boston", "address2": "", "country": "US", "zip_code": "02113", "address1": "63 Salem St", "address3": ""}, "url": "https://www.yelp.com/biz/neptune-oyster-boston?adjust_creative=8_C4NSGbL05eUQksKleGYw&utm_campaign=yelp_api_v3&utm_medium=api_v3_business_search&utm_source=8_C4NSGbL05eUQksKleGYw", "transactions": [], "phone": "+16177423474", "image_url": "https://s3-media3.fl.yelpcdn.com/bphoto/oF9AqeZFT3Kg0N4peP_-4A/o.jpg"}, {"rating": 4.5, "display_phone": "(617) 262-8900", "price": "$$$$", "categories": [{"title": "Steakhouses", "alias": "steak"}, {"title": "Seafood", "alias": "seafood"}, {"title": "Wine Bars", "alias": "wine_bars"}], "coordinates": {"longitude": -71.0851110928626, "latitude": 42.3478110031284}, "is_closed": false, "name": "The Capital Grille", "distance": 1139.870094428, "review_count": 734, "id": "the-capital-grille-boston", "location": {"display_address": ["900 Boylston St", "Boston, MA 02115"], "state": "MA", "city": "Boston", "address2": "", "country": "US", "zip_code": "02115", "address1": "900 Boylston St", "address3": ""}, "url": "https://www.yelp.com/biz/the-capital-grille-boston?adjust_creative=8_C4NSGbL05eUQksKleGYw&utm_campaign=yelp_api_v3&utm_medium=api_v3_business_search&utm_source=8_C4NSGbL05eUQksKleGYw", "transactions": [], "phone": "+16172628900", "image_url": "https://s3-media2.fl.yelpcdn.com/bphoto/Waumia4HU4Z92t85cfdnZQ/o.jpg"}, {"rating": 4.5, "display_phone": "(617) 266-2600", "price": "$$", "categories": [{"title": "Spanish", "alias": "spanish"}, {"title": "Wine Bars", "alias": "wine_bars"}, {"title": "Tapas/Small Plates", "alias": "tapasmallplates"}], "coordinates": {"longitude": -71.0705436362457, "latitude": 42.3449355147724}, "is_closed": false, "name": "Barcelona Wine Bar South End", "distance": 328.3279873204, "review_count": 545, "id": "barcelona-wine-bar-south-end-boston-6", "location": {"display_address": ["525 Tremont St", "Boston, MA 02116"], "state": "MA", "city": "Boston", "address2": null, "country": "US", "zip_code": "02116", "address1": "525 Tremont St", "address3": ""}, "url": "https://www.yelp.com/biz/barcelona-wine-bar-south-end-boston-6?adjust_creative=8_C4NSGbL05eUQksKleGYw&utm_campaign=yelp_api_v3&utm_medium=api_v3_business_search&utm_source=8_C4NSGbL05eUQksKleGYw", "transactions": [], "phone": "+16172662600", "image_url": "https://s3-media4.fl.yelpcdn.com/bphoto/t1EQpq-sc8Sd6m8x8A62tg/o.jpg"}, {"rating": 4.5, "display_phone": "(617) 423-7847", "price": "$$$$", "categories": [{"title": "American (New)", "alias": "newamerican"}, {"title": "Cooking Classes", "alias": "cookingclasses"}], "coordinates": {"longitude": -71.071367852053, "latitude": 42.343705187098}, "is_closed": false, "name": "Stir", "distance": 460.33870353279997, "review_count": 37, "id": "stir-boston", "location": {"display_address": ["102 Waltham St", "Boston, MA 02118"], "state": "MA", "city": "Boston", "address2": "", "country": "US", "zip_code": "02118", "address1": "102 Waltham St", "address3": ""}, "url": "https://www.yelp.com/biz/stir-boston?adjust_creative=8_C4NSGbL05eUQksKleGYw&utm_campaign=yelp_api_v3&utm_medium=api_v3_business_search&utm_source=8_C4NSGbL05eUQksKleGYw", "transactions": [], "phone": "+16174237847", "image_url": "https://s3-media2.fl.yelpcdn.com/bphoto/2v-780t_VpaUh_IMXsQZmw/o.jpg"}, {"rating": 4.5, "display_phone": "(857) 265-3017", "price": "$", "categories": [{"title": "Middle Eastern", "alias": "mideastern"}], "coordinates": {"longitude": -71.0597644, "latitude": 42.357013}, "is_closed": false, "name": "Shawarma Falafel", "distance": 1389.2817452119998, "review_count": 288, "id": "shawarma-falafel-boston", "location": {"display_address": ["26 Province St", "Boston, MA 02108"], "state": "MA", "city": "Boston", "address2": "", "country": "US", "zip_code": "02108", "address1": "26 Province St", "address3": ""}, "url": "https://www.yelp.com/biz/shawarma-falafel-boston?adjust_creative=8_C4NSGbL05eUQksKleGYw&utm_campaign=yelp_api_v3&utm_medium=api_v3_business_search&utm_source=8_C4NSGbL05eUQksKleGYw", "transactions": ["delivery", "pickup"], "phone": "+18572653017", "image_url": "https://s3-media4.fl.yelpcdn.com/bphoto/Wupir8s-VSnEN9nI7G63mA/o.jpg"}, {"rating": 4.5, "display_phone": "(617) 422-0082", "price": "$", "categories": [{"title": "Breakfast & Brunch", "alias": "breakfast_brunch"}, {"title": "Burgers", "alias": "burgers"}, {"title": "Sandwiches", "alias": "sandwiches"}], "coordinates": {"longitude": -71.0539618, "latitude": 42.3579261}, "is_closed": false, "name": "Wheelhouse", "distance": 1809.2240513499999, "review_count": 227, "id": "wheelhouse-boston-3", "location": {"display_address": ["63 Broad St", "Boston, MA 02109"], "state": "MA", "city": "Boston", "address2": "", "country": "US", "zip_code": "02109", "address1": "63 Broad St", "address3": ""}, "url": "https://www.yelp.com/biz/wheelhouse-boston-3?adjust_creative=8_C4NSGbL05eUQksKleGYw&utm_campaign=yelp_api_v3&utm_medium=api_v3_business_search&utm_source=8_C4NSGbL05eUQksKleGYw", "transactions": [], "phone": "+16174220082", "image_url": "https://s3-media4.fl.yelpcdn.com/bphoto/1s_SzltjkC8XBFSqEMI93Q/o.jpg"}, {"rating": 4.5, "display_phone": "(617) 421-1200", "price": "$$$$", "categories": [{"title": "Seafood", "alias": "seafood"}, {"title": "Mediterranean", "alias": "mediterranean"}], "coordinates": {"longitude": -71.0670912265778, "latitude": 42.3510951212984}, "is_closed": false, "name": "Ostra", "distance": 496.9288187068, "review_count": 262, "id": "ostra-boston", "location": {"display_address": ["1 Charles St S", "Boston, MA 02116"], "state": "MA", "city": "Boston", "address2": "", "country": "US", "zip_code": "02116", "address1": "1 Charles St S", "address3": ""}, "url": "https://www.yelp.com/biz/ostra-boston?adjust_creative=8_C4NSGbL05eUQksKleGYw&utm_campaign=yelp_api_v3&utm_medium=api_v3_business_search&utm_source=8_C4NSGbL05eUQksKleGYw", "transactions": [], "phone": "+16174211200", "image_url": "https://s3-media1.fl.yelpcdn.com/bphoto/ihBMPgWExSftoLsBHrlHlw/o.jpg"}, {"rating": 5.0, "display_phone": "", "price": "$$", "categories": [{"title": "Coffee & Tea", "alias": "coffee"}], "coordinates": {"longitude": -71.0554103851318, "latitude": 42.3527578278786}, "is_closed": false, "name": "The Coffee Trike", "distance": 1411.0119551224, "review_count": 32, "id": "the-coffee-trike-boston", "location": {"display_address": ["Boston, MA 02111"], "state": "MA", "city": "Boston", "address2": null, "country": "US", "zip_code": "02111", "address1": "", "address3": ""}, "url": "https://www.yelp.com/biz/the-coffee-trike-boston?adjust_creative=8_C4NSGbL05eUQksKleGYw&utm_campaign=yelp_api_v3&utm_medium=api_v3_business_search&utm_source=8_C4NSGbL05eUQksKleGYw", "transactions": [], "phone": "", "image_url": "https://s3-media1.fl.yelpcdn.com/bphoto/4pGV3POoIMDrg72itmyyIg/o.jpg"}, {"rating": 4.5, "display_phone": "(617) 536-9500", "price": "$$$", "categories": [{"title": "Italian", "alias": "italian"}, {"title": "Wine Bars", "alias": "wine_bars"}], "coordinates": {"longitude": -71.0816150531173, "latitude": 42.3409180006501}, "is_closed": false, "name": "SRV Boston", "distance": 1148.4013023283999, "review_count": 170, "id": "srv-boston-boston", "location": {"display_address": ["569 columbus ave", "Boston, MA 02118"], "state": "MA", "city": "Boston", "address2": "", "country": "US", "zip_code": "02118", "address1": "569 columbus ave", "address3": ""}, "url": "https://www.yelp.com/biz/srv-boston-boston?adjust_creative=8_C4NSGbL05eUQksKleGYw&utm_campaign=yelp_api_v3&utm_medium=api_v3_business_search&utm_source=8_C4NSGbL05eUQksKleGYw", "transactions": [], "phone": "+16175369500", "image_url": "https://s3-media2.fl.yelpcdn.com/bphoto/e8UVjv14GLV2uvbbVT4ArQ/o.jpg"}, {"rating": 4.5, "display_phone": "(617) 247-8100", "price": "$", "categories": [{"title": "Breakfast & Brunch", "alias": "breakfast_brunch"}, {"title": "Coffee & Tea", "alias": "coffee"}, {"title": "Sandwiches", "alias": "sandwiches"}], "coordinates": {"longitude": -71.0747301578522, "latitude": 42.3354929990873}, "is_closed": false, "name": "Blunch", "distance": 1403.0527066579998, "review_count": 357, "id": "blunch-boston", "location": {"display_address": ["59 E Springfield St", "Boston, MA 02118"], "state": "MA", "city": "Boston", "address2": "", "country": "US", "zip_code": "02118", "address1": "59 E Springfield St", "address3": ""}, "url": "https://www.yelp.com/biz/blunch-boston?adjust_creative=8_C4NSGbL05eUQksKleGYw&utm_campaign=yelp_api_v3&utm_medium=api_v3_business_search&utm_source=8_C4NSGbL05eUQksKleGYw", "transactions": [], "phone": "+16172478100", "image_url": "https://s3-media2.fl.yelpcdn.com/bphoto/KbIlb1Sjk8ExHou_e0Q5cg/o.jpg"}, {"rating": 4.5, "display_phone": "(617) 267-0691", "price": "$$$", "categories": [{"title": "Seafood", "alias": "seafood"}, {"title": "Wine Bars", "alias": "wine_bars"}, {"title": "Cocktail Bars", "alias": "cocktailbars"}], "coordinates": {"longitude": -71.0776626, "latitude": 42.3511377}, "is_closed": false, "name": "Saltie Girl", "distance": 649.13453103, "review_count": 192, "id": "saltie-girl-boston", "location": {"display_address": ["281 Dartmouth St", "Boston, MA 02116"], "state": "MA", "city": "Boston", "address2": "", "country": "US", "zip_code": "02116", "address1": "281 Dartmouth St", "address3": null}, "url": "https://www.yelp.com/biz/saltie-girl-boston?adjust_creative=8_C4NSGbL05eUQksKleGYw&utm_campaign=yelp_api_v3&utm_medium=api_v3_business_search&utm_source=8_C4NSGbL05eUQksKleGYw", "transactions": [], "phone": "+16172670691", "image_url": "https://s3-media1.fl.yelpcdn.com/bphoto/R3itwxk4m6WbKw7VERPyMw/o.jpg"}, {"rating": 5.0, "display_phone": "(857) 256-2173", "price": "$", "categories": [{"title": "Coffee & Tea", "alias": "coffee"}], "coordinates": {"longitude": -71.0551238669604, "latitude": 42.3516830317191}, "is_closed": false, "name": "The Well Coffee House", "distance": 1391.9443982419998, "review_count": 44, "id": "the-well-coffee-house-boston-4", "location": {"display_address": ["2 S Station", "Ste A6", "Boston, MA 02011"], "state": "MA", "city": "Boston", "address2": "Ste A6", "country": "US", "zip_code": "02011", "address1": "2 S Station", "address3": ""}, "url": "https://www.yelp.com/biz/the-well-coffee-house-boston-4?adjust_creative=8_C4NSGbL05eUQksKleGYw&utm_campaign=yelp_api_v3&utm_medium=api_v3_business_search&utm_source=8_C4NSGbL05eUQksKleGYw", "transactions": [], "phone": "+18572562173", "image_url": "https://s3-media3.fl.yelpcdn.com/bphoto/Juw4l-pBbg5br3SX3ys03Q/o.jpg"}, {"rating": 4.5, "display_phone": "(617) 523-6676", "categories": [{"title": "Landmarks & Historical Buildings", "alias": "landmarks"}], "coordinates": {"longitude": -71.0545099, "latitude": 42.36649}, "is_closed": false, "name": "Old North Church", "distance": 2462.040591366, "review_count": 83, "id": "old-north-church-boston", "location": {"display_address": ["193 Salem St", "Boston, MA 02113"], "state": "MA", "city": "Boston", "address2": "", "country": "US", "zip_code": "02113", "address1": "193 Salem St", "address3": ""}, "url": "https://www.yelp.com/biz/old-north-church-boston?adjust_creative=8_C4NSGbL05eUQksKleGYw&utm_campaign=yelp_api_v3&utm_medium=api_v3_business_search&utm_source=8_C4NSGbL05eUQksKleGYw", "transactions": [], "phone": "+16175236676", "image_url": "https://s3-media4.fl.yelpcdn.com/bphoto/zNaofdeDC3Ap02y11uf4vA/o.jpg"}, {"rating": 4.5, "display_phone": "(617) 901-6017", "price": "$", "categories": [{"title": "Greek", "alias": "greek"}, {"title": "Salad", "alias": "salad"}], "coordinates": {"longitude": -71.0564072857827, "latitude": 42.3592757928467}, "is_closed": false, "name": "Zo", "distance": 1761.524984024, "review_count": 311, "id": "zo-boston", "location": {"display_address": ["3 Center Plz", "Boston, MA 02108"], "state": "MA", "city": "Boston", "address2": "", "country": "US", "zip_code": "02108", "address1": "3 Center Plz", "address3": ""}, "url": "https://www.yelp.com/biz/zo-boston?adjust_creative=8_C4NSGbL05eUQksKleGYw&utm_campaign=yelp_api_v3&utm_medium=api_v3_business_search&utm_source=8_C4NSGbL05eUQksKleGYw", "transactions": [], "phone": "+16179016017", "image_url": "https://s3-media2.fl.yelpcdn.com/bphoto/FO0OuHX-uO7wPkdJ-zDg7Q/o.jpg"}, {"rating": 4.5, "display_phone": "(617) 742-4101", "price": "$$", "categories": [{"title": "Specialty Food", "alias": "gourmet"}, {"title": "Italian", "alias": "italian"}, {"title": "Pizza", "alias": "pizza"}], "coordinates": {"longitude": -71.0555877685547, "latitude": 42.3651084899902}, "is_closed": false, "name": "Monica's Mercato", "distance": 2311.33893602, "review_count": 268, "id": "monicas-mercato-boston-3", "location": {"display_address": ["130 Salem St", "Boston, MA 02113"], "state": "MA", "city": "Boston", "address2": "", "country": "US", "zip_code": "02113", "address1": "130 Salem St", "address3": ""}, "url": "https://www.yelp.com/biz/monicas-mercato-boston-3?adjust_creative=8_C4NSGbL05eUQksKleGYw&utm_campaign=yelp_api_v3&utm_medium=api_v3_business_search&utm_source=8_C4NSGbL05eUQksKleGYw", "transactions": [], "phone": "+16177424101", "image_url": "https://s3-media4.fl.yelpcdn.com/bphoto/fVoB1JLBn22PxcaL9hiwxA/o.jpg"}, {"rating": 4.5, "display_phone": "", "price": "$$", "categories": [{"title": "Coffee & Tea", "alias": "coffee"}], "coordinates": {"longitude": -71.0581312420251, "latitude": 42.3515995758639}, "is_closed": false, "name": "Gracenote", "distance": 1155.9130255256, "review_count": 72, "id": "gracenote-boston-4", "location": {"display_address": ["108 Lincoln St", "Boston, MA 02111"], "state": "MA", "city": "Boston", "address2": "", "country": "US", "zip_code": "02111", "address1": "108 Lincoln St", "address3": ""}, "url": "https://www.yelp.com/biz/gracenote-boston-4?adjust_creative=8_C4NSGbL05eUQksKleGYw&utm_campaign=yelp_api_v3&utm_medium=api_v3_business_search&utm_source=8_C4NSGbL05eUQksKleGYw", "transactions": [], "phone": "", "image_url": "https://s3-media1.fl.yelpcdn.com/bphoto/FwPWtJNicg_L_GiA7VIIrQ/o.jpg"}, {"rating": 4.5, "display_phone": "(857) 350-4626", "price": "$$", "categories": [{"title": "Seafood", "alias": "seafood"}], "coordinates": {"longitude": -71.0793047980242, "latitude": 42.3487198596183}, "is_closed": false, "name": "Luke's Lobster Back Bay", "distance": 669.8645522237999, "review_count": 572, "id": "lukes-lobster-back-bay-boston", "location": {"display_address": ["75 Exeter Street", "Boston, MA 02116"], "state": "MA", "city": "Boston", "address2": "", "country": "US", "zip_code": "02116", "address1": "75 Exeter Street", "address3": ""}, "url": "https://www.yelp.com/biz/lukes-lobster-back-bay-boston?adjust_creative=8_C4NSGbL05eUQksKleGYw&utm_campaign=yelp_api_v3&utm_medium=api_v3_business_search&utm_source=8_C4NSGbL05eUQksKleGYw", "transactions": [], "phone": "+18573504626", "image_url": "https://s3-media1.fl.yelpcdn.com/bphoto/TBUmILQ4i-CQwCJyyKFyMw/o.jpg"}, {"rating": 4.5, "display_phone": "(617) 338-4333", "price": "$$", "categories": [{"title": "Bakeries", "alias": "bakeries"}, {"title": "Coffee & Tea", "alias": "coffee"}, {"title": "Sandwiches", "alias": "sandwiches"}], "coordinates": {"longitude": -71.0488128662109, "latitude": 42.3513679504395}, "is_closed": false, "name": "Flour Bakery + Caf\u00e9", "distance": 1884.7824034159999, "review_count": 837, "id": "flour-bakery-caf\u00e9-boston-4", "location": {"display_address": ["12 Farnsworth St", "Boston, MA 02210"], "state": "MA", "city": "Boston", "address2": "", "country": "US", "zip_code": "02210", "address1": "12 Farnsworth St", "address3": ""}, "url": "https://www.yelp.com/biz/flour-bakery-caf%C3%A9-boston-4?adjust_creative=8_C4NSGbL05eUQksKleGYw&utm_campaign=yelp_api_v3&utm_medium=api_v3_business_search&utm_source=8_C4NSGbL05eUQksKleGYw", "transactions": [], "phone": "+16173384333", "image_url": "https://s3-media4.fl.yelpcdn.com/bphoto/kl0QKGbMFVZE3Rexu_tOWg/o.jpg"}, {"rating": 4.5, "display_phone": "(617) 635-4505", "categories": [{"title": "Landmarks & Historical Buildings", "alias": "landmarks"}], "coordinates": {"longitude": -71.0570919513702, "latitude": 42.3606210188223}, "is_closed": false, "name": "New England Holocaust Memorial", "distance": 1836.2022224399998, "review_count": 82, "id": "new-england-holocaust-memorial-boston", "location": {"display_address": ["Congress St", "Between North St and Hanover St", "Boston, MA 02109"], "state": "MA", "city": "Boston", "address2": "Between North St and Hanover St", "country": "US", "zip_code": "02109", "address1": "Congress St", "address3": ""}, "url": "https://www.yelp.com/biz/new-england-holocaust-memorial-boston?adjust_creative=8_C4NSGbL05eUQksKleGYw&utm_campaign=yelp_api_v3&utm_medium=api_v3_business_search&utm_source=8_C4NSGbL05eUQksKleGYw", "transactions": [], "phone": "+16176354505", "image_url": "https://s3-media1.fl.yelpcdn.com/bphoto/bQIBMIkrpe_r3N-q1eBLJg/o.jpg"}, {"rating": 4.5, "display_phone": "(617) 338-6700", "price": "$", "categories": [{"title": "Italian", "alias": "italian"}, {"title": "Pizza", "alias": "pizza"}], "coordinates": {"longitude": -71.0546112, "latitude": 42.3580513}, "is_closed": false, "name": "Casa Razdora", "distance": 1772.578896748, "review_count": 275, "id": "casa-razdora-boston", "location": {"display_address": ["115 Water St", "Boston, MA 02109"], "state": "MA", "city": "Boston", "address2": "", "country": "US", "zip_code": "02109", "address1": "115 Water St", "address3": ""}, "url": "https://www.yelp.com/biz/casa-razdora-boston?adjust_creative=8_C4NSGbL05eUQksKleGYw&utm_campaign=yelp_api_v3&utm_medium=api_v3_business_search&utm_source=8_C4NSGbL05eUQksKleGYw", "transactions": [], "phone": "+16173386700", "image_url": "https://s3-media4.fl.yelpcdn.com/bphoto/6MDK76SqbCrL6G9oWYtPww/o.jpg"}, {"rating": 4.0, "display_phone": "(617) 867-9300", "price": "$$$$", "categories": [{"title": "French", "alias": "french"}, {"title": "Bars", "alias": "bars"}], "coordinates": {"longitude": -71.072759141675, "latitude": 42.3481578332115}, "is_closed": false, "name": "Mistral", "distance": 129.527810367, "review_count": 817, "id": "mistral-boston", "location": {"display_address": ["223 Columbus Ave", "Boston, MA 02116"], "state": "MA", "city": "Boston", "address2": "", "country": "US", "zip_code": "02116", "address1": "223 Columbus Ave", "address3": ""}, "url": "https://www.yelp.com/biz/mistral-boston?adjust_creative=8_C4NSGbL05eUQksKleGYw&utm_campaign=yelp_api_v3&utm_medium=api_v3_business_search&utm_source=8_C4NSGbL05eUQksKleGYw", "transactions": [], "phone": "+16178679300", "image_url": "https://s3-media1.fl.yelpcdn.com/bphoto/z8m4-NF9diw6igl5B938zw/o.jpg"}, {"rating": 4.0, "display_phone": "(617) 262-3023", "price": "$$$$", "categories": [{"title": "French", "alias": "french"}], "coordinates": {"longitude": -71.0815322399139, "latitude": 42.3488797992468}, "is_closed": false, "name": "L'Espalier", "distance": 815.1737920318, "review_count": 736, "id": "l-espalier-boston", "location": {"display_address": ["774 Boylston St", "Boston, MA 02199"], "state": "MA", "city": "Boston", "address2": "", "country": "US", "zip_code": "02199", "address1": "774 Boylston St", "address3": ""}, "url": "https://www.yelp.com/biz/l-espalier-boston?adjust_creative=8_C4NSGbL05eUQksKleGYw&utm_campaign=yelp_api_v3&utm_medium=api_v3_business_search&utm_source=8_C4NSGbL05eUQksKleGYw", "transactions": [], "phone": "+16172623023", "image_url": "https://s3-media1.fl.yelpcdn.com/bphoto/U3tYPwwCERJKE9pE8TLM-A/o.jpg"}, {"rating": 4.5, "display_phone": "(617) 532-5300", "price": "$$$", "categories": [{"title": "Seafood", "alias": "seafood"}], "coordinates": {"longitude": -71.095118452365, "latitude": 42.348682243174}, "is_closed": false, "name": "Island Creek Oyster Bar", "distance": 1964.0515716539999, "review_count": 2056, "id": "island-creek-oyster-bar-boston", "location": {"display_address": ["500 Commonwealth Ave", "Boston, MA 02215"], "state": "MA", "city": "Boston", "address2": "", "country": "US", "zip_code": "02215", "address1": "500 Commonwealth Ave", "address3": ""}, "url": "https://www.yelp.com/biz/island-creek-oyster-bar-boston?adjust_creative=8_C4NSGbL05eUQksKleGYw&utm_campaign=yelp_api_v3&utm_medium=api_v3_business_search&utm_source=8_C4NSGbL05eUQksKleGYw", "transactions": [], "phone": "+16175325300", "image_url": "https://s3-media4.fl.yelpcdn.com/bphoto/lvklNXiwAOu44sJWqxkAMQ/o.jpg"}, {"rating": 4.5, "display_phone": "", "categories": [{"title": "Local Flavor", "alias": "localflavor"}], "coordinates": {"longitude": -71.0578079223633, "latitude": 42.3589553833008}, "is_closed": false, "name": "City of Boston", "distance": 1552.9688431499999, "review_count": 116, "id": "city-of-boston-boston-3", "location": {"display_address": ["Boston, MA 02201"], "state": "MA", "city": "Boston", "address2": "", "country": "US", "zip_code": "02201", "address1": "", "address3": ""}, "url": "https://www.yelp.com/biz/city-of-boston-boston-3?adjust_creative=8_C4NSGbL05eUQksKleGYw&utm_campaign=yelp_api_v3&utm_medium=api_v3_business_search&utm_source=8_C4NSGbL05eUQksKleGYw", "transactions": [], "phone": "", "image_url": "https://s3-media1.fl.yelpcdn.com/bphoto/5xZdVMjDriRqcf2RLAjjCA/o.jpg"}, {"rating": 4.5, "display_phone": "(617) 422-5898", "price": "$", "categories": [{"title": "Sandwiches", "alias": "sandwiches"}, {"title": "Vegan", "alias": "vegan"}, {"title": "Bubble Tea", "alias": "bubbletea"}], "coordinates": {"longitude": -71.0624636, "latitude": 42.3513507}, "is_closed": false, "name": "Cuong's Vegan Sandwiches", "distance": 830.8554102059999, "review_count": 46, "id": "cuongs-vegan-sandwiches-boston-2", "location": {"display_address": ["5 Beach St", "Boston, MA 02111"], "state": "MA", "city": "Boston", "address2": "", "country": "US", "zip_code": "02111", "address1": "5 Beach St", "address3": ""}, "url": "https://www.yelp.com/biz/cuongs-vegan-sandwiches-boston-2?adjust_creative=8_C4NSGbL05eUQksKleGYw&utm_campaign=yelp_api_v3&utm_medium=api_v3_business_search&utm_source=8_C4NSGbL05eUQksKleGYw", "transactions": [], "phone": "+16174225898", "image_url": "https://s3-media2.fl.yelpcdn.com/bphoto/j6-8TUB4cvwfZpoWC3V2Kw/o.jpg"}, {"rating": 4.0, "display_phone": "(617) 927-0066", "price": "$$", "categories": [{"title": "Ice Cream & Frozen Yogurt", "alias": "icecream"}, {"title": "Pizza", "alias": "pizza"}, {"title": "Italian", "alias": "italian"}], "coordinates": {"longitude": -71.070559652418, "latitude": 42.3447380009299}, "is_closed": false, "name": "Picco", "distance": 349.859009219, "review_count": 992, "id": "picco-boston-2", "location": {"display_address": ["513 Tremont St", "Boston, MA 02116"], "state": "MA", "city": "Boston", "address2": "", "country": "US", "zip_code": "02116", "address1": "513 Tremont St", "address3": ""}, "url": "https://www.yelp.com/biz/picco-boston-2?adjust_creative=8_C4NSGbL05eUQksKleGYw&utm_campaign=yelp_api_v3&utm_medium=api_v3_business_search&utm_source=8_C4NSGbL05eUQksKleGYw", "transactions": ["delivery"], "phone": "+16179270066", "image_url": "https://s3-media1.fl.yelpcdn.com/bphoto/LG0wkaRRzin3frM0DsB_Fg/o.jpg"}, {"rating": 4.5, "display_phone": "(304) 563-4951", "categories": [{"title": "Parks", "alias": "parks"}], "coordinates": {"longitude": -71.0657501220703, "latitude": 42.3553726380041}, "is_closed": false, "name": "Boston Common", "distance": 951.2474641015999, "review_count": 362, "id": "boston-common-boston", "location": {"display_address": ["Beacon St", "Boston, MA 02139"], "state": "MA", "city": "Boston", "address2": null, "country": "US", "zip_code": "02139", "address1": "Beacon St", "address3": ""}, "url": "https://www.yelp.com/biz/boston-common-boston?adjust_creative=8_C4NSGbL05eUQksKleGYw&utm_campaign=yelp_api_v3&utm_medium=api_v3_business_search&utm_source=8_C4NSGbL05eUQksKleGYw", "transactions": [], "phone": "+13045634951", "image_url": "https://s3-media1.fl.yelpcdn.com/bphoto/Jhx9n_PE3WjKId1LxLpwLw/o.jpg"}, {"rating": 4.5, "display_phone": "(617) 737-0099", "price": "$$$$", "categories": [{"title": "French", "alias": "french"}, {"title": "Italian", "alias": "italian"}, {"title": "Wine Bars", "alias": "wine_bars"}], "coordinates": {"longitude": -71.0483829, "latitude": 42.3504581}, "is_closed": false, "name": "Menton", "distance": 1900.7575169259999, "review_count": 359, "id": "menton-boston", "location": {"display_address": ["354 Congress St", "Boston, MA 02210"], "state": "MA", "city": "Boston", "address2": "", "country": "US", "zip_code": "02210", "address1": "354 Congress St", "address3": ""}, "url": "https://www.yelp.com/biz/menton-boston?adjust_creative=8_C4NSGbL05eUQksKleGYw&utm_campaign=yelp_api_v3&utm_medium=api_v3_business_search&utm_source=8_C4NSGbL05eUQksKleGYw", "transactions": [], "phone": "+16177370099", "image_url": "https://s3-media2.fl.yelpcdn.com/bphoto/yyMAE_WG-RYkT18S68eqcg/o.jpg"}, {"rating": 4.0, "display_phone": "(617) 536-4300", "price": "$$$", "categories": [{"title": "Spanish", "alias": "spanish"}], "coordinates": {"longitude": -71.0758940796503, "latitude": 42.3369631861411}, "is_closed": false, "name": "Toro", "distance": 1268.7742050779998, "review_count": 1687, "id": "toro-boston", "location": {"display_address": ["1704 Washington St", "Boston, MA 02118"], "state": "MA", "city": "Boston", "address2": null, "country": "US", "zip_code": "02118", "address1": "1704 Washington St", "address3": ""}, "url": "https://www.yelp.com/biz/toro-boston?adjust_creative=8_C4NSGbL05eUQksKleGYw&utm_campaign=yelp_api_v3&utm_medium=api_v3_business_search&utm_source=8_C4NSGbL05eUQksKleGYw", "transactions": [], "phone": "+16175364300", "image_url": "https://s3-media2.fl.yelpcdn.com/bphoto/vavJneJjBulHvZAGit-bdQ/o.jpg"}, {"rating": 4.5, "display_phone": "(617) 951-2124", "price": "$", "categories": [{"title": "Sandwiches", "alias": "sandwiches"}, {"title": "Korean", "alias": "korean"}, {"title": "Delis", "alias": "delis"}], "coordinates": {"longitude": -71.0585443675518, "latitude": 42.3549818247557}, "is_closed": false, "name": "Grass Roots Cafe", "distance": 1293.387290104, "review_count": 102, "id": "grass-roots-cafe-boston", "location": {"display_address": ["101 Arch St", "Boston, MA 02110"], "state": "MA", "city": "Boston", "address2": "", "country": "US", "zip_code": "02110", "address1": "101 Arch St", "address3": ""}, "url": "https://www.yelp.com/biz/grass-roots-cafe-boston?adjust_creative=8_C4NSGbL05eUQksKleGYw&utm_campaign=yelp_api_v3&utm_medium=api_v3_business_search&utm_source=8_C4NSGbL05eUQksKleGYw", "transactions": [], "phone": "+16179512124", "image_url": "https://s3-media2.fl.yelpcdn.com/bphoto/P6kopthOeQ41rqmd1RULqQ/o.jpg"}, {"rating": 4.0, "display_phone": "(617) 267-4300", "price": "$$", "categories": [{"title": "Bakeries", "alias": "bakeries"}, {"title": "Coffee & Tea", "alias": "coffee"}, {"title": "Sandwiches", "alias": "sandwiches"}], "coordinates": {"longitude": -71.074548, "latitude": 42.338443}, "is_closed": false, "name": "Flour Bakery & Cafe", "distance": 1079.855391818, "review_count": 783, "id": "flour-bakery-and-cafe-boston-2", "location": {"display_address": ["1595 Washington St", "Boston, MA 02118"], "state": "MA", "city": "Boston", "address2": "", "country": "US", "zip_code": "02118", "address1": "1595 Washington St", "address3": ""}, "url": "https://www.yelp.com/biz/flour-bakery-and-cafe-boston-2?adjust_creative=8_C4NSGbL05eUQksKleGYw&utm_campaign=yelp_api_v3&utm_medium=api_v3_business_search&utm_source=8_C4NSGbL05eUQksKleGYw", "transactions": ["pickup"], "phone": "+16172674300", "image_url": "https://s3-media1.fl.yelpcdn.com/bphoto/GFa1WcFY1r5vgBhI3APOGQ/o.jpg"}, {"rating": 4.5, "display_phone": "(617) 553-5900", "price": "$$$", "categories": [{"title": "American (New)", "alias": "newamerican"}, {"title": "Seafood", "alias": "seafood"}], "coordinates": {"longitude": -71.0473232766807, "latitude": 42.3496337161869}, "is_closed": false, "name": "Row 34", "distance": 1975.6220825179998, "review_count": 786, "id": "row-34-boston", "location": {"display_address": ["383 Congress St", "Boston, MA 02210"], "state": "MA", "city": "Boston", "address2": "", "country": "US", "zip_code": "02210", "address1": "383 Congress St", "address3": ""}, "url": "https://www.yelp.com/biz/row-34-boston?adjust_creative=8_C4NSGbL05eUQksKleGYw&utm_campaign=yelp_api_v3&utm_medium=api_v3_business_search&utm_source=8_C4NSGbL05eUQksKleGYw", "transactions": [], "phone": "+16175535900", "image_url": "https://s3-media3.fl.yelpcdn.com/bphoto/wXUa2ADitbHQfq5PSbHYaw/o.jpg"}, {"rating": 4.5, "display_phone": "(617) 303-0113", "price": "$$", "categories": [{"title": "Desserts", "alias": "desserts"}, {"title": "Chocolatiers & Shops", "alias": "chocolate"}, {"title": "Coffee & Tea", "alias": "coffee"}], "coordinates": {"longitude": -71.0754537, "latitude": 42.3511188}, "is_closed": false, "name": "L.A. Burdick Handmade Chocolates", "distance": 502.53337744359993, "review_count": 236, "id": "l-a-burdick-handmade-chocolates-boston-3", "location": {"display_address": ["220 Clarendon St", "Boston, MA 02116"], "state": "MA", "city": "Boston", "address2": "", "country": "US", "zip_code": "02116", "address1": "220 Clarendon St", "address3": ""}, "url": "https://www.yelp.com/biz/l-a-burdick-handmade-chocolates-boston-3?adjust_creative=8_C4NSGbL05eUQksKleGYw&utm_campaign=yelp_api_v3&utm_medium=api_v3_business_search&utm_source=8_C4NSGbL05eUQksKleGYw", "transactions": [], "phone": "+16173030113", "image_url": "https://s3-media2.fl.yelpcdn.com/bphoto/utTTy8X-82UNTP4R3uU2KA/o.jpg"}, {"rating": 4.5, "display_phone": "(617) 292-0098", "price": "$$", "categories": [{"title": "Coffee & Tea", "alias": "coffee"}], "coordinates": {"longitude": -71.0585168749094, "latitude": 42.3571470379829}, "is_closed": false, "name": "DavidsTea", "distance": 1494.5329030799999, "review_count": 87, "id": "davidstea-boston-5", "location": {"display_address": ["298 Washington St", "Boston, MA 02108"], "state": "MA", "city": "Boston", "address2": null, "country": "US", "zip_code": "02108", "address1": "298 Washington St", "address3": ""}, "url": "https://www.yelp.com/biz/davidstea-boston-5?adjust_creative=8_C4NSGbL05eUQksKleGYw&utm_campaign=yelp_api_v3&utm_medium=api_v3_business_search&utm_source=8_C4NSGbL05eUQksKleGYw", "transactions": [], "phone": "+16172920098", "image_url": "https://s3-media1.fl.yelpcdn.com/bphoto/-mIzYfosMit_jsvhYi8oTg/o.jpg"}, {"rating": 4.5, "display_phone": "(617) 247-3333", "price": "$$", "categories": [{"title": "Coffee & Tea", "alias": "coffee"}, {"title": "Breakfast & Brunch", "alias": "breakfast_brunch"}, {"title": "Sandwiches", "alias": "sandwiches"}], "coordinates": {"longitude": -71.0746758944958, "latitude": 42.351734691006}, "is_closed": false, "name": "Thinking Cup", "distance": 516.520730746, "review_count": 485, "id": "thinking-cup-boston-5", "location": {"display_address": ["85 Newbury St", "Boston, MA 02116"], "state": "MA", "city": "Boston", "address2": "", "country": "US", "zip_code": "02116", "address1": "85 Newbury St", "address3": ""}, "url": "https://www.yelp.com/biz/thinking-cup-boston-5?adjust_creative=8_C4NSGbL05eUQksKleGYw&utm_campaign=yelp_api_v3&utm_medium=api_v3_business_search&utm_source=8_C4NSGbL05eUQksKleGYw", "transactions": [], "phone": "+16172473333", "image_url": "https://s3-media1.fl.yelpcdn.com/bphoto/MBpcihmxh4hxnpj7S9YYug/o.jpg"}, {"rating": 4.0, "display_phone": "(617) 818-7782", "price": "$", "categories": [{"title": "Japanese", "alias": "japanese"}, {"title": "Sushi Bars", "alias": "sushi"}], "coordinates": {"longitude": -71.0609107137522, "latitude": 42.3515687774432}, "is_closed": false, "name": "Avana Sushi", "distance": 944.670831818, "review_count": 789, "id": "avana-sushi-boston", "location": {"display_address": ["42 Beach St", "Boston, MA 02111"], "state": "MA", "city": "Boston", "address2": "", "country": "US", "zip_code": "02111", "address1": "42 Beach St", "address3": ""}, "url": "https://www.yelp.com/biz/avana-sushi-boston?adjust_creative=8_C4NSGbL05eUQksKleGYw&utm_campaign=yelp_api_v3&utm_medium=api_v3_business_search&utm_source=8_C4NSGbL05eUQksKleGYw", "transactions": ["delivery", "pickup"], "phone": "+16178187782", "image_url": "https://s3-media1.fl.yelpcdn.com/bphoto/y8RWhhblmgUTajfeg1E23g/o.jpg"}, {"rating": 4.5, "display_phone": "(857) 250-4497", "price": "$$", "categories": [{"title": "British", "alias": "british"}], "coordinates": {"longitude": -71.0891945599281, "latitude": 42.349712092998}, "is_closed": false, "name": "Cornish Pasty", "distance": 1489.850850218, "review_count": 88, "id": "cornish-pasty-boston-3", "location": {"display_address": ["51 Massachusetts Ave", "Boston, MA 02115"], "state": "MA", "city": "Boston", "address2": "", "country": "US", "zip_code": "02115", "address1": "51 Massachusetts Ave", "address3": null}, "url": "https://www.yelp.com/biz/cornish-pasty-boston-3?adjust_creative=8_C4NSGbL05eUQksKleGYw&utm_campaign=yelp_api_v3&utm_medium=api_v3_business_search&utm_source=8_C4NSGbL05eUQksKleGYw", "transactions": [], "phone": "+18572504497", "image_url": "https://s3-media1.fl.yelpcdn.com/bphoto/eX6vG1D066nA4cB5-NyrvA/o.jpg"}, {"rating": 4.5, "display_phone": "(617) 720-5555", "price": "$", "categories": [{"title": "Sandwiches", "alias": "sandwiches"}, {"title": "Salad", "alias": "salad"}, {"title": "Italian", "alias": "italian"}], "coordinates": {"longitude": -71.05507, "latitude": 42.35927}, "is_closed": false, "name": "Al's State Street Cafe", "distance": 1838.0045223060001, "review_count": 402, "id": "als-state-street-cafe-boston", "location": {"display_address": ["110 State St", "Boston, MA 02109"], "state": "MA", "city": "Boston", "address2": "", "country": "US", "zip_code": "02109", "address1": "110 State St", "address3": ""}, "url": "https://www.yelp.com/biz/als-state-street-cafe-boston?adjust_creative=8_C4NSGbL05eUQksKleGYw&utm_campaign=yelp_api_v3&utm_medium=api_v3_business_search&utm_source=8_C4NSGbL05eUQksKleGYw", "transactions": ["pickup"], "phone": "+16177205555", "image_url": "https://s3-media2.fl.yelpcdn.com/bphoto/3oellu-CceBkOi5FaM6yPg/o.jpg"}, {"rating": 4.5, "display_phone": "(617) 982-7955", "price": "$", "categories": [{"title": "Ice Cream & Frozen Yogurt", "alias": "icecream"}, {"title": "Bakeries", "alias": "bakeries"}, {"title": "Coffee & Tea", "alias": "coffee"}], "coordinates": {"longitude": -71.075637, "latitude": 42.342132}, "is_closed": false, "name": "FoMu", "distance": 730.512900272, "review_count": 78, "id": "fomu-boston-2", "location": {"display_address": ["655 Tremont St", "Boston, MA 02118"], "state": "MA", "city": "Boston", "address2": "", "country": "US", "zip_code": "02118", "address1": "655 Tremont St", "address3": ""}, "url": "https://www.yelp.com/biz/fomu-boston-2?adjust_creative=8_C4NSGbL05eUQksKleGYw&utm_campaign=yelp_api_v3&utm_medium=api_v3_business_search&utm_source=8_C4NSGbL05eUQksKleGYw", "transactions": [], "phone": "+16179827955", "image_url": "https://s3-media3.fl.yelpcdn.com/bphoto/5RqMQVR_awL3il60Z0pF9w/o.jpg"}, {"rating": 4.5, "display_phone": "(617) 356-1100", "price": "$$$", "categories": [{"title": "Greek", "alias": "greek"}], "coordinates": {"longitude": -71.07043, "latitude": 42.34239}, "is_closed": false, "name": "KAVA neo-taverna", "distance": 608.445265942, "review_count": 121, "id": "kava-neo-taverna-boston-2", "location": {"display_address": ["315 Shawmut Ave", "Boston, MA 02118"], "state": "MA", "city": "Boston", "address2": "", "country": "US", "zip_code": "02118", "address1": "315 Shawmut Ave", "address3": ""}, "url": "https://www.yelp.com/biz/kava-neo-taverna-boston-2?adjust_creative=8_C4NSGbL05eUQksKleGYw&utm_campaign=yelp_api_v3&utm_medium=api_v3_business_search&utm_source=8_C4NSGbL05eUQksKleGYw", "transactions": [], "phone": "+16173561100", "image_url": "https://s3-media1.fl.yelpcdn.com/bphoto/tL9Wgu2Le7WqEC6FvkomQA/o.jpg"}, {"rating": 4.5, "display_phone": "(617) 350-0007", "price": "$$$", "categories": [{"title": "Italian", "alias": "italian"}], "coordinates": {"longitude": -71.07076, "latitude": 42.3493148}, "is_closed": false, "name": "Da Vinci", "distance": 168.4285998196, "review_count": 333, "id": "da-vinci-boston", "location": {"display_address": ["162 Columbus Ave", "Boston, MA 02116"], "state": "MA", "city": "Boston", "address2": "", "country": "US", "zip_code": "02116", "address1": "162 Columbus Ave", "address3": ""}, "url": "https://www.yelp.com/biz/da-vinci-boston?adjust_creative=8_C4NSGbL05eUQksKleGYw&utm_campaign=yelp_api_v3&utm_medium=api_v3_business_search&utm_source=8_C4NSGbL05eUQksKleGYw", "transactions": ["delivery"], "phone": "+16173500007", "image_url": "https://s3-media3.fl.yelpcdn.com/bphoto/ORybKO4sJzqAHZpZT9ncIw/o.jpg"}, {"rating": 4.0, "display_phone": "(617) 523-9026", "price": "$$", "categories": [{"title": "Italian", "alias": "italian"}], "coordinates": {"longitude": -71.05344, "latitude": 42.3645799}, "is_closed": false, "name": "Giacomo's Ristorante", "distance": 2372.09634904, "review_count": 2506, "id": "giacomos-ristorante-boston", "location": {"display_address": ["355 Hanover St", "Boston, MA 02113"], "state": "MA", "city": "Boston", "address2": "", "country": "US", "zip_code": "02113", "address1": "355 Hanover St", "address3": ""}, "url": "https://www.yelp.com/biz/giacomos-ristorante-boston?adjust_creative=8_C4NSGbL05eUQksKleGYw&utm_campaign=yelp_api_v3&utm_medium=api_v3_business_search&utm_source=8_C4NSGbL05eUQksKleGYw", "transactions": [], "phone": "+16175239026", "image_url": "https://s3-media4.fl.yelpcdn.com/bphoto/g-lo6_IuVNaiKMCikW4bSQ/o.jpg"}], "total": 24769}